     2.11           OBSERVATION DATA    G (GPS)             RINEX VERSION / TYPE
teqc  2012Jan19                         20120316 15:57:35UTCPGM / RUN BY / DATE
OSX ker:10.8.0|Core 2 Duo|gcc 4.2 -m64|OSX ker:10.8.0+|=+   COMMENT
BIT 2 OF LLI FLAGS DATA COLLECTED UNDER A/S CONDITION       COMMENT
CREF0001                                                    MARKER NAME
0001                                                        MARKER NUMBER
-Unknown-           -Unknown-                               OBSERVER / AGENCY
4744140960          TRIMBLE NETRS       1.1-3               REC # / TYPE / VERS
00000000            TRM41249.00     NONE                    ANT # / TYPE
  1529215.69    -4465715.78   4275065.55                    APPROX POSITION XYZ
     1     1                                                WAVELENGTH FACT L1/2
     7    L1    L2    C1    P2    P1    S1    S2            # / TYPES OF OBSERV
    15                                                      LEAP SECONDS
 SNR is mapped to RINEX snr flag value [0-9]                COMMENT
  L1 & L2: min(max(int(snr_dBHz/6), 0), 9)                  COMMENT
  2012     3    16    13    29    7.0000000     GPS         TIME OF FIRST OBS
                                                            END OF HEADER
 12  3 16 13 29  7.0000000  0 10G02G07G08G15G29G10G05G21G04G26
   1392197.68857   1055334.77655  21859392.7424   21859388.8054
        47.7504         34.0004
    745654.32056    577038.06853  24795512.6334   24795511.1294
        37.5004         18.2504
    135043.30256    119412.39353  24586591.1484   24586591.2894
        41.2504         20.7504
   -346183.03957   -238301.52155  22715691.5554   22715689.4184
        46.5004         33.5004
    600076.77958    469105.11956  21212643.5634   21212640.8324
        50.5004         40.7504
   1493581.77115                  24770931.586
        32.750
   1073410.79358    819894.38057  20754698.4454   20754696.1454
        50.0004         42.0004
    -86212.90756    -52402.28453  24927837.4144   24927835.3164
        39.7504         20.5004
   1231649.64615                  25444415.789
        35.000
     52830.42358     60601.88156  20471452.2584   20471449.9964
        51.5004         40.0004
 12  3 16 13 29  8.0000000  0 10G02G07G08G15G29G10G05G21G04G26
   1394704.72147   1057288.30845  21859869.5394   21859865.8674
        47.5004         34.0004
    745949.95946    577268.41743  24795569.0314   24795567.5354
        37.7504         18.2504
    133318.85946    118068.68443  24586262.9774   24586263.2934
        41.0004         20.5004
   -349654.81747   -241006.79745  22715030.6024   22715028.9964
        46.5004         33.0004
    599897.88348    468965.71846  21212609.3594   21212606.8914
        50.5004         41.0004
   1496883.641 5                  24771559.141
        33.500
   1074766.35448    820950.65947  20754956.4144   20754954.0554
        50.5004         42.0004
    -89304.75946    -54811.53243  24927248.8754   24927247.0514
        40.2504         21.0004
   1234970.269 5                  25445049.016
        35.250
     50837.72248     59049.12946  20471072.9534   20471070.8164
        51.2504         40.0004
 12  3 16 13 29  9.0000000  0 10G02G07G08G15G29G10G05G21G04G26
   1397211.66947   1059241.77045  21860346.7344   21860343.1954
        47.2504         34.0004
    746245.69346    577498.86442  24795625.3204   24795624.0704
        38.2504         17.7504
    131594.36246    116724.91643  24585935.2814   24585935.3324
        41.0004         20.2504
   -353126.77147   -243712.21745  22714369.8054   22714368.0124
        46.0004         32.7504
    599719.21048    468826.49346  21212575.1564   21212572.9734
        50.5004         40.7504
   1500184.961 5                  24772186.953
        33.500
   1076121.74848    822006.80847  20755214.3834   20755211.9804
        50.2504         42.0004
    -92397.11546    -57221.16743  24926661.1804   24926658.5664
        40.5004         20.7504
   1238290.526 5                  25445680.117
        35.000
     48845.22948     57496.53646  20470693.5864   20470691.3754
        51.2504         40.0004
 12  3 16 13 29 10.0000000  0 10G02G07G08G15G29G10G05G21G04G26
   1399719.43747   1061195.87645  21860823.8674   21860819.6914
        47.0004         34.0004
    746542.51946    577730.15742  24795681.5944   24795680.3754
        38.7504         17.7504
    129870.74346    115381.83443  24585606.7034   24585607.1374
        41.0004         20.7504
   -356597.97647   -246417.06045  22713709.4614   22713707.6054
        46.2504         32.0004
    599541.67748    468688.15346  21212541.5554   21212539.1024
        50.5004         40.5004
   1503486.857 5                  24772815.477
        33.000
   1077477.94148    823063.57847  20755472.3674   20755470.0434
        50.2504         42.0004
    -95489.05446    -59630.47143  24926072.3524   24926069.9144
        40.2504         21.0004
   1241611.262 5                  25446311.844
        35.250
     46853.92648     55944.87646  20470315.1484   20470312.4884
        51.7504         40.0004
 12  3 16 13 29 11.0000000  0 10G02G07G08G15G29G10G05G21G04G26
   1402227.03247   1063149.84245  21861301.4694   21861297.4414
        47.0004         34.0004
    746839.40846    577961.49142  24795737.4144   24795736.8634
        38.5004         17.2504
    128147.03846    114038.68743  24585279.2734   24585279.5124
        40.7504         20.2504
   -360069.46247   -249122.10945  22713048.7584   22713047.3484
        46.2504         32.5004
    599364.26548    468549.90846  21212508.0234   21212504.6454
        50.7504         40.5004
   1506788.082 5                  24773443.438
        33.000
   1078833.90048    824120.16947  20755730.5164   20755727.9574
        50.0004         42.0004
    -98581.51746    -62040.18443  24925484.5784   24925481.8554
        40.0004         20.7504
   1244931.612 6                  25446944.000
        36.000
     44862.79648     54393.34346  20469936.0554   20469933.7034
        51.5004         40.0004
 12  3 16 13 29 12.0000000  0 10G02G07G08G15G29G10G05G21G04G26
   1404735.64347   1065104.60245  21861778.3754   21861774.9414
        47.2504         34.5004
    747137.54946    578193.79742  24795794.1414   24795792.8594
        38.0004         17.7504
    126424.41146    112696.38143  24584950.8524   24584951.4344
        40.5004         20.5004
   -363539.97647   -251826.40045  22712388.5474   22712387.1174
        46.5004         32.2504
    599188.19148    468412.70346  21212474.2114   21212471.3794
        51.0004         40.5004
   1510089.961 5                  24774071.586
        32.500
   1080190.82648    825177.52347  20755988.5164   20755986.1294
        50.0004         42.2504
   -101673.39446    -64449.43143  24924895.7424   24924893.5274
        39.5004         20.7504
   1248252.601 5                  25447575.867
        35.750
     42873.01548     52842.86846  20469557.3284   20469555.1994
        51.5004         40.5004
 12  3 16 13 29 13.0000000  0 10G02G07G08G15G29G10G05G21G04G26
   1407244.75447   1067059.74845  21862255.6804   21862252.3594
        47.0004         34.0004
    747436.48546    578426.72442  24795850.6334   24795850.2774
        38.7504         17.2504
    124702.41346    111354.56643  24584623.7814   24584623.7034
        40.0004         21.0004
   -367010.05547   -254530.35145  22711728.0164   22711726.4614
        46.0004         32.5004
    599012.93648    468276.13846  21212441.3134   21212438.0944
        50.7504         40.5004
   1513392.034 5                  24774699.547
        33.000
   1081548.22748    826235.23547  20756247.1024   20756244.6094
        50.0004         42.0004
   -104765.11846    -66858.55943  24924307.3204   24924305.1174
        39.7504         20.7504
   1251573.880 6                  25448207.031
        36.000
     40884.10348     51293.06946  20469179.0634   20469176.4574
        51.0004         40.7504
 12  3 16 13 29 14.0000000  0 10G02G07G08G15G29G10G05G21G04G26
   1409752.90947   1069014.15545  21862733.0554   21862729.7274
        47.5004         34.0004
    747734.63646    578659.05442  24795908.2034   24795906.9964
        38.7504         17.7504
    122979.49846    110012.04043  24584295.7894   24584295.8794
        41.0004         21.0004
   -370481.18947   -257235.12745  22711067.6954   22711066.1484
        46.5004         33.0004
    598837.01748    468139.05446  21212407.8984   21212404.5984
        51.0004         41.0004
   1516692.689 5                  24775327.836
        32.750
   1082904.62848    827292.17047  20756505.0554   20756502.7734
        49.7504         42.0004
   -107858.20146    -69268.75243  24923719.0554   24923716.5004
        39.5004         20.7504
   1254893.879 6                  25448839.242
        36.250
     38894.56748     49742.77346  20468800.2894   20468798.0944
        50.7504         40.7504
 12  3 16 13 29 15.0000000  0 10G02G07G08G15G29G10G05G21G04G26
   1412262.55947   1070969.72645  21863211.1174   21863207.3874
        47.5004         34.0004
    748034.54446    578892.75442  24795965.2974   24795963.8914
        38.5004         17.2504
    121258.16846    108670.74443  24583968.0554   24583968.2504
        40.7504         21.0004
   -373950.88247   -259938.77845  22710407.1094   22710405.5554
        46.0004         33.2504
    598662.91748    468003.39146  21212374.6804   21212371.9494
        51.5004         41.0004
   1519994.480 5                  24775955.805
        33.250
   1084262.46248    828350.22247  20756763.8914   20756760.8834
        50.0004         42.0004
   -110950.15046    -71678.09543  24923130.3524   24923128.2974
        39.2504         20.7504
   1258215.080 6                  25449470.344
        37.000
     36906.85848     48193.91146  20468421.9064   20468419.7704
        50.2504         40.5004
 12  3 16 13 29 16.0000000  0 10G02G07G08G15G29G10G05G21G04G26
   1414772.58847   1072925.58845  21863688.3364   21863684.6954
        47.7504         34.2504
    748335.08946    579126.97442  24796022.1414   24796020.9694
        38.2504         17.7504
    119537.26746    107329.77443  24583641.1334   24583640.8674
        41.0004         20.7504
   -377420.31047   -262642.22545  22709747.0704   22709745.6454
        46.2504         33.5004
    598489.49348    467868.26046  21212341.8204   21212338.7814
        51.2504         40.7504
   1523296.313 5                  24776584.219
        33.000
   1085620.62848    829408.53247  20757021.8754   20757019.2734
        50.0004         42.0004
   -114042.17346    -74087.43643  24922541.5554   24922540.0554
        39.2504         20.7504
   1261536.390 6                  25450102.305
        37.250
     34919.85648     46645.60146  20468043.8524   20468041.4384
        50.5004         40.0004
 12  3 16 13 29 17.0000000  0 10G02G07G08G15G29G10G05G21G04G26
   1417282.29147   1074881.19645  21864166.0864   21864162.3364
        47.0004         34.2504
    748635.53046    579361.09942  24796079.1564   24796078.3094
        38.5004         17.2504
    117816.15146    105988.64843  24583312.9844   24583313.1604
        40.7504         20.5004
   -380890.11047   -265345.96045  22709086.5314   22709084.9694
        46.5004         33.5004
    598316.05248    467733.11546  21212308.4384   21212305.5434
        51.0004         40.5004
   1526597.423 5                  24777211.914
        32.250
   1086978.44848    830466.57947  20757280.4694   20757277.9064
        50.0004         42.0004
   -117134.84446    -76497.31543  24921953.2114   24921951.4694
        39.0004         20.5004
   1264857.117 6                  25450734.547
        37.500
     32932.90348     45097.33146  20467665.6024   20467663.4534
        50.5004         40.0004
 12  3 16 13 29 18.0000000  0 10G02G07G08G15G29G10G05G21G04G26
   1419792.68947   1076837.35045  21864644.2664   21864640.0234
        47.5004         34.2504
    748936.91646    579595.94042  24796136.3984   24796135.2464
        37.7504         17.2504
    116095.77546    104648.09543  24582986.1884   24582985.8164
        40.2504         20.2504
   -384359.26647   -268049.20145  22708426.5394   22708425.1134
        46.5004         33.2504
    598143.62548    467598.76046  21212275.6484   21212272.8324
        50.7504         40.7504
   1529898.844 5                  24777840.930
        32.000
   1088336.90148    831525.11547  20757538.7814   20757536.1374
        50.0004         42.2504
   -120227.25846    -78906.98243  24921365.1414   24921362.9804
        39.0004         20.5004
   1268178.265 6                  25451367.625
        37.750
     30946.98548     43549.86346  20467287.9694   20467285.3404
        51.0004         40.2504
 12  3 16 13 29 19.0000000  0 10G02G07G08G15G29G10G05G21G04G26
   1422303.63447   1078793.93145  21865121.3754   21865117.4964
        47.5004         34.7504
    749239.11246    579831.38442  24796194.4694   24796193.1334
        37.5004         17.7504
    114376.03746    103308.05543  24582659.1564   24582658.2854
        40.5004         20.2504
   -387827.97347   -270752.08745  22707766.3914   22707764.6524
        47.0004         33.2504
    597972.03948    467465.05646  21212242.6884   21212240.3634
        50.5004         40.7504
   1533200.329 5                  24778466.977
        32.000
   1089695.87048    832584.04447  20757797.3834   20757794.8754
        50.0004         42.2504
   -123319.49646    -81316.52943  24920776.2814   24920774.3054
        39.2504         21.5004
   1271499.593 6                  25451999.313
        38.000
     28961.96148     42003.08946  20466910.1484   20466908.1024
        51.0004         40.0004
 12  3 16 13 29 20.0000000  0 10G02G07G08G15G29G10G05G21G04G26
   1424814.75347   1080750.64245  21865599.2344   21865595.9804
        47.7504         34.2504
    749541.65646    580067.11542  24796251.8594   24796250.8914
        38.0004         17.7504
    112656.53946    101968.18543  24582331.5554   24582331.1294
        41.0004         20.2504
   -391296.58847   -273454.90345  22707106.5314   22707104.7504
        47.0004         33.0004
    597800.93548    467331.72846  21212210.0084   21212207.5124
        50.7504         40.2504
   1536501.717 5                  24779097.172
        32.500
   1091054.93448    833643.05647  20758056.1254   20758053.4384
        50.5004         42.2504
   -126411.93946    -83726.21943  24920188.0944   24920185.4734
        39.2504         21.5004
   1274820.864 6                  25452630.953
        36.750
     26977.44048     40456.71546  20466532.7114   20466530.2304
        51.0004         40.5004
 12  3 16 13 29 21.0000000  0 10G02G07G08G15G29G10G05G21G04G26
   1427326.10448   1082707.53845  21866076.9304   21866073.9654
        48.0004         34.2504
    749844.71546    580303.26942  24796310.0314   24796308.6564
        37.7504         17.2504
    110937.35946    100628.56943  24582004.9694   24582003.9534
        41.2504         20.0004
   -394765.04147   -276157.59345  22706446.4224   22706444.6644
        47.0004         33.0004
    597630.40048    467198.83946  21212177.7894   21212174.9694
        50.7504         40.0004
   1539802.971 5                  24779723.500
        31.000
   1092414.23448    834702.25347  20758314.7814   20758312.4224
        50.2504         42.2504
   -129504.53646    -86136.04243  24919599.0234   24919597.4924
        38.5004         21.2504
   1278142.083 6                  25453263.883
        36.500
     24993.52948     38910.80946  20466155.2034   20466152.7974
        51.0004         40.5004
 12  3 16 13 29 22.0000000  0 10G02G07G08G15G29G10G05G21G04G26
   1429838.02148   1084664.88045  21866555.4454   21866551.7114
        48.0004         34.0004
    750148.57346    580540.06442  24796367.5634   24796365.9964
        38.0004         17.2504
    109218.80446     99289.43143  24581677.4774   24581676.7624
        41.5004         20.2504
   -398233.01047   -278859.90745  22705786.4454   22705784.9614
        46.7504         32.5004
    597460.71248    467066.61546  21212145.5944   21212143.0084
        50.5004         40.2504
   1543104.357 5                  24780351.641
        31.750
   1093774.03148    835761.82547  20758573.3204   20758571.0594
        50.7504         42.0004
   -132596.98646    -88545.73543  24919010.5944   24919009.0124
        39.2504         21.5004
   1281463.504 6                  25453895.125
        36.750
     23010.49748     37365.58546  20465777.5394   20465775.5864
        51.0004         40.2504
 12  3 16 13 29 23.0000000  0 10G02G07G08G15G29G10G05G21G04G26
   1432349.91548   1086622.19345  21867033.6724   21867029.9694
        48.0004         34.5004
    750452.65846    580777.04542  24796426.0704   24796424.3524
        38.5004         17.2504
    107500.31546     97950.33843  24581350.3984   24581349.6174
        40.7504         21.0004
   -401701.04647   -281562.27745  22705126.8524   22705124.8834
        46.7504         33.2504
    597291.33648    466934.62746  21212113.2504   21212110.9614
        50.0004         40.0004
   1546405.414 5                  24780981.867
        32.000
   1095133.75648    836821.35347  20758832.2194   20758829.6764
        50.5004         42.0004
   -135689.81846    -90955.74143  24918422.5394   24918420.6914
        39.0004         21.2504
   1284784.643 6                  25454527.297
        37.750
     21027.80548     35820.62946  20465400.0704   20465398.4224
        50.5004         40.5004
 12  3 16 13 29 24.0000000  0 10G02G07G08G15G29G10G05G21G04G26
   1434863.34048   1088580.70145  21867511.7664   21867507.9614
        48.0004         34.5004
    750758.52846    581015.38242  24796483.4614   24796482.2934
        37.5004         17.2504
    105783.45946     96612.52643  24581023.9384   24581023.1024
        41.0004         20.7504
   -405167.62447   -284263.49945  22704466.7814   22704465.4414
        46.7504         32.7504
    597123.79648    466804.08546  21212081.5084   21212079.1054
        50.2504         40.0004
   1549707.539 5                  24781607.703
        31.250
   1096494.98248    837882.05347  20759091.3594   20759088.6334
        50.0004         42.2504
   -138781.49446    -93364.86243  24917834.5394   24917832.1954
        39.0004         21.0004
   1288107.072 6                  25455157.914
        37.750
     19046.98448     34277.13446  20465023.1024   20465020.9694
        50.5004         40.5004
 12  3 16 13 29 25.0000000  0 10G02G07G08G15G29G10G05G21G04G26
   1437375.94648   1090538.57645  21867989.5314   21867986.2274
        48.2504         34.2504
    751063.83046    581253.27242  24796541.7584   24796540.3984
        36.5004         16.7504
    104065.83546     95274.12043  24580696.8914   24580696.3914
        40.7504         21.0004
   -408635.12747   -286965.45245  22703806.9614   22703805.6174
        47.0004         32.7504
    596955.72648    466673.11246  21212049.8204   21212046.6454
        50.5004         39.7504
   1553008.512 5                  24782234.922
        31.500
   1097855.33048    838942.05747  20759350.2504   20759347.6134
        50.0004         42.2504
   -141874.39246    -95774.88143  24917245.9614   24917243.5164
        39.7504         20.7504
   1291428.319 6                  25455791.914
        38.500
     17065.68848     32733.26646  20464646.2584   20464644.1954
        50.7504         40.5004
 12  3 16 13 29 26.0000000  0 10G02G07G08G15G29G10G05G21G04G26
   1439889.23248   1092496.98545  21868467.8984   21868464.5354
        48.2504         34.2504
    751370.02246    581491.83742  24796600.2344   24796598.9144
        37.2504         16.7504
    102348.97746     93936.31843  24580369.8984   24580369.5634
        40.7504         21.0004
   -412101.99747   -289666.90645  22703147.1484   22703145.8134
        47.0004         33.2504
    596788.67648    466542.94646  21212017.8594   21212014.8874
        50.5004         39.7504
   1556309.771 5                  24782863.883
        31.000
   1099216.33948    840002.58747  20759609.1094   20759606.6484
        49.5004         42.2504
   -144966.99246    -98184.70643  24916657.2194   24916655.0234
        40.0004         21.0004
   1294750.023 6                  25456423.805
        38.000
     15085.43148     31190.21046  20464269.2034   20464267.3164
        50.5004         40.5004
 12  3 16 13 29 27.0000000  0 10G02G07G08G15G29G10G05G21G04G26
   1442402.55948   1094455.41845  21868946.0004   21868942.7734
        48.5004         34.2504
    751676.55046    581730.66942  24796658.6334   24796657.0004
        38.2504         16.2504
    100632.23446     92598.60343  24580043.2584   24580042.7734
        40.5004         20.5004
   -415568.89547   -292368.38245  22702487.7034   22702485.9264
        46.2504         33.0004
    596621.97648    466413.05646  21211986.4694   21211982.9924
        50.5004         40.0004
   1559610.704 5                  24783491.750
        31.000
   1100577.32748    841063.09847  20759868.0634   20759865.4384
        50.0004         42.2504
   -148059.91746   -100594.76843  24916068.7034   24916066.0394
        40.0004         21.0004
   1298071.495 6                  25457055.930
        37.500
     13105.56048     29647.45646  20463892.5084   20463890.2544
        50.7504         40.5004
 12  3 16 13 29 28.0000000  0 10G02G07G08G15G29G10G05G21G04G26
   1444916.36648   1096414.23345  21869424.3054   21869420.9804
        48.5004         34.5004
    751983.75446    581970.07842  24796717.3284   24796715.8284
        38.5004         16.2504
     98916.05746     91261.33643  24579716.9534   24579716.5314
        40.5004         20.5004
   -419035.39747   -295069.55545  22701828.1094   22701826.3134
        46.2504         33.0004
    596456.04948    466283.76546  21211954.8364   21211952.0474
        50.5004         40.0004
   1562911.737 5                  24784120.125
        31.500
   1101938.74748    842123.94947  20760126.7584   20760125.0274
        50.2504         42.2504
   -151152.78646   -103004.79743  24915480.4774   24915477.6484
        39.5004         21.0004
   1301393.107 6                  25457687.883
        38.250
     11126.50748     28105.34246  20463515.8594   20463513.9454
        51.0004         40.0004
 12  3 16 13 29 29.0000000  0 10G02G07G08G15G29G10G05G21G04G26
   1447431.08048   1098373.75045  21869902.7584   21869899.6454
        48.2504         34.5004
    752292.11246    582210.36042  24796776.0944   24796774.3014
        38.7504         16.2504
     97200.83746     89924.80643  24579389.9534   24579389.9024
        40.5004         20.2504
   -422501.06947   -297770.07445  22701168.6564   22701166.7344
        46.0004         33.0004
    596291.34548    466155.42246  21211923.0554   21211920.2814
        50.2504         40.0004
   1566213.314 5                  24784747.938
        30.500
   1103301.04748    843185.47747  20760386.6334   20760384.1294
        50.2504         42.2504
   -154245.12246   -105414.41643  24914891.7034   24914889.5784
        39.5004         21.0004
   1304715.348 6                  25458320.852
        38.750
      9148.71048     26564.20646  20463139.5944   20463137.3244
        50.7504         40.0004
 12  3 16 13 29 30.0000000  0 10G02G07G08G15G29G10G05G21G04G26
   1449945.76448   1100333.24545  21870381.3594   21870378.2814
        48.2504         34.2504
    752600.71146    582450.82442  24796833.9304   24796833.2154
        38.0004         16.2504
     95485.71446     88588.34443  24579063.5004   24579063.5044
        40.0004         20.7504
   -425966.84947   -300470.67245  22700508.8834   22700507.0784
        46.0004         32.5004
    596126.93248    466027.30846  21211891.6334   21211889.2464
        50.5004         40.0004
   1569514.448 5                  24785376.766
        31.000
   1104663.26348    844246.94147  20760645.4924   20760642.8754
        50.5004         42.2504
   -157337.88246   -107824.36243  24914302.8204   24914300.8364
        40.2504         21.0004
   1308037.318 6                  25458952.328
        38.250
      7171.23448     25023.31546  20462763.3914   20462761.5594
        50.7504         40.0004
 12  3 16 13 29 31.0000000  0 10G02G07G08G15G29G10G05G21G04G26
   1452460.63248   1102292.87345  21870859.9224   21870856.7464
        48.2504         34.0004
    752909.67346    582691.56242  24796893.1484   24796891.3094
        37.7504         16.2504
     93770.80446     87252.07143  24578737.5554   24578737.0704
        39.7504         20.7504
   -429432.49247   -303171.16445  22699849.4454   22699847.7504
        46.0004         32.7504
    595963.01048    465899.56946  21211860.5164   21211858.1334
        50.2504         39.7504
   1572815.383 5                  24786004.477
        31.250
   1106025.59948    845308.50347  20760905.2894   20760902.5004
        50.5004         42.2504
   -160430.81946   -110234.44443  24913715.5164   24913712.7304
        39.7504         21.2504
   1311359.127 6                  25459584.547
        37.500
      5194.25848     23482.80646  20462387.4454   20462384.9534
        50.2504         40.0004
 12  3 16 13 29 32.0000000  0 10G02G07G08G15G29G10G05G21G04G26
   1454975.82448   1104252.75445  21871338.6804   21871335.6374
        48.0004         34.5004
    753219.26346    582932.81842  24796952.0944   24796950.7704
        38.2504         16.2504
     92056.32146     85916.12043  24578410.9924   24578410.6724
        39.7504         21.2504
   -432897.91747   -305871.49445  22699189.9774   22699188.4494
        46.0004         33.0004
    595799.72648    465772.34146  21211829.4224   21211826.6254
        50.0004         39.7504
   1576116.255 5                  24786633.797
        31.000
   1107388.22548    846370.28747  20761164.1484   20761161.4844
        50.2504         42.5004
   -163523.86046   -112644.61743  24913127.1644   24913123.6094
        40.5004         21.2504
   1314680.971 6                  25460216.711
        37.500
      3217.96648     21942.83646  20462011.0944   20462009.0984
        50.0004         40.0004
 12  3 16 13 29 33.0000000  0 10G02G07G08G15G29G10G05G21G04G26
   1457491.44648   1106212.97645  21871817.6644   21871814.2234
        48.0004         35.0004
    753529.54546    583174.61042  24797010.3134   24797009.5204
        38.0004         16.7504
     90342.34546     84580.56143  24578084.5004   24578084.4344
        38.7504         21.5004
   -436362.94747   -308571.52145  22698530.4144   22698528.4694
        46.0004         33.5004
    595637.19648    465645.69246  21211798.3594   21211795.7584
        50.0004         39.5004
   1579417.287 5                  24787261.492
        31.500
   1108751.26548    847432.39947  20761423.7584   20761420.7894
        50.5004         42.5004
   -166616.78146   -115054.68843  24912537.8284   24912534.9104
        40.7504         20.7504
   1318002.988 6                  25460848.836
        37.750
      1242.47548     20403.49646  20461635.2664   20461632.8874
        49.7504         40.2504
 12  3 16 13 29 34.0000000  0 10G02G07G08G15G29G10G05G21G04G26
   1460007.37048   1108173.43245  21872296.0084   21872292.7274
        48.5004         35.0004
    753840.30546    583416.74642  24797070.0474   24797068.7274
        38.2504         17.2504
     88628.75446     83245.27543  24577759.3284   24577758.3324
        38.5004         21.5004
   -439827.77347   -311271.38945  22697871.5634   22697869.3484
        45.7504         32.7504
    595475.27248    465519.51946  21211767.8754   21211764.7734
        50.0004         39.2504
   1582718.156 5                  24787890.133
        31.250
   1110114.52548    848494.68047  20761683.1564   20761680.8364
        50.7504         42.5004
   -169709.85346   -117464.88843  24911949.7274   24911946.7154
        40.5004         20.7504
   1321324.990 6                  25461480.734
        37.750
      -732.37548     18864.64346  20461259.4534   20461257.1804
        50.0004         40.0004
 12  3 16 13 29 35.0000000  0 10G02G07G08G15G29G10G05G21G04G26
   1462524.06648   1110134.49445  21872775.1484   21872771.8874
        48.5004         34.7504
    754152.14146    583659.71042  24797128.5234   24797128.0704
        37.5004         17.7504
     86915.99746     81910.64543  24577432.6024   24577432.3164
        39.5004         20.7504
   -443291.88147   -313970.69145  22697212.1024   22697210.3324
        45.7504         32.5004
    595314.41748    465394.17446  21211737.2034   21211734.3404
        50.2504         39.0004
   1586019.383 5                  24788518.398
        31.750
   1111478.54548    849557.55047  20761942.7034   20761940.1094
        50.7504         42.2504
   -172802.51946   -119874.75943  24911360.2194   24911357.3554
        40.7504         20.7504
   1324647.451 6                  25462113.211
        38.250
     -2706.10848     17326.67046  20460883.9844   20460881.6414
        50.5004         40.0004
 12  3 16 13 29 36.0000000  0 10G02G07G08G15G29G10G05G21G04G26
   1465040.85248   1112095.62545  21873254.4144   21873251.1724
        48.2504         35.0004
    754464.27246    583902.94643  24797188.3754   24797187.1914
        37.5004         18.2504
     85203.43946     80576.17143  24577107.0634   24577106.7934
        38.7504         20.7504
   -446755.94247   -316669.94645  22696552.5234   22696551.2154
        45.2504         32.7504
    595153.98848    465269.17346  21211706.8914   21211703.9654
        50.2504         39.2504
   1589320.459 5                  24789146.289
        31.750
   1112842.60548    850620.45447  20762202.2974   20762199.8874
        50.7504         42.2504
   -175895.46346   -122284.82343  24910772.2114   24910769.1764
        40.2504         20.7504
   1327969.824 6                  25462744.820
        38.000
     -4679.39648     15789.04346  20460508.7424   20460506.4304
        50.5004         40.0004
 12  3 16 13 29 37.0000000  0 10G02G07G08G15G29G10G05G21G04G26
   1467558.07048   1114057.09645  21873733.2194   21873729.9804
        48.2504         34.7504
    754777.10746    584146.70242  24797247.2734   24797246.7504
        37.5004         17.7504
     83491.38046     79242.09943  24576781.5944   24576780.7854
        38.5004         20.5004
   -450219.70447   -319368.99045  22695893.6174   22695891.7894
        46.0004         33.0004
    594994.28048    465144.71846  21211676.1954   21211673.5234
        50.5004         39.2504
   1592621.481 5                  24789774.578
        31.000
   1114207.04948    851683.66047  20762461.9844   20762459.3244
        50.5004         42.2504
   -178988.44746   -124694.89443  24910183.2034   24910180.9304
        40.0004         21.2504
   1331292.284 6                  25463376.531
        38.250
     -6651.91648     14252.01046  20460133.2424   20460131.0044
        50.7504         40.0004
 12  3 16 13 29 38.0000000  0 10G02G07G08G15G29G10G05G21G04G26
   1470075.41348   1116018.66645  21874212.1484   21874209.1414
        48.2504         34.2504
    755090.27846    584390.73442  24797307.2504   24797306.2624
        37.5004         17.7504
     81779.48146     77908.16243  24576455.4384   24576454.8594
        39.5004         20.7504
   -453683.40047   -322067.97845  22695234.6954   22695232.7114
        45.7504         32.7504
    594835.00648    465020.60946  21211645.9064   21211643.3054
        50.5004         39.5004
   1595922.250 5                  24790401.453
        30.500
   1115571.57248    852746.92147  20762721.4454   20762718.8834
        50.5004         42.5004
   -182081.61646   -127105.19543  24909594.8134   24909592.2734
        40.2504         21.5004
   1334614.541 6                  25464009.602
        37.250
     -8623.98748     12715.33546  20459757.8834   20459755.3364
        50.2504         40.2504
 12  3 16 13 29 39.0000000  0 10G02G07G08G15G29G10G05G21G04G26
   1472593.47748   1117980.79445  21874691.3284   21874688.0004
        48.0004         34.5004
    755404.46446    584635.56542  24797366.8054   24797366.1524
        37.2504         17.2504
     80068.39046     76574.85743  24576130.5554   24576129.3404
        39.0004         21.0004
   -457146.43247   -324766.44345  22694575.6414   22694573.9924
        45.5004         32.5004
    594676.77848    464897.31546  21211616.0004   21211613.3794
        50.5004         39.5004
   1599223.385 5                  24791029.836
        30.500
   1116936.75848    853810.69847  20762981.1334   20762978.8634
        50.2504         42.5004
   -185174.50446   -129515.25343  24909006.3984   24909003.8134
        40.0004         21.2504
   1337937.238 6                  25464642.422
        36.750
    -10594.96548     11179.51046  20459382.4844   20459380.5084
        50.0004         40.5004
 12  3 16 13 29 40.0000000  0 10G02G07G08G15G29G10G05G21G04G26
   1475111.73947   1119943.07545  21875170.5004   21875167.5314
        47.7504         34.5004
    755719.04246    584880.67442  24797427.2034   24797425.8714
        36.7504         16.7504
     78357.61746     75241.79843  24575804.6174   24575804.1374
        39.0004         21.2504
   -460609.34647   -327464.81445  22693916.4694   22693915.0864
        45.5004         32.2504
    594519.03248    464774.39746  21211585.6414   21211583.1334
        50.0004         39.5004
   1602524.354 5                  24791656.930
        30.500
   1118302.09848    854874.60047  20763240.6804   20763238.5354
        50.0004         42.2504
   -188267.55046   -131925.42143  24908417.6414   24908415.0594
        39.5004         21.2504
   1341259.883 6                  25465274.805
        36.000
    -12565.40748      9644.10046  20459007.6484   20459005.3914
        50.5004         40.2504
 12  3 16 13 29 41.0000000  0 10G02G07G08G15G29G10G05G21G04G26
   1477630.18648   1121905.49545  21875649.5634   21875646.7384
        48.2504         34.7504
    756034.07546    585126.14142  24797487.0944   24797485.8284
        36.7504         16.2504
     76647.11546     73908.96543  24575479.5164   24575478.6334
        39.5004         21.0004
   -464072.10947   -330163.06945  22693257.7504   22693256.1484
        46.0004         32.2504
    594361.84248    464651.91146  21211555.6804   21211553.6024
        50.5004         39.7504
   1605825.133 5                  24792286.211
        31.000
   1119667.62348    855938.64247  20763500.8984   20763498.6884
        50.2504         42.5004
   -191360.79046   -134335.72743  24907829.6254   24907826.1174
        40.2504         21.0004
   1344582.435 6                  25465907.016
        36.250
    -14535.29148      8109.13346  20458632.6724   20458630.7894
        50.5004         40.0004
 12  3 16 13 29 42.0000000  0 10G02G07G08G15G29G10G05G21G04G26
   1480148.39148   1123867.73045  21876128.9774   21876125.7584
        48.2504         34.7504
    756349.09646    585371.63042  24797547.6334   24797546.1724
        38.0004         16.7504
     74936.42646     72575.95743  24575153.2664   24575153.0554
        39.5004         20.7504
   -467535.20547   -332861.58545  22692599.0314   22692597.5744
        45.7504         33.5004
    594204.70448    464529.45846  21211526.0234   21211523.5784
        50.2504         40.0004
   1609125.241 5                  24792914.742
        31.750
   1121032.83248    857002.44347  20763760.8914   20763758.2034
        49.7504         42.7504
   -194454.68246   -136746.54743  24907240.3984   24907237.4694
        40.0004         21.0004
   1347904.457 6                  25466539.648
        36.750
    -16505.09448      6574.21546  20458258.1094   20458255.7074
        51.0004         40.0004
 12  3 16 13 29 43.0000000  0 10G02G07G08G15G29G10G05G21G04G26
   1482668.34748   1125831.32245  21876608.4384   21876604.9924
        48.5004         35.0004
    756666.13446    585618.68242  24797607.9224   24797606.1374
        37.2504         16.7504
     73227.57346     71244.35743  24574827.9454   24574827.5554
        38.5004         20.2504
   -470996.63147   -335558.79345  22691940.1564   22691938.7154
        45.7504         33.0004
    594049.59748    464408.59646  21211496.4774   21211494.0904
        50.2504         40.0004
   1612426.802 5                  24793545.180
        32.250
   1122399.74148    858067.57347  20764020.8444   20764018.4454
        49.5004         42.7504
   -197547.19046   -139156.29543  24906651.7814   24906649.0944
        40.5004         21.0004
   1351227.893 6                  25467171.555
        37.250
    -18472.81048      5040.93246  20457883.9224   20457881.4224
        51.0004         40.0004
 12  3 16 13 29 44.0000000  0 10G02G07G08G15G29G10G05G21G04G26
   1485188.02248   1127794.70545  21877088.1254   21877084.5234
        48.7504         34.5004
    756983.12646    585865.67542  24797667.4454   24797666.3594
        36.0004         16.7504
     71518.49946     69912.60143  24574502.6564   24574502.6644
        39.0004         20.0004
   -474458.40547   -338256.27645  22691281.6724   22691279.5354
        46.5004         33.5004
    593894.52648    464287.76146  21211467.0164   21211464.4454
        50.2504         40.0004
   1615727.653 5                  24794172.813
        32.250
   1123766.33148    859132.44247  20764281.1174   20764278.6604
        50.0004         43.0004
   -200640.38546   -141566.57543  24906063.1334   24906060.2974
        40.5004         21.0004
   1354550.784 6                  25467803.922
        36.500
    -20440.45148      3507.70746  20457509.4534   20457507.1214
        51.0004         40.0004
 12  3 16 13 29 45.0000000  0 10G02G07G08G15G29G10G05G21G04G26
   1487707.84048   1129758.19845  21877567.6804   21877564.6214
        48.7504         34.0004
    757300.44746    586112.91442  24797727.7424   24797726.8954
        36.0004         16.7504
     69809.63746     68581.04343  24574177.1174   24574177.4454
        39.0004         20.0004
   -477920.12247   -340953.71745  22690622.5634   22690621.0434
        46.5004         34.0004
    593739.92648    464167.29746  21211437.7894   21211435.0044
        50.7504         40.0004
   1619028.334 5                  24794799.516
        31.750
   1125133.01548    860197.39147  20764541.2034   20764538.6214
        50.0004         42.2504
   -203733.79446   -143977.02743  24905474.1644   24905471.6174
        40.2504         20.7504
   1357873.531 6                  25468435.914
        36.750
    -22407.58348      1974.87546  20457134.7894   20457132.8204
        51.0004         39.5004
 12  3 16 13 29 46.0000000  0 10G02G07G08G15G29G10G05G21G04G26
   1490228.10848   1131722.03645  21878047.0784   21878044.0514
        48.0004         34.0004
    757618.50846    586360.75642  24797788.6564   24797787.3204
        36.5004         16.7504
     68101.37446     67249.91743  24573851.9534   24573852.1054
        38.7504         19.7504
   -481381.44747   -343650.84745  22689964.0004   22689962.7384
        46.7504         34.0004
    593586.08448    464047.42046  21211408.1094   21211405.6374
        51.0004         40.2504
   1622328.997 5                  24795428.039
        31.750
   1126500.10848    861262.65547  20764800.9454   20764798.4344
        50.0004         42.2504
   -206827.13146   -146387.41943  24904885.4384   24904882.9694
        39.5004         21.5004
   1361196.393 6                  25469068.320
        36.750
    -24373.93948       442.64346  20456760.6564   20456758.7194
        51.5004         40.0004
 12  3 16 13 29 47.0000000  0 10G02G07G08G15G29G10G05G21G04G26
   1492748.79548   1133686.20845  21878526.4924   21878523.3524
        48.2504         33.7504
    757937.22346    586609.11642  24797849.3444   24797848.4414
        36.5004         16.7504
     66393.53446     65919.13143  24573527.1334   24573527.0204
        39.2504         20.0004
   -484842.43547   -346347.72645  22689305.6564   22689304.4534
        47.0004         34.0004
    593432.95148    463928.10046  21211379.2584   21211376.4924
        50.5004         40.5004
   1625629.711 5                  24796056.547
        31.750
   1127867.57248    862328.21047  20765061.2584   20765059.0004
        50.2504         42.0004
   -209920.45146   -148797.80143  24904297.0784   24904294.0664
        39.5004         21.5004
   1364519.420 6                  25469700.727
        37.500
    -26339.52648     -1088.98246  20456386.5314   20456384.4414
        51.2504         39.7504
 12  3 16 13 29 48.0000000  0 10G02G07G08G15G29G10G05G21G04G26
   1495269.65847   1135650.51345  21879005.9384   21879003.3634
        47.7504         33.7504
    758256.37646    586857.79642  24797909.7034   24797909.3834
        37.5004         16.7504
     64685.98046     64588.58143  24573202.2424   24573202.0204
        38.7504         20.2504
   -488303.31047   -349044.51045  22688646.6804   22688645.6804
        46.2504         33.5004
    593280.34648    463809.18646  21211350.1334   21211347.5084
        50.5004         40.0004
   1628930.243 5                  24796686.391
        32.000
   1129235.16648    863393.87447  20765321.8984   20765319.4654
        49.7504         42.0004
   -213014.00146   -151208.35143  24903708.2734   24903705.1374
        39.0004         21.5004
   1367842.318 6                  25470333.234
        37.000
    -28304.59548     -2620.20446  20456012.5944   20456010.5704
        50.0004         39.7504
 12  3 16 13 29 49.0000000  0 11G02G07G08G15G18G29G10G05G21G04G26
   1497787.31248   1137612.32445  21879485.3914   21879482.3834
        48.0004         33.5004
    758572.51846    587104.16542  24797969.8444   24797969.1214
        36.2504         17.7504
     62975.29046     63255.58843  24572877.4064   24572876.6334
        39.0004         20.5004
   -491767.44447   -351743.83645  22687987.7344   22687986.0434
        46.0004         33.5004
    607990.49515                  25643832.914
        32.250
    593124.80948    463687.98946  21211320.4924   21211317.9884
        50.5004         40.2504
   1632227.202 5                  24797311.453
        30.750
   1130599.51248    864456.99847  20765581.1724   20765578.8484
        49.5004         42.2504
   -216111.10446   -153621.68043  24903118.7974   24903116.0984
        38.5004         21.2504
   1371161.781 6                  25470965.242
        37.750
    -30272.51548     -4153.64346  20455638.1174   20455636.2704
        50.0004         39.7504
 12  3 16 13 29 50.0000000  0 11G02G07G08G15G18G29G10G05G21G04G26
   1500309.14348   1139577.38345  21879965.0474   21879961.8484
        48.0004         34.0004
    758893.09546    587353.96342  24798031.3284   24798030.4884
        36.7504         17.7504
     61268.85646     61925.87843  24572553.3134   24572551.9024
        39.2504         20.5004
   -495227.50747   -354439.98745  22687329.1804   22687327.7234
        46.0004         33.5004
    605195.424 5                  25643300.781
        32.250
    592973.75748    463570.28746  21211291.8914   21211289.3874
        50.5004         40.0004
   1635527.912 5                  24797939.539
        30.750
   1131967.98848    865523.33947  20765841.5554   20765839.2114
        50.0004         42.0004
   -219204.43346   -156032.05043  24902530.3834   24902527.1134
        39.0004         21.0004
   1374485.069 6                  25471597.617
        37.250
    -32235.91848     -5683.56746  20455264.2194   20455261.9884
        49.7504         39.7504
 12  3 16 13 29 51.0000000  0 11G02G07G08G15G18G29G10G05G21G04G26
   1502831.16448   1141542.58845  21880444.9924   21880441.9964
        48.5004         34.0004
    759214.17446    587604.15243  24798092.0234   24798091.5554
        36.0004         18.2504
     59562.68946     60596.38343  24572228.2664   24572227.5824
        39.0004         20.2504
   -498687.43147   -357136.03245  22686670.8984   22686669.3754
        46.7504         33.5004
    602400.281 5                  25642769.328
        32.750
    592823.20848    463452.97646  21211263.1484   21211260.8284
        50.7504         40.0004
   1638828.476 5                  24798568.680
        30.750
   1133336.57948    866589.77047  20766101.9064   20766099.5784
        50.5004         42.5004
   -222297.99746   -158442.62243  24901941.5864   24901938.9104
        39.5004         20.5004
   1377808.231 6                  25472229.594
        38.750
    -34198.79648     -7213.08246  20454890.6484   20454888.8594
        50.0004         40.0004
 12  3 16 13 29 52.0000000  0 11G02G07G08G15G18G29G10G05G21G04G26
   1505353.42648   1143507.98645  21880924.9924   21880922.0704
        48.5004         34.2504
    759535.63546    587854.64843  24798153.2344   24798152.8404
        36.2504         18.2504
     57856.85046     59267.15743  24571904.3984   24571902.9694
        38.7504         21.0004
   -502147.19747   -359831.94645  22686012.0704   22686010.7304
        47.0004         33.5004
    599605.078 5                  25642236.781
        32.250
    592673.21148    463336.09346  21211234.4144   21211232.3244
        50.5004         40.2504
   1642128.870 5                  24799194.930
        30.500
   1134705.38748    867656.37547  20766362.2584   20766359.8634
        50.5004         42.2504
   -225391.71946   -160853.31743  24901353.1484   24901349.8914
        40.0004         20.5004
   1381131.445 6                  25472861.781
        38.500
    -36161.06248     -8742.11746  20454517.4304   20454515.2074
        50.0004         40.2504
 12  3 16 13 29 53.0000000  0 11G02G07G08G15G18G29G10G05G21G04G26
   1507876.09748   1145473.70645  21881405.3594   21881402.4414
        48.2504         34.0004
    759857.82646    588105.71143  24798214.0554   24798213.8594
        36.7504         18.5004
     56151.51046     57938.32243  24571579.6174   24571578.5514
        39.2504         21.0004
   -505606.61147   -362527.58545  22685354.1884   22685352.2424
        47.0004         33.5004
    596810.008 5                  25641703.734
        32.000
    592523.94248    463219.78646  21211206.2504   21211203.9104
        51.0004         40.2504
   1645429.327 5                  24799823.258
        30.000
   1136074.56348    868723.26347  20766622.9694   20766620.5704
        50.0004         42.2504
   -228485.37246   -163263.96143  24900764.0864   24900760.9064
        39.7504         21.0004
   1384454.742 6                  25473494.422
        37.250
    -38122.57048    -10270.56546  20454144.4924   20454142.0984
        50.5004         40.2504
 12  3 16 13 29 54.0000000  0 11G02G07G08G15G18G29G10G05G21G04G26
   1510399.34148   1147439.86745  21881885.6644   21881882.2624
        48.2504         34.2504
    760180.80445    588357.36943  24798276.5234   24798275.8634
        35.7504         18.2504
     54446.80146     56609.99243  24571254.6334   24571253.8984
        39.7504         21.2504
   -509065.51547   -365222.82945  22684696.1254   22684694.4224
        47.0004         33.0004
    594015.170 5                  25641172.281
        32.500
    592375.55648    463104.15846  21211178.1094   21211175.4184
        50.5004         40.2504
   1648729.954 4                  24800451.211
        28.250
   1137444.27948    869790.57347  20766883.8284   20766881.3244
        50.5004         42.2504
   -231578.85446   -165674.45143  24900175.1804   24900172.6094
        39.0004         21.2504
   1387778.318 6                  25474126.742
        37.500
    -40083.15048    -11798.29046  20453771.5784   20453769.2034
        50.5004         40.0004
 12  3 16 13 29 55.0000000  0 11G02G07G08G15G18G29G10G05G21G04G26
   1512922.57748   1149406.01645  21882365.5634   21882362.0394
        48.2504         34.7504
    760503.99446    588609.19743  24798337.3364   24798337.1994
        36.2504         18.2504
     52742.15046     55281.70743  24570930.0704   24570929.6804
        39.5004         21.5004
   -512524.50947   -367918.14945  22684037.7034   22684036.1174
        46.7504         33.0004
    591220.071 5                  25640640.766
        32.000
    592227.47248    462988.76046  21211149.8054   21211147.1134
        51.0004         40.2504
   1652030.178 4                  24801079.023
        28.500
   1138813.92248    870857.82747  20767144.2344   20767142.0864
        50.5004         42.2504
   -234672.75046   -168085.30243  24899586.7114   24899583.7234
        38.7504         21.2504
   1391101.593 6                  25474758.656
        37.000
    -42043.41848    -13325.76646  20453398.4614   20453395.9454
        50.7504         40.5004
 12  3 16 13 29 56.0000000  0 11G02G07G08G15G18G29G10G05G21G04G26
   1515446.54948   1151372.74345  21882845.9774   21882842.7344
        48.2504         34.2504
    760828.20046    588861.82342  24798399.0164   24798399.0204
        36.5004         17.7504
     51038.36846     53954.07943  24570606.1024   24570605.1484
        39.7504         21.5004
   -515982.82247   -370612.93745  22683379.7814   22683378.0944
        46.7504         33.0004
    588425.399 5                  25640107.570
        31.750
    592080.43648    462874.18746  21211121.8754   21211119.3324
        51.2504         40.2504
   1655330.892 4                  24801707.688
        29.750
   1140184.27248    871925.63347  20767404.9924   20767402.6094
        51.0004         42.5004
   -237766.28946   -170495.85943  24898997.8984   24898995.1414
        39.5004         21.0004
   1394425.350 6                  25475391.188
        38.000
    -44002.58248    -14852.39446  20453025.8134   20453023.3284
        51.0004         40.5004
 12  3 16 13 29 57.0000000  0 11G02G07G08G15G18G29G10G05G21G04G26
   1517970.98948   1153339.83545  21883326.2734   21883323.0944
        48.0004         34.0004
    761153.09746    589115.01642  24798461.5234   24798460.4224
        36.5004         17.7504
     49335.06346     52626.83543  24570282.2274   24570281.4024
        40.0004         21.5004
   -519440.75647   -373307.43545  22682721.8594   22682720.0044
        46.7504         32.7504
    585630.836 5                  25639575.063
        30.500
    591934.16248    462760.20846  21211094.1094   21211091.6764
        50.2504         40.5004
   1658631.489 4                  24802335.430
        29.500
   1141555.00648    872993.73647  20767665.9844   20767663.7074
        50.5004         42.5004
   -240859.73546   -172906.32643  24898409.6804   24898406.6214
        38.2504         21.0004
   1397749.220 6                  25476024.539
        38.250
    -45960.93148    -16378.38146  20452653.0164   20452650.7114
        50.7504         40.5004
 12  3 16 13 29 58.0000000  0 11G02G07G08G15G18G29G10G05G21G04G26
   1520495.48647   1155306.97345  21883806.3204   21883803.6604
        47.7504         34.2504
    761478.26646    589368.36542  24798522.9144   24798522.5434
        36.7504         17.7504
     47631.95446     51299.73143  24569957.6804   24569957.1844
        41.0004         21.5004
   -522898.68847   -376001.92545  22682063.4534   22682062.0164
        47.0004         32.7504
    582836.122 5                  25639042.219
        30.250
    591788.28348    462646.53346  21211066.0704   21211063.6054
        50.7504         40.5004
   1661931.950 4                  24802964.703
        29.250
   1142925.79248    874061.88647  20767926.9454   20767924.7274
        50.2504         42.7504
   -243953.47646   -175317.03143  24897820.6024   24897817.6484
        38.5004         20.7504
   1401072.920 6                  25476656.570
        38.000
    -47918.86448    -17904.04746  20452280.1414   20452278.0234
        51.0004         40.5004
 12  3 16 13 29 59.0000000  0 11G02G07G08G15G18G29G10G05G21G04G26
   1523020.17147   1157274.25445  21884286.8674   21884283.9884
        47.7504         34.0004
    761803.92446    589622.13542  24798584.5864   24798584.4024
        36.5004         17.7504
     45929.07746     49972.81343  24569634.0004   24569633.3404
        40.7504         21.5004
   -526356.50747   -378696.33145  22681405.7664   22681403.9574
        46.7504         33.0004
    580041.253 5                  25638510.023
        30.000
    591642.89148    462533.24546  21211038.7894   21211035.7974
        50.5004         40.5004
   1665232.093 4                  24803591.672
        29.500
   1144296.69648    875130.12147  20768187.7584   20768185.6484
        50.0004         42.7504
   -247047.43546   -177727.92143  24897231.9144   24897228.7234
        38.5004         20.7504
   1404396.469 6                  25477289.117
        37.000
    -49876.28048    -19429.30946  20451907.8054   20451905.3524
        51.0004         40.5004
 12  3 16 13 30  0.0000000  0 11G02G07G08G15G18G29G10G05G21G04G26
   1525546.11748   1159242.52845  21884767.7734   21884764.4574
        48.5004         34.0004
    762131.05046    589877.04142  24798646.8914   24798646.5744
        37.2504         17.7504
     44227.58346     48646.97443  24569309.6174   24569309.3054
        41.2504         21.5004
   -529813.13847   -381389.79645  22680748.0394   22680745.9964
        47.2504         33.5004
    577247.411 4                  25637978.117
        29.250
    591499.05248    462421.16346  21211011.1334   21211008.7194
        50.7504         40.5004
   1668533.188 5                  24804219.141
        31.000
   1145668.81448    876199.30447  20768448.7424   20768446.7894
        50.0004         42.7504
   -250140.53546   -180138.13143  24896643.9844   24896639.8794
        38.7504         20.7504
   1407721.044 6                  25477922.914
        36.250
    -51832.07648    -20953.30546  20451535.8364   20451533.5514
        51.0004         40.7504
 12  3 16 13 30  1.0000000  0 11G02G07G08G15G18G29G10G05G21G04G26
   1528071.49148   1161210.33945  21885248.5554   21885245.2274
        48.2504         34.5004
    762457.82646    590131.65443  24798709.7034   24798708.7814
        38.0004         18.2504
     42525.55546     47320.72343  24568986.2734   24568985.6024
        40.5004         21.0004
   -533270.41647   -384083.77345  22680089.8984   22680088.3284
        47.0004         33.2504
    574452.641 4                  25637446.016
        28.500
    591354.96948    462308.88846  21210983.7274   21210981.1024
        50.7504         40.5004
   1671833.308 5                  24804846.617
        31.000
   1147040.31348    877268.00347  20768709.7034   20768707.6334
        50.0004         42.5004
   -253234.58246   -182549.08943  24896054.5704   24896051.4304
        39.0004         21.0004
   1411044.715 6                  25478554.391
        36.750
    -53788.11548    -22477.48946  20451163.3204   20451160.8134
        50.7504         40.7504
 12  3 16 13 30  2.0000000  0 11G02G07G08G15G18G29G10G05G21G04G26
   1530601.24848   1163181.57345  21885729.8204   21885726.4064
        48.2504         34.0004
    762789.25546    590389.91943  24798773.3134   24798771.4924
        37.2504         18.2504
     40828.02646     45997.96143  24568662.8364   24568662.5984
        40.5004         21.0004
   -536723.35447   -386774.37845  22679432.7894   22679430.9734
        47.0004         33.2504
    571661.972 4                  25636914.438
        28.250
    591215.60448    462200.29446  21210957.1484   21210954.6374
        51.0004         40.5004
   1675137.436 4                  24805476.508
        29.750
   1148416.17948    878340.11247  20768971.7734   20768969.2854
        50.0004         42.2504
   -256324.58346   -184956.86643  24895466.6724   24895463.3834
        39.2504         21.2504
   1414372.550 5                  25479187.547
        35.750
    -55739.39448    -23997.96646  20450792.0234   20450789.6564
        51.2504         40.7504
 12  3 16 13 30  3.0000000  0 11G02G07G08G15G18G29G10G05G21G04G26
   1533127.30848   1165149.92745  21886210.5084   21886206.9654
        48.2504         34.0004
    763117.19346    590645.44143  24798835.5164   24798833.9964
        36.7504         18.2504
     39126.86746     44672.39743  24568339.0944   24568339.0204
        40.7504         21.5004
   -540180.07147   -389467.92345  22678774.9924   22678773.0704
        46.7504         33.0004
    568867.333 4                  25636384.344
        28.250
    591072.84848    462089.06246  21210930.1334   21210927.5904
        50.5004         40.5004
   1678437.492 4                  24806105.758
        28.500
   1149788.27848    879409.27447  20769232.6174   20769230.3914
        50.0004         42.0004
   -259418.71846   -187367.87943  24894877.6724   24894874.5634
        39.0004         21.2504
   1417696.320 6                  25479820.625
        36.000
    -57694.02948    -25521.05446  20450420.3204   20450417.6094
        50.7504         40.7504
 12  3 16 13 30  4.0000000  0 11G02G07G08G15G18G29G10G05G21G04G26
   1535653.99047   1167118.76945  21886691.2424   21886688.1254
        47.5004         34.0004
    763446.07145    590901.70443  24798898.1644   24798896.6214
        35.7504         18.2504
     37426.40646     43347.38343  24568015.8524   24568015.6294
        40.7504         20.7504
   -543636.24047   -392161.04245  22678117.1884   22678115.1684
        46.5004         32.7504
    566073.024 4                  25635852.523
        29.500
    590931.00748    461978.53346  21210903.0634   21210900.6604
        50.5004         40.0004
   1681737.788 4                  24806733.492
        29.250
   1151160.94948    880478.89047  20769493.9224   20769491.2854
        50.2504         42.0004
   -262512.58246   -189778.68643  24894289.3524   24894286.1094
        39.7504         21.2504
   1421020.421 6                  25480453.453
        36.750
    -59647.70248    -27043.38746  20450048.3054   20450046.2624
        51.0004         41.0004
 12  3 16 13 30  5.0000000  0 11G02G07G08G15G18G29G10G05G21G04G26
   1538181.21347   1169088.03745  21887171.8524   21887169.2384
        47.0004         34.0004
    763775.69745    591158.55543  24798960.0704   24798959.1684
        35.7504         18.5004
     35726.56346     42022.83243  24567691.6254   24567691.7584
        40.0004         21.0004
   -547091.93447   -394853.78845  22677459.7584   22677457.3054
        46.5004         33.0004
    563278.959 4                  25635320.938
        29.250
    590790.02748    461868.67646  21210876.0634   21210873.5234
        50.7504         40.0004
   1685038.308 4                  24807361.344
        29.250
   1152534.13748    881548.90447  20769755.2664   20769752.7544
        50.0004         42.2504
   -265606.26846   -192189.36243  24893701.0234   24893697.5314
        39.5004         21.5004
   1424344.82046   1142765.58653  25481084.8914   25481081.1094
        37.5004         19.2504
    -61600.47948    -28565.03346  20449676.5394   20449674.5634
        51.2504         41.0004
 12  3 16 13 30  6.0000000  0 11G02G07G08G15G18G29G10G05G21G04G26
   1540708.44347   1171057.30845  21887653.0704   21887649.9774
        47.2504         34.2504
    764105.56846    591415.58843  24799023.8134   24799021.6054
        36.7504         18.5004
     34026.84046     40698.35343  24567368.5234   24567368.5664
        40.5004         20.7504
   -550547.69647   -397546.58745  22676802.2344   22676799.5824
        46.2504         32.5004
    560484.592 4                  25634787.305
        29.750
    590649.36248    461759.07246  21210849.5704   21210846.7504
        50.7504         40.5004
   1688338.386 4                  24807990.344
        29.750
   1153907.26648    882618.87847  20770016.6724   20770014.0124
        50.2504         42.2504
   -268700.36946   -194600.36043  24893111.0864   24893108.0824
        39.0004         21.5004
   1427668.94846   1145355.77943  25481717.7344   25481714.4454
        37.7504         19.0004
    -63552.89348    -30086.39546  20449305.3674   20449302.9144
        51.7504         40.7504
 12  3 16 13 30  7.0000000  0 11G02G07G08G15G18G29G10G05G21G04G26
   1543236.45647   1173027.19145  21888134.3054   21888130.8554
        47.0004         34.2504
    764436.46746    591673.45543  24799086.8984   24799085.0124
        36.7504         18.2504
     32327.95846     39374.54943  24567045.7504   24567045.3794
        39.7504         20.5004
   -554002.72647   -400238.81745  22676144.4614   22676141.9884
        46.5004         32.7504
    557690.745 4                  25634255.852
        29.000
    590509.79348    461650.31146  21210823.2034   21210820.2274
        50.7504         40.5004
   1691638.878 5                  24808617.773
        30.500
   1155281.14648    883689.42647  20770277.8134   20770275.5354
        50.2504         42.2504
   -271794.09146   -197011.03943  24892523.1804   24892519.4694
        38.0004         21.5004
   1430993.59446   1147946.40843  25482350.8444   25482347.5944
        37.7504         18.5004
    -65504.17448    -31606.87546  20448933.7344   20448931.2704
        51.2504         40.7504
 12  3 16 13 30  8.0000000  0 11G02G07G08G15G18G29G10G05G21G04G26
   1545764.33747   1174996.96645  21888615.1254   21888612.1054
        47.0004         35.0004
    764767.45446    591931.37143  24799149.2664   24799147.8204
        36.5004         18.2504
     30629.01246     38050.69943  24566721.5554   24566722.2194
        39.7504         20.5004
   -557457.96547   -402931.21045  22675486.9774   22675484.9694
        46.7504         33.0004
    554896.448 5                  25633724.289
        30.000
    590370.40148    461541.68746  21210796.3444   21210793.4924
        50.7504         40.2504
   1694938.835 5                  24809247.000
        30.750
   1156654.84048    884759.83747  20770539.1804   20770537.1054
        50.0004         42.5004
   -274888.29146   -199422.10343  24891934.0234   24891930.8754
        38.7504         21.5004
   1434317.77646   1150536.68343  25482982.8134   25482980.6804
        37.2504         18.5004
    -67455.23348    -33127.17846  20448562.8054   20448560.3164
        51.2504         41.0004
 12  3 16 13 30  9.0000000  0 11G02G07G08G15G18G29G10G05G21G04G26
   1548292.29747   1176966.80245  21889095.7974   21889093.0594
        47.0004         34.5004
    765098.79746    592189.56242  24799212.2584   24799210.9884
        36.7504         17.7504
     28930.25346     36726.97643  24566398.8754   24566399.0314
        39.5004         20.7504
   -560913.20047   -405623.60445  22674829.8834   22674827.5394
        47.5004         32.7504
    552101.955 4                  25633192.227
        29.500
    590231.40448    461433.37946  21210769.9384   21210767.3404
        50.7504         40.5004
   1698238.564 5                  24809874.516
        31.000
   1158028.57348    885830.27947  20770800.8674   20770798.4734
        50.2504         42.0004
   -277982.79446   -201833.39643  24891345.3524   24891341.6914
        38.7504         21.2504
   1437641.73346   1153126.78143  25483615.0864   25483613.3484
        37.5004         18.5004
    -69405.85948    -34647.14646  20448191.2734   20448189.1024
        51.0004         41.0004
 12  3 16 13 30 10.0000000  0 11G02G07G08G15G18G29G10G05G21G04G26
   1550821.44847   1178937.56545  21889577.1954   21889574.3164
        47.0004         35.0004
    765431.55346    592448.84143  24799275.8834   24799274.5314
        37.0004         18.2504
     27232.75646     35404.25143  24566075.9534   24566075.8874
        40.0004         21.0004
   -564367.30647   -408315.11445  22674172.3054   22674170.2894
        47.5004         32.7504
    549308.294 4                  25632660.922
        28.750
    590093.91948    461326.25146  21210743.8054   21210740.8754
        51.0004         40.5004
   1701538.981 5                  24810503.086
        31.750
   1159403.45548    886901.61647  20771062.5864   20771059.7624
        50.5004         42.0004
   -281076.50246   -204244.08643  24890756.8754   24890753.1414
        39.0004         21.0004
   1440966.58346   1155717.55543  25484247.6884   25484246.1134
        37.0004         18.5004
    -71354.96248    -36165.93046  20447820.0474   20447818.5594
        51.5004         40.5004
 12  3 16 13 30 11.0000000  0 11G02G07G08G15G18G29G10G05G21G04G26
   1553350.94747   1180908.60045  21890058.8284   21890055.3444
        47.0004         35.0004
    765764.92046    592708.61443  24799339.5784   24799337.5164
        36.7504         18.2504
     25535.68946     34081.86443  24565753.1644   24565752.5864
        40.0004         21.0004
   -567821.12747   -411006.40345  22673515.2734   22673513.6884
        47.7504         32.7504
    546514.782 4                  25632127.844
        29.500
    589957.08648    461219.62646  21210717.6094   21210715.2034
        51.0004         40.2504
   1704839.523 5                  24811130.117
        31.000
   1160778.63448    887973.18247  20771323.9614   20771321.6764
        50.5004         42.0004
   -284170.23346   -206654.78143  24890167.6884   24890164.6454
        39.0004         20.7504
   1444291.54746   1158308.43443  25484880.5704   25484879.1524
        36.5004         18.5004
    -73303.36548    -37684.16946  20447449.6564   20447447.6174
        51.2504         40.5004
 12  3 16 13 30 12.0000000  0 11G02G07G08G15G18G29G10G05G21G04G26
   1555880.12347   1182879.38545  21890540.0944   21890536.9774
        47.2504         34.7504
    766098.19746    592968.33743  24799402.5314   24799401.0784
        36.2504         18.5004
     23838.36946     32759.28343  24565430.3914   24565429.8834
        39.5004         21.2504
   -571275.33748   -413697.99245  22672858.3444   22672856.2974
        48.0004         33.2504
    543720.552 5                  25631596.117
        30.000
    589820.24648    461113.00146  21210691.7344   21210689.0904
        50.5004         40.2504
   1708139.305 5                  24811759.102
        31.500
   1162153.44348    889044.46447  20771585.7194   20771583.6764
        50.2504         42.0004
   -287264.67446   -209066.03443  24889579.0864   24889575.8054
        39.5004         20.5004
   1447615.89145   1160898.84043  25485512.7424   25485511.9064
        34.7504         18.2504
    -75251.74748    -39202.38346  20447078.7664   20447076.7384
        51.0004         40.7504
 12  3 16 13 30 13.0000000  0 11G02G07G08G15G18G29G10G05G21G04G26
   1558409.96847   1184850.69245  21891021.7274   21891018.3444
        47.7504         34.7504
    766432.39746    593228.74143  24799466.1954   24799464.3554
        36.5004         18.2504
     22141.79246     31437.27443  24565107.7344   24565107.0004
        40.2504         20.5004
   -574728.94947   -416389.11945  22672200.9924   22672199.4104
        47.7504         33.0004
    540926.741 4                  25631064.336
        29.750
    589684.39148    461007.13646  21210665.6094   21210663.1454
        50.5004         40.0004
   1711439.379 5                  24812387.328
        30.000
   1163528.88148    890116.23247  20771847.1564   20771845.0704
        50.5004         42.2504
   -290358.83746   -211477.07043  24888990.7114   24888986.8754
        39.2504         20.7504
   1450940.56345   1163489.46442  25486146.2114   25486144.6954
        34.7504         17.7504
    -77199.08748    -40719.79146  20446708.3524   20446706.3284
        50.7504         40.5004
 12  3 16 13 30 14.0000000  0 11G02G07G08G15G18G29G10G05G21G04G26
   1560940.00647   1186822.14545  21891503.2034   21891499.9104
        47.5004         35.0004
    766767.03746    593489.49143  24799529.8834   24799528.4964
        37.0004         18.5004
     20445.51046     30115.49243  24564784.9454   24564784.0274
        40.0004         20.2504
   -578182.42247   -419080.13445  22671543.6484   22671541.9844
        47.0004         32.5004
    538132.901 4                  25630532.398
        29.750
    589549.03948    460901.65946  21210640.2894   21210637.3404
        50.2504         40.0004
   1714739.250 5                  24813015.430
        30.500
   1164904.48248    891188.12647  20772109.2664   20772106.7704
        50.5004         42.0004
   -293453.17346   -213888.23043  24888401.5944   24888397.9144
        38.0004         20.5004
   1454265.18045   1166080.05042  25486778.6484   25486777.8834
        34.5004         17.2504
    -79145.88448    -42236.77246  20446337.7734   20446335.6844
        50.7504         41.0004
 12  3 16 13 30 15.0000000  0 11G02G07G08G15G18G29G10G05G21G04G26
   1563470.31747   1188793.81645  21891984.3674   21891981.2584
        47.2504         35.2504
    767102.16846    593750.63943  24799593.9924   24799591.9924
        37.0004         18.5004
     18749.57546     28793.98843  24564462.2114   24564461.6644
        41.0004         20.2504
   -581635.70547   -421771.01345  22670886.5474   22670884.6724
        46.7504         33.0004
    535338.966 5                  25630001.602
        30.500
    589414.25648    460796.63246  21210614.6724   21210611.8204
        50.5004         40.5004
   1718038.952 5                  24813644.008
        31.000
   1166280.27748    892260.17347  20772370.7734   20772368.6604
        50.7504         42.0004
   -296547.62746   -216299.47643  24887811.8364   24887809.1954
        37.7504         20.7504
   1457589.77245   1168670.60042  25487410.5084   25487410.7814
        35.2504         17.2504
    -81092.09648    -43753.30346  20445967.3524   20445965.1884
        51.2504         41.0004
 12  3 16 13 30 16.0000000  0 11G02G07G08G15G18G29G10G05G21G04G26
   1566001.22247   1190765.94945  21892466.3674   21892463.2934
        47.5004         35.0004
    767438.20646    594012.48343  24799657.9454   24799655.8984
        37.2504         18.2504
     17054.29746     27472.99243  24564139.5084   24564138.8634
        41.0004         20.2504
   -585088.45247   -424461.46345  22670229.4614   22670227.6724
        47.2504         32.7504
    532545.356 5                  25629470.656
        30.500
    589280.40748    460692.33846  21210588.9844   21210586.1844
        50.0004         40.5004
   1721338.970 5                  24814273.109
        32.000
   1167656.63148    893332.66047  20772632.8444   20772630.5944
        50.7504         42.0004
   -299641.85946   -218710.57043  24887223.8364   24887219.9304
        38.2504         20.5004
   1460914.64545   1171261.44342  25488043.9064   25488043.2974
        35.7504         16.7504
    -83037.32848    -45269.07346  20445597.3754   20445595.0864
        51.0004         41.0004
 12  3 16 13 30 17.0000000  0 11G02G07G08G15G18G29G10G05G21G04G26
   1568532.79647   1192738.60045  21892947.7734   21892944.9384
        47.0004         35.0004
    767775.06546    594274.95443  24799721.9774   24799720.2424
        37.7504         18.2504
     15359.80546     26152.61243  24563817.5944   24563816.0664
        41.5004         19.7504
   -588540.59947   -427151.44045  22669572.6174   22669570.6604
        47.2504         33.0004
    529752.134 5                  25628938.883
        30.500
    589147.52848    460588.79846  21210563.8134   21210560.9844
        50.5004         40.0004
   1724639.197 5                  24814899.914
        31.500
   1169033.63248    894405.64447  20772895.4304   20772892.6914
        50.7504         42.0004
   -302735.82646   -221121.46143  24886634.8674   24886631.6024
        39.0004         20.2504
   1464239.96245   1173852.65742  25488677.3444   25488675.9924
        35.5004         16.2504
    -84981.55848    -46784.05446  20445227.6024   20445225.0514
        50.7504         41.0004
 12  3 16 13 30 18.0000000  0 11G02G07G08G15G18G29G10G05G21G04G26
   1571064.14147   1194711.07645  21893429.0944   21893426.6054
        47.0004         34.5004
    768112.01646    594537.49343  24799786.3754   24799784.6724
        37.0004         18.2504
     13665.16646     24832.12843  24563494.3834   24563493.6054
        41.2504         19.5004
   -591993.02847   -429841.63945  22668915.0634   22668913.9454
        47.2504         33.0004
    526958.417 5                  25628406.969
        30.750
    589014.74048    460485.32146  21210538.4534   21210535.7974
        50.7504         40.0004
   1727938.847 5                  24815529.039
        32.000
   1170410.35948    895478.42147  20773156.9144   20773154.9844
        50.2504         42.2504
   -305830.36046   -223532.79043  24886046.3204   24886042.5004
        39.0004         20.2504
   1467564.67845   1176443.30942  25489310.1564   25489309.1994
        35.7504         16.2504
    -86925.66248    -48298.94546  20444857.2894   20444855.0314
        50.7504         41.0004
 12  3 16 13 30 19.0000000  0 11G02G07G08G15G18G29G10G05G21G04G26
   1573595.30847   1196683.41745  21893911.6024   21893908.4304
        47.2504         34.7504
    768448.97646    594800.08043  24799850.4774   24799848.6484
        37.0004         18.2504
     11970.40446     23511.54643  24563171.1484   24563171.3954
        41.2504         19.5004
   -595445.73147   -432532.05245  22668258.4774   22668256.6524
        47.5004         32.5004
    524164.147 5                  25627874.805
        31.000
    588882.07648    460381.95146  21210513.3754   21210510.4144
        50.7504         40.0004
   1731238.018 5                  24816155.961
        32.000
   1171786.83948    896551.00047  20773418.8914   20773416.4534
        50.2504         42.2504
   -308925.46746   -225944.60143  24885456.8134   24885454.0314
        39.2504         19.7504
   1470888.99445   1179033.69742  25489942.1954   25489941.8364
        35.0004         15.5004
    -88869.58548    -49813.69046  20444487.6954   20444485.0554
        50.5004         40.7504
 12  3 16 13 30 20.0000000  0 11G02G07G08G15G18G29G10G05G21G04G26
   1576128.09147   1198657.01545  21894393.0704   21894389.9734
        47.2504         34.7504
    768787.83346    595064.12342  24799914.7034   24799913.2624
        37.5004         17.7504
     10277.36646     22192.29743  24562849.2034   24562848.8404
        41.2504         19.5004
   -598896.87047   -435221.25045  22667601.2114   22667600.0164
        47.2504         33.0004
    521371.204 5                  25627344.375
        30.500
    588751.33948    460280.07746  21210488.5234   21210485.5824
        50.5004         40.0004
   1734538.398 5                  24816784.742
        32.000
   1173164.90748    897624.81747  20773681.3284   20773679.1484
        50.5004         42.2504
   -312019.40946   -228355.42443  24884868.3284   24884865.0664
        40.0004         20.2504
   1474214.61745   1181625.07642  25490575.8204   25490574.9574
        35.0004         16.2504
    -90811.55648    -51326.90846  20444117.7274   20444115.6134
        50.5004         41.0004
 12  3 16 13 30 21.0000000  0 11G02G07G08G15G18G29G10G05G21G04G26
   1578661.11847   1200630.79945  21894875.5634   21894872.3754
        47.5004         34.7504
    769127.16946    595328.52842  24799978.9144   24799978.2154
        37.2504         17.7504
      8584.64446     20873.29643  24562527.1024   24562526.8484
        40.7504         19.7504
   -602347.83447   -437910.31445  22666944.9694   22666943.1294
        47.0004         33.0004
    518578.193 5                  25626813.438
        31.000
    588621.15948    460178.63346  21210463.8984   21210460.8754
        51.0004         40.5004
   1737838.590 5                  24817412.328
        32.500
   1174543.14948    898698.77247  20773943.6024   20773941.3054
        50.5004         42.5004
   -315113.45146   -230766.36643  24884279.8284   24884276.2974
        39.2504         20.2504
   1477540.25745   1184216.46942  25491209.0234   25491207.8674
        33.7504         16.2504
    -92752.91548    -52839.65646  20443748.2894   20443746.3364
        50.5004         41.0004
 12  3 16 13 30 22.0000000  0 11G02G07G08G15G18G29G10G05G21G04G26
   1581190.73847   1202601.92645  21895356.6724   21895353.6134
        47.7504         35.0004
    769463.32046    595590.45242  24800042.2504   24800041.5164
        37.7504         17.7504
      6888.59646     19551.69743  24562203.7974   24562204.1994
        40.2504         19.7504
   -605802.27247   -440602.08545  22666287.5554   22666285.6374
        47.0004         33.0004
    515781.571 5                  25626284.000
        32.000
    588487.89648    460074.79246  21210438.2584   21210435.2424
        51.0004         40.0004
   1741135.030 5                  24818039.508
        32.500
   1175917.96148    899770.05247  20774205.2424   20774202.6094
        50.2504         42.5004
   -318211.27246   -233180.25843  24883689.6024   24883686.8164
        39.7504         20.5004
   1480862.06145   1186804.90142  25491840.9144   25491839.6954
        33.5004         16.2504
    -94697.33848    -54354.78646  20443378.5084   20443375.8954
        51.0004         41.0004
 12  3 16 13 30 23.0000000  0 11G02G07G08G15G18G29G10G05G21G04G26
   1583724.12248   1204575.99145  21895838.7814   21895835.8754
        48.0004         35.0004
    769803.52446    595855.49442  24800107.0164   24800106.8324
        38.2504         17.7504
      5196.38346     18233.08243  24561881.4694   24561881.9694
        40.0004         19.7504
   -609253.00147   -443290.96945  22665630.6804   22665629.0124
        47.0004         33.0004
    512988.342 5                  25625750.945
        31.750
    588358.67948    459974.10746  21210413.5864   21210410.5354
        51.0004         40.0004
   1744434.766 5                  24818668.539
        32.250
   1177296.47448    900844.21547  20774467.4614   20774465.2274
        50.5004         42.5004
   -321305.70046   -235591.51743  24883101.0704   24883098.2424
        39.0004         20.2504
   1484187.41845   1189396.11942  25492472.0944   25492471.3014
        32.0004         16.7504
    -96637.66548    -55866.72946  20443009.2584   20443006.9924
        50.7504         40.7504
 12  3 16 13 30 24.0000000  0 11G02G07G08G15G18G29G10G05G21G04G26
   1586257.64847   1206550.15945  21896320.9844   21896318.0314
        47.7504         35.0004
    770144.06646    596120.88142  24800172.1024   24800171.6994
        38.5004         17.7504
      3504.42846     16914.67743  24561560.1484   24561560.0984
        39.7504         19.7504
   -612703.66747   -445979.79645  22664974.1094   22664972.0944
        47.0004         32.7504
    510195.059 5                  25625219.031
        31.500
    588229.95048    459873.79946  21210389.3914   21210386.0704
        51.0004         39.5004
   1747734.393 5                  24819295.016
        32.750
   1178675.09748    901918.46647  20774729.7894   20774727.9144
        50.5004         42.5004
   -324400.39346   -238002.96543  24882511.6334   24882509.0124
        39.2504         20.2504
   1487512.63545   1191987.19442  25493106.5784   25493106.0904
        33.0004         16.2504
    -98577.45648    -57378.25246  20442640.2734   20442638.2814
        50.7504         40.7504
 12  3 16 13 30 25.0000000  0 11G02G07G08G15G18G29G10G05G21G04G26
   1588791.74147   1208524.78045  21896803.3364   21896800.0434
        47.7504         35.0004
    770485.43346    596386.90843  24800237.3204   24800236.6294
        38.2504         18.2504
      1813.14346     15596.79443  24561238.4064   24561238.3444
        38.7504         19.7504
   -616153.82347   -448668.22545  22664317.7504   22664315.9224
        47.0004         33.0004
    507401.931 5                  25624689.953
        32.250
    588102.07948    459774.15846  21210364.6724   21210361.9614
        50.2504         39.5004
   1751034.139 5                  24819922.633
        33.000
   1180054.24148    902993.12247  20774991.9304   20774989.6914
        50.5004         42.5004
   -327494.88846   -240414.26243  24881923.3674   24881920.6524
        39.5004         20.5004
   1490838.11545   1194578.42842  25493739.1884   25493738.6524
        33.5004         16.2504
   -100516.32348    -58889.06146  20442270.9924   20442268.8634
        50.5004         40.7504
 12  3 16 13 30 26.0000000  0 11G02G07G08G15G18G29G10G05G21G04G26
   1591325.99747   1210499.51245  21897285.6644   21897282.1684
        47.7504         35.0004
    770827.20446    596653.22343  24800302.3674   24800301.8554
        37.7504         18.5004
       122.06746     14279.07343  24560916.9304   24560916.3834
        39.5004         19.7504
   -619603.88747   -451356.58645  22663661.1334   22663659.6524
        47.2504         32.7504
    504608.718 5                  25624158.234
        32.000
    587974.67548    459674.88746  21210340.5314   21210337.8444
        50.7504         39.5004
   1754333.660 5                  24820550.367
        32.000
   1181433.50948    904067.87347  20775254.6884   20775252.2384
        50.7504         42.5004
   -330589.60546   -242825.72843  24881333.7894   24881331.3634
        39.5004         20.5004
   1494163.50345   1197169.61342  25494371.7344   25494371.7074
        34.2504         16.2504
   -102454.71548    -60399.50046  20441902.2034   20441900.0594
        50.7504         40.7504
 12  3 16 13 30 27.0000000  0 11G02G07G08G15G18G29G10G05G21G04G26
   1593860.64048   1212474.56445  21897767.9614   21897764.4104
        48.0004         34.7504
    771169.64146    596920.04443  24800367.3134   24800366.8094
        37.5004         18.5004
     -1568.53646     12961.74643  24560595.0164   24560594.6454
        39.5004         19.5004
   -623053.62247   -454044.68345  22663004.4304   22663003.0784
        47.5004         32.7504
    501815.601 5                  25623626.945
        32.500
    587848.00248    459576.17746  21210316.5554   21210313.6724
        51.0004         39.5004
   1757633.218 5                  24821179.305
        32.250
   1182813.12548    905142.90247  20775517.3754   20775514.8834
        50.5004         42.5004
   -333684.30146   -245237.16843  24880745.0234   24880742.9344
        39.5004         20.2504
   1497489.00645   1199760.88042  25495004.1414   25495004.1094
        34.7504         16.2504
   -104392.34948    -61909.34346  20441533.7194   20441531.5044
        50.7504         40.5004
 12  3 16 13 30 28.0000000  0 11G02G07G08G15G18G29G10G05G21G04G26
   1596395.72748   1214449.95045  21898250.3914   21898246.8714
        48.0004         35.2504
    771512.72046    597187.39443  24800433.1954   24800431.8244
        38.2504         18.5004
     -3258.60146     11644.80043  24560273.7194   24560273.4184
        39.0004         19.2504
   -626502.97247   -456732.48145  22662348.1724   22662346.5664
        47.5004         33.2504
    499022.665 5                  25623096.344
        33.000
    587722.07748    459478.05446  21210292.8594   21210289.3874
        51.2504         39.2504
   1760932.864 5                  24821806.117
        32.250
   1184193.11548    906218.21747  20775779.8204   20775777.5274
        50.5004         42.5004
   -336778.97146   -247648.60343  24880156.3594   24880154.0634
        39.7504         20.2504
   1500814.57845   1202352.26142  25495637.0864   25495637.0784
        33.5004         16.7504
   -106329.18048    -63418.56346  20441164.9304   20441162.8834
        51.0004         40.5004
 12  3 16 13 30 29.0000000  0 11G02G07G08G15G18G29G10G05G21G04G26
   1598931.40148   1216425.79945  21898732.6334   21898729.3164
        48.0004         35.2504
    771856.72146    597455.41643  24800497.7664   24800497.2624
        38.0004         18.5004
     -4948.00146     10328.36543  24559951.7194   24559951.8634
        39.7504         19.5004
   -629951.81347   -459419.89245  22661691.7584   22661690.3484
        47.5004         32.5004
    496229.976 5                  25622564.836
        33.500
    587597.04448    459380.62346  21210268.6564   21210265.7854
        51.0004         39.7504
   1764232.651 5                  24822433.570
        31.500
   1185573.66048    907293.96147  20776042.4614   20776040.0594
        50.2504         42.5004
   -339873.42546   -250059.87043  24879567.8594   24879565.1414
        39.7504         20.2504
   1504140.51745   1204943.90442  25496269.9694   25496270.2114
        33.5004         16.7504
   -108265.07648    -64927.06046  20440796.7734   20440794.5944
        51.0004         40.7504
 12  3 16 13 30 30.0000000  0 11G02G07G08G15G18G29G10G05G21G04G26
   1601467.04747   1218401.62445  21899214.6414   21899211.8054
        47.7504         34.5004
    772200.88746    597723.63943  24800564.1484   24800562.7544
        38.0004         18.5004
     -6637.28946      9012.02943  24559630.3364   24559630.3954
        38.7504         19.7504
   -633400.73447   -462107.35645  22661035.4844   22661033.8954
        47.7504         32.5004
    493437.055 5                  25622034.141
        34.000
    587472.32248    459283.43646  21210244.9384   21210241.9224
        51.0004         39.7504
   1767532.082 5                  24823061.641
        31.000
   1186954.14548    908369.66947  20776305.1094   20776302.6764
        50.2504         42.5004
   -342968.25646   -252471.44743  24878978.5784   24878976.3324
        39.5004         20.2504
   1507466.15545   1207535.31542  25496901.5554   25496901.3984
        32.7504         16.7504
   -110200.64548    -66435.29446  20440428.0864   20440426.3284
        51.2504         40.7504
 12  3 16 13 30 31.0000000  0 11G02G07G08G15G18G29G10G05G21G04G26
   1604002.99747   1220377.68345  21899697.3204   21899694.4024
        47.2504         34.5004
    772545.55646    597992.19443  24800630.4224   24800628.6684
        37.5004         18.2504
     -8326.28446      7695.92843  24559308.6564   24559309.0314
        39.5004         19.5004
   -636849.42047   -464794.63745  22660379.7734   22660377.7544
        47.5004         32.7504
    490644.104 5                  25621502.844
        33.500
    587348.19448    459186.71446  21210221.2734   21210218.2344
        51.2504         39.7504
   1770831.384 5                  24823689.383
        31.250
   1188334.87748    909445.56447  20776567.9304   20776565.8094
        50.5004         42.5004
   -346063.20746   -254883.06743  24878390.0554   24878387.4264
        39.0004         20.0004
   1510791.75045   1210126.66742  25497535.7584   25497536.0704
        33.5004         16.7504
   -112135.55848    -67943.01646  20440060.1254   20440057.6804
        50.7504         41.0004
 12  3 16 13 30 32.0000000  0 11G02G07G08G15G18G29G10G05G21G04G26
   1606539.29847   1222354.02245  21900180.2734   21900177.3484
        47.2504         35.0004
    772890.86846    598261.26743  24800695.0864   24800694.5204
        38.2504         18.5004
    -10014.79546      6380.21343  24558987.6804   24558987.3594
        39.2504         19.2504
   -640297.83747   -467481.71245  22659722.9534   22659721.4384
        47.0004         32.5004
    487851.175 5                  25620971.586
        33.500
    587224.73048    459090.50546  21210197.8054   21210194.8054
        51.0004         39.7504
   1774130.739 5                  24824318.609
        31.500
   1189715.91648    910521.69647  20776830.8204   20776828.2624
        50.2504         42.5004
   -349158.17946   -257294.72843  24877801.3834   24877798.3444
        38.7504         20.5004
   1514117.41045   1212718.07642  25498167.2974   25498167.4304
        31.7504         16.2504
   -114069.78548    -69450.20546  20439692.1174   20439689.9774
        50.5004         40.5004
 12  3 16 13 30 33.0000000  0 11G02G07G08G15G18G29G10G05G21G04G26
   1609077.02847   1224331.47345  21900662.9694   21900659.8204
        47.5004         35.0004
    773237.84146    598531.63243  24800761.4454   24800760.5704
        38.5004         18.2504
    -11701.77946      5065.67943  24558666.3914   24558666.5944
        39.0004         19.2504
   -643744.86847   -470167.70245  22659066.8054   22659065.4304
        47.5004         32.2504
    485059.401 5                  25620440.672
        33.500
    587103.01148    458995.66046  21210174.5864   21210171.8204
        50.7504         39.5004
   1777431.106 5                  24824946.344
        31.500
   1191098.34148    911598.92047  20777093.8834   20777091.4454
        50.5004         42.2504
   -352252.11346   -259705.58943  24877212.7424   24877209.5944
        39.0004         20.5004
   1517444.22245   1215310.38242  25498800.5314   25498801.6604
        32.5004         15.5004
   -116002.20748    -70955.98846  20439324.3834   20439322.1684
        50.5004         40.5004
 12  3 16 13 30 34.0000000  0 11G02G07G08G15G18G29G10G05G21G04G26
   1611613.35947   1226307.82945  21901145.6804   21901142.7114
        47.5004         35.0004
    773583.68046    598801.10643  24800827.1024   24800826.3794
        38.5004         19.0004
    -13390.11246      3750.09543  24558345.0084   24558345.4384
        39.5004         19.2504
   -647193.39247   -472854.85745  22658411.0704   22658409.1954
        47.2504         32.5004
    482265.932 5                  25619909.125
        33.250
    586980.18648    458899.95846  21210151.1804   21210148.5784
        50.7504         39.5004
   1780729.711 5                  24825574.172
        30.750
   1192479.31748    912675.00047  20777356.8524   20777354.1094
        50.2504         42.0004
   -355347.83246   -262117.83843  24876623.4844   24876620.2074
        39.0004         20.2504
   1520769.39745   1217901.40342  25499433.2734   25499434.6374
        32.2504         15.5004
   -117935.69248    -72462.60046  20438956.4534   20438953.8244
        51.0004         40.5004
 12  3 16 13 30 35.0000000  0 11G02G07G08G15G18G29G10G05G21G04G26
   1614150.96447   1228285.18445  21901628.6564   21901625.7544
        47.5004         34.5004
    773930.99246    599071.73843  24800894.2114   24800892.2624
        37.7504         19.2504
    -15077.08946      2435.56343  24558024.2034   24558024.0944
        39.7504         18.5004
   -650640.69747   -475541.07245  22657755.0004   22657753.4184
        47.5004         32.5004
    479473.417 5                  25619377.742
        33.750
    586858.96748    458805.50046  21210128.0164   21210125.4024
        51.2504         39.5004
   1784029.234 5                  24826202.047
        31.000
   1193861.51248    913752.03447  20777619.4144   20777617.2504
        50.5004         42.5004
   -358442.64046   -264529.37743  24876034.1414   24876031.6484
        39.2504         20.7504
   1524095.46445   1220493.11442  25500067.2734   25500068.0904
        33.0004         14.7504
   -119867.54848    -73967.93746  20438588.7974   20438586.4144
        51.0004         40.7504
 12  3 16 13 30 36.0000000  0 11G02G07G08G15G18G29G10G05G21G04G26
   1616689.21647   1230263.04145  21902111.4844   21902108.6454
        47.5004         34.7504
    774279.21746    599343.10743  24800959.9384   24800958.3134
        37.5004         19.2504
    -16763.29346      1121.63543  24557703.5004   24557703.5944
        40.0004         19.0004
   -654087.41747   -478226.82045  22657099.0944   22657097.6134
        47.5004         33.2504
    476681.279 5                  25618845.836
        34.750
    586738.70748    458711.78746  21210105.0554   21210102.5274
        51.0004         39.7504
   1787328.889 5                  24826830.688
        31.500
   1195244.31948    914829.54747  20777882.7344   20777880.0434
        50.7504         42.5004
   -361537.20046   -266940.73143  24875445.4774   24875442.8054
        39.2504         20.2504
   1527421.94645   1223085.19342  25500700.2424   25500701.2774
        33.5004         15.5004
   -121798.38948    -75472.48646  20438221.6884   20438219.2814
        51.0004         41.0004
 12  3 16 13 30 37.0000000  0 11G02G07G08G15G18G29G10G05G21G04G26
   1619227.21747   1232240.70245  21902595.2274   21902591.6414
        47.5004         34.7504
    774627.42146    599614.42443  24801026.9774   24801024.8984
        37.5004         19.2504
    -18449.70646      -192.44243  24557382.9304   24557382.9884
        39.7504         19.0004
   -657534.47447   -480912.85045  22656443.4384   22656441.8874
        47.7504         33.2504
    473888.624 5                  25618313.469
        35.000
    586618.48548    458618.10446  21210082.0314   21210079.6684
        50.7504         39.7504
   1790628.042 5                  24827459.555
        32.000
   1196626.82048    915906.82247  20778146.0704   20778143.4144
        50.2504         42.7504
   -364632.40946   -269352.58143  24874854.3204   24874851.9694
        38.5004         20.0004
   1530747.83845   1225676.79242  25501333.6094   25501333.9224
        33.0004         14.7504
   -123729.15448    -76976.98146  20437854.0084   20437851.6134
        50.7504         40.5004
 12  3 16 13 30 38.0000000  0 11G02G07G08G15G18G29G10G05G21G04G26
   1621765.57547   1234218.63445  21903078.1254   21903074.6174
        47.7504         34.7504
    774976.26746    599886.25543  24801092.4144   24801091.1054
        38.0004         19.5004
    -20135.63746     -1506.15443  24557062.1644   24557061.8794
        39.7504         19.0004
   -660981.20148   -483598.60545  22655787.5554   22655785.6214
        48.0004         33.0004
    471095.963 5                  25617782.359
        34.750
    586498.97248    458524.97846  21210059.5554   21210057.0664
        51.0004         40.0004
   1793927.146 5                  24828087.352
        32.000
   1198009.65148    916984.34447  20778408.9774   20778406.4104
        50.2504         42.5004
   -367727.60546   -271764.42943  24874267.4844   24874264.6024
        39.0004         20.0004
   1534073.83745   1228268.46642  25501965.7344   25501966.7464
        33.0004         14.7504
   -125659.19448    -78480.90846  20437486.7034   20437484.4414
        50.7504         40.5004
 12  3 16 13 30 39.0000000  0 11G02G07G08G15G18G29G10G05G21G04G26
   1624304.33747   1236196.89345  21903560.7194   21903557.8554
        47.5004         34.7504
    775325.70946    600158.54143  24801160.1254   24801157.5634
        38.2504         19.7504
    -21821.12946     -2819.51243  24556741.3984   24556741.0234
        39.7504         19.2504
   -664427.60348   -486284.11145  22655131.5004   22655129.9344
        48.2504         33.5004
    468303.479 5                  25617251.727
        34.500
    586380.14048    458432.38146  21210037.0784   21210034.4224
        50.5004         40.0004
   1797226.225 5                  24828712.180
        31.750
   1199392.83548    918062.15447  20778672.2274   20778669.7074
        50.2504         42.7504
   -370822.80446   -274176.26043  24873678.6024   24873675.8554
        38.7504         20.0004
   1537399.99745   1230860.31942  25502597.5634   25502598.6804
        33.0004         14.7504
   -127588.47548    -79984.25146  20437119.4844   20437117.3244
        51.0004         40.5004
 12  3 16 13 30 40.0000000  0 11G02G07G08G15G18G29G10G05G21G04G26
   1626844.06547   1238175.90045  21904044.5864   21904041.0354
        47.5004         34.7504
    775676.35946    600431.78243  24801225.7344   24801224.4614
        38.2504         19.5004
    -23505.56446     -4132.04543  24556420.6094   24556420.3874
        40.0004         19.5004
   -667873.12448   -488968.93345  22654475.7814   22654474.0904
        48.2504         33.0004
    465511.669 5                  25616720.664
        34.250
    586262.60348    458340.78646  21210014.7664   21210011.7424
        50.7504         40.0004
   1800526.008 5                  24829341.445
        31.750
   1200776.91948    919140.66047  20778935.3754   20778932.9964
        50.5004         42.5004
   -373917.41946   -276587.62043  24873089.2974   24873087.0904
        39.0004         20.0004
   1540726.74945   1233452.60742  25503230.0084   25503231.8094
        31.7504         15.5004
   -129516.45748    -81486.57246  20436753.0634   20436750.8014
        51.0004         41.0004
 12  3 16 13 30 41.0000000  0 11G02G07G08G15G18G29G10G05G21G04G26
   1629383.46447   1240154.65145  21904527.5234   21904524.3984
        47.7504         34.7504
    776026.95746    600704.97143  24801292.1954   24801290.9844
        37.7504         19.2504
    -25190.20046     -5444.74643  24556100.0394   24556099.8754
        39.5004         19.5004
   -671319.01848   -491654.03645  22653819.9924   22653818.4534
        48.2504         33.2504
    462719.217 5                  25616188.898
        34.250
    586145.05348    458249.19446  21209992.0864   21209989.4024
        50.7504         40.0004
   1803824.965 5                  24829970.406
        31.250
   1202160.63848    920218.88147  20779198.7664   20779196.1994
        50.5004         42.7504
   -377012.76246   -278999.57943  24872500.1724   24872498.0744
        39.2504         20.0004
   1544052.96445   1236044.37442  25503862.6804   25503864.5084
        30.2504         15.5004
   -131444.41048    -82988.87146  20436385.6174   20436383.3554
        50.5004         41.0004
 12  3 16 13 30 42.0000000  0 11G02G07G08G15G18G29G10G05G21G04G26
   1631923.68647   1242134.04445  21905010.9844   21905007.7234
        47.5004         34.5004
    776378.62546    600978.99343  24801358.6484   24801358.1414
        36.2504         19.2504
    -26873.94246     -6756.80243  24555779.4454   24555779.1024
        39.7504         19.5004
   -674764.15148   -494338.55745  22653164.2584   22653162.4614
        48.0004         33.5004
    459927.260 5                  25615657.359
        33.500
    586028.61548    458158.46646  21209970.1254   21209967.3834
        50.2504         40.0004
   1807124.399 5                  24830596.016
        31.000
   1203545.12648    921297.71147  20779462.3914   20779460.0704
        50.5004         42.2504
   -380107.63246   -281411.18543  24871911.6724   24871909.2194
        39.0004         20.0004
   1547379.68745   1238636.63042  25504496.6174   25504497.6024
        31.7504         15.5004
   -133371.18048    -84490.25646  20436019.2424   20436017.0904
        50.0004         41.0004
 12  3 16 13 30 43.0000000  0 11G02G07G08G15G18G29G10G05G21G04G26
   1634463.93147   1244113.45745  21905494.4304   21905490.8984
        47.5004         34.0004
    776730.54145    601253.21843  24801425.7974   24801424.5744
        35.5004         19.2504
    -28557.60846     -8068.70243  24555459.0234   24555459.4024
        39.5004         19.5004
   -678209.33948   -497023.11345  22652509.2344   22652507.3014
        48.0004         33.5004
    457135.052 5                  25615125.125
        33.500
    585912.52448    458068.00346  21209947.9144   21209944.8594
        50.0004         39.7504
   1810423.507 5                  24831224.773
        31.000
   1204929.60148    922376.51847  20779726.0234   20779723.2814
        50.5004         42.5004
   -383202.88746   -283823.07343  24871322.6724   24871320.1914
        39.2504         20.2504
   1550706.06845   1241228.60542  25505128.9694   25505131.1684
        31.5004         14.7504
   -135297.59148    -85991.34746  20435652.7274   20435650.8404
        50.0004         40.7504
 12  3 16 13 30 44.0000000  0 11G02G07G08G15G18G29G10G05G21G04G26
   1637004.50247   1246093.11545  21905978.0634   21905974.2544
        47.5004         34.0004
    777083.01546    601527.86843  24801492.8674   24801491.7974
        36.0004         19.2504
    -30240.81446     -9380.28243  24555138.6954   24555138.8324
        39.5004         19.5004
   -681654.24448   -499707.45845  22651852.8054   22651851.8674
        48.0004         33.5004
    454342.889 5                  25614593.336
        32.750
    585797.07648    457978.04146  21209926.1954   21209923.1604
        50.2504         40.0004
   1813722.551 5                  24831852.047
        31.500
   1206314.37248    923455.56347  20779989.3594   20779986.7464
        50.5004         42.5004
   -386298.15146   -286234.98543  24870733.3674   24870731.0704
        39.5004         20.5004
   1554032.61645   1243820.71742  25505761.0394   25505763.7544
        31.2504         14.7504
   -137223.27748    -87491.88446  20435285.9694   20435283.6764
        50.2504         41.0004
 12  3 16 13 30 45.0000000  0 11G02G07G08G15G18G29G10G05G21G04G26
   1639543.80748   1248071.78945  21906461.6024   21906457.5664
        48.0004         34.5004
    777434.49546    601801.74243  24801560.1954   24801558.6094
        36.5004         19.2504
    -31925.27046    -10692.85743  24554818.6414   24554818.2854
        39.0004         20.0004
   -685100.50948   -502392.85845  22651197.3674   22651196.0394
        48.0004         33.5004
    451549.175 5                  25614060.156
        33.750
    585680.68148    457887.34746  21209903.7734   21209901.2234
        50.5004         40.0004
   1817019.973 5                  24832477.773
        31.250
   1207697.80948    924533.56247  20780252.8834   20780250.2704
        51.0004         42.5004
   -389395.11246   -288648.22843  24870143.8984   24870141.8404
        39.5004         20.0004
   1557357.51045   1246411.55542  25506394.5004   25506396.7424
        31.2504         15.5004
   -139149.93748    -88993.17446  20434919.4384   20434917.3954
        50.7504         41.0004
 12  3 16 13 30 46.0000000  0 11G02G07G08G15G18G29G10G05G21G04G26
   1642084.65547   1250051.66545  21906944.4384   21906941.2704
        47.5004         34.5004
    777787.73046    602076.98543  24801627.2734   24801626.4104
        36.5004         19.2504
    -33608.05146    -12004.13343  24554498.9534   24554497.8634
        39.5004         20.0004
   -688545.25547   -505077.07145  22650542.1954   22650540.6994
        47.7504         33.5004
    448756.625 5                  25613531.125
        33.750
    585566.13048    457798.08746  21209882.1024   21209879.2234
        50.2504         40.2504
   1820318.527 5                  24833104.805
        30.500
   1209082.75548    925612.73947  20780516.0314   20780513.7734
        51.0004         42.2504
   -392490.90446   -291060.52443  24869555.0554   24869552.4184
        39.0004         20.2504
   1560683.68645   1249003.36942  25507026.8204   25507029.6994
        31.0004         15.5004
   -141074.66448    -90492.96646  20434553.3054   20434550.6524
        50.2504         40.7504
 12  3 16 13 30 47.0000000  0 11G02G07G08G15G18G29G10G05G21G04G26
   1644627.00548   1252032.72545  21907428.4304   21907425.0044
        48.0004         34.2504
    778142.74446    602353.61143  24801694.3054   24801693.7034
        36.5004         19.2504
    -35289.21346    -13314.13643  24554178.3054   24554177.7934
        39.5004         20.5004
   -691988.57247   -507760.17945  22649886.9224   22649885.4574
        47.5004         33.5004
    445965.401 5                  25613000.328
        34.000
    585453.41048    457710.24846  21209860.6884   21209857.9654
        50.5004         40.0004
                                  24833732.563
        29.750
   1210469.14848    926693.04147  20780779.8984   20780777.4694
        51.2504         42.2504
   -395585.61146   -293471.92843  24868966.6334   24868963.7974
        38.0004         20.2504
   1564011.06845   1251596.08942  25507660.3834   25507662.7344
        31.0004         15.5004
   -142997.53648    -91991.30946  20434187.3674   20434184.9144
        50.7504         41.0004
 12  3 16 13 30 48.0000000  0 11G02G07G08G15G18G29G10G05G21G04G26
   1647168.69448   1254013.26345  21907912.0084   21907908.2894
        48.2504         34.5004
    778497.32046    602629.89543  24801761.8984   24801761.1484
        37.5004         19.5004
    -36970.99246    -14624.61743  24553858.0314   24553857.9264
        40.0004         20.5004
   -695432.63647   -510443.85645  22649231.0394   22649229.7934
        47.5004         34.0004
    443173.208 5                  25612467.906
        33.500
    585340.34648    457622.14946  21209839.2424   21209835.8324
        50.2504         40.0004
                                  24834360.281
        29.000
   1211854.83048    927772.79747  20781043.6954   20781041.6054
        51.0004         42.2504
   -398681.31646   -295884.19143  24868377.8444   24868374.7424
        38.0004         20.5004
   1567337.42944   1254188.05642  25508293.9924   25508296.1644
        29.7504         14.7504
   -144920.73748    -93489.90446  20433821.4384   20433818.9414
        50.7504         41.2504
 12  3 16 13 30 49.0000000  0 11G02G07G08G15G18G29G10G05G21G04G26
   1649711.21348   1255994.43845  21908396.0234   21908392.1764
        48.5004         34.2504
    778852.97646    602907.03643  24801830.0864   24801828.7814
        38.0004         19.2504
    -38651.85946    -15934.37543  24553539.1954   24553538.1454
        40.5004         20.2504
   -698875.92147   -513126.93045  22648575.8754   22648574.4534
        47.5004         33.7504
    440381.525 5                  25611938.914
        34.000
    585228.40048    457534.91146  21209817.7194   21209815.2464
        50.5004         40.0004
                                  24834987.266
        29.500
   1213241.32248    928853.18047  20781307.4534   20781305.3484
        51.2504         42.2504
   -401776.59746   -298296.08943  24867788.1174   24867785.7304
        38.5004         20.5004
   1570664.46845   1256780.54042  25508926.8674   25508928.8054
        30.7504         14.7504
   -146842.72948    -94987.56046  20433455.5944   20433453.2074
        51.0004         41.0004
 12  3 16 13 30 50.0000000  0 11G02G07G08G15G18G29G10G05G21G04G26
   1652254.51148   1257976.23145  21908879.6644   21908876.2814
        48.2504         34.5004
    779209.66946    603184.96143  24801898.1644   24801896.5744
        37.7504         19.2504
    -40331.82346    -17243.43443  24553219.2894   24553218.8524
        41.2504         21.0004
   -702318.47847   -515809.44645  22647920.8364   22647919.2234
        47.5004         33.2504
    437590.319 5                  25611406.414
        34.000
    585117.57348    457448.55146  21209796.8444   21209794.0514
        50.5004         40.0004
   1833515.521 4                  24835615.711
        29.250
   1214628.51848    929934.11747  20781571.5314   20781569.1764
        51.0004         42.0004
   -404871.46746   -300707.69843  24867199.3284   24867196.8164
        38.7504         20.2504
   1573991.95745   1259373.37242  25509559.7274   25509562.3054
        30.0004         13.7504
   -148763.59648    -96484.33846  20433090.0634   20433087.4534
        51.2504         41.0004
 12  3 16 13 30 51.0000000  0 11G02G07G08G15G18G29G10G05G21G04G26
   1654797.51748   1259957.78945  21909363.3134   21909360.1374
        48.2504         34.5004
    779566.31546    603462.87543  24801965.5474   24801964.5394
        37.5004         19.5004
    -42011.99746    -18552.66843  24552899.7344   24552899.1174
        41.2504         21.0004
   -705761.40247   -518492.25045  22647265.6724   22647264.2704
        47.5004         33.2504
    434798.532 5                  25610875.727
        34.000
    585006.74748    457362.19546  21209775.5084   21209773.1994
        50.5004         40.0004
   1836814.297 4                  24836242.773
        28.500
   1216015.37948    931014.78147  20781835.2114   20781832.9064
        51.2504         42.0004
   -407967.04746   -303119.84743  24866610.0704   24866607.8674
        38.2504         20.2504
   1577318.88545   1261965.75842  25510192.2344   25510195.7504
        30.0004         13.7504
   -150684.38748    -97981.06046  20432724.9844   20432722.4104
        51.2504         40.7504
 12  3 16 13 30 52.0000000  0 11G02G07G08G15G18G29G10G05G21G04G26
   1657340.62847   1261939.43645  21909847.1024   21909844.0474
        47.7504         34.0004
    779923.29746    603741.03343  24802033.8054   24802032.5554
        37.0004         19.7504
    -43692.00646    -19861.77543  24552579.7194   24552579.0514
        40.5004         20.7504
   -709204.27947   -521175.00945  22646610.5634   22646609.2114
        47.5004         33.2504
    432006.594 5                  25610344.703
        33.500
    584896.33548    457276.16646  21209754.6804   21209752.3914
        50.7504         40.0004
   1840112.877 4                  24836869.492
        28.750
   1217402.31148    932095.50647  20782099.3524   20782096.9454
        51.0004         42.0004
   -411062.86146   -305532.16843  24866021.0234   24866017.9694
        38.0004         20.5004
   1580645.53945   1264557.91342  25510824.8054   25510828.5554
        30.5004         13.7504
   -152604.72948    -99477.42546  20432359.0084   20432356.7504
        51.0004         40.7504
 12  3 16 13 30 53.0000000  0 11G02G07G08G15G18G29G10G05G21G04G26
   1659884.80348   1263921.90345  21910331.2814   21910328.3094
        48.0004         33.7504
    780281.59346    604020.22443  24802101.3674   24802100.8954
        37.2504         19.5004
    -45370.83546    -21169.94443  24552260.6644   24552260.2384
        40.5004         20.5004
   -712646.16247   -523856.98745  22645955.7344   22645954.2464
        47.5004         33.0004
    429215.409 5                  25609812.664
        33.500
    584787.32948    457191.22446  21209733.9064   21209731.2814
        50.7504         40.0004
   1843412.055 4                  24837498.289
        28.000
   1218790.25948    933177.02847  20782363.4454   20782360.7664
        51.0004         42.0004
   -414158.01846   -307943.95843  24865431.8834   24865429.5824
        38.2504         20.0004
   1583973.06244   1267150.85042  25511457.4384   25511461.5984
        29.2504         14.7504
   -154523.64848   -100972.69246  20431994.1254   20431991.9184
        51.2504         41.0004
 12  3 16 13 30 54.0000000  0 11G02G07G08G15G18G29G10G05G21G04G26
   1662429.74948   1265904.97745  21910815.9534   21910812.4654
        48.2504         34.2504
    780640.89546    604300.19243  24802168.6254   24802169.1374
        37.0004         19.7504
    -47048.85746    -22477.48743  24551940.6334   24551940.4884
        40.5004         21.0004
   -716087.35247   -526538.42845  22645300.5554   22645299.5394
        47.7504         33.5004
    426424.696 5                  25609281.164
        33.500
    584679.38948    457107.11846  21209713.1884   21209710.6914
        50.5004         40.0004
   1846711.721 4                  24838125.828
        29.500
   1220178.90548    934259.09146  20782627.7734   20782625.4494
        50.5004         41.7504
   -417252.77046   -310355.46243  24864843.0084   24864840.3954
        38.5004         20.2504
   1587300.99344   1269744.02542  25512092.0944   25512094.4964
        29.5004         13.7504
   -156441.47048   -102467.10246  20431629.1174   20431626.8324
        51.0004         41.0004
 12  3 16 13 30 55.0000000  0 11G02G07G08G15G18G29G10G05G21G04G26
   1664974.58148   1267887.96045  21911300.6094   21911296.6134
        48.0004         34.2504
    781000.36346    604580.30443  24802237.7814   24802237.2424
        37.2504         19.7504
    -48726.87746    -23785.03543  24551621.3054   24551621.2934
        39.7504         20.7504
   -719528.71147   -529219.99545  22644645.9144   22644644.2464
        47.2504         33.5004
    423633.587 5                  25608749.141
        33.000
    584571.64748    457023.16446  21209692.8834   21209690.1484
        50.5004         40.0004
   1850010.799 4                  24838753.156
        28.750
   1221567.42848    935341.05447  20782892.1954   20782889.4454
        50.5004         42.0004
   -420348.03546   -312767.35743  24864254.2734   24864251.2304
        38.5004         19.7504
   1590628.51944   1272336.91042  25512724.2034   25512728.4224
        27.5004         13.7504
   -158359.01048   -103961.28746  20431264.2274   20431261.7894
        51.2504         41.0004
 12  3 16 13 30 56.0000000  0 11G02G07G08G15G18G29G10G05G21G04G26
   1667519.49547   1269871.00745  21911784.8284   21911781.1254
        47.7504         33.7504
    781360.10246    604860.62143  24802304.7814   24802304.5824
        37.0004         19.7504
    -50404.68546    -25092.41043  24551301.6024   24551302.1054
        39.5004         20.7504
   -722970.01247   -531901.51945  22643991.0394   22643989.2344
        47.2504         34.0004
    420842.240 5                  25608218.430
        33.500
    584464.31148    456939.52346  21209672.5164   21209669.6884
        50.5004         39.5004
   1853309.658 4                  24839380.336
        28.250
   1222955.97548    936423.03547  20783156.3754   20783153.8014
        50.5004         42.0004
   -423443.52346   -315179.42343  24863665.0004   24863661.8054
        38.0004         19.5004
   1593955.89844   1274929.66442  25513356.3204   25513361.5354
        24.5004         12.5004
   -160276.12748   -105455.14246  20430899.3594   20430897.1254
        51.2504         41.0004
 12  3 16 13 30 57.0000000  0 11G02G07G08G15G18G29G10G05G21G04G26
   1670064.79048   1271854.34945  21912268.9384   21912265.5594
        48.0004         34.0004
    781720.50746    605141.43143  24802375.0944   24802374.3094
        37.2504         19.7504
    -52082.06946    -26399.46243  24550981.8524   24550983.0204
        39.0004         21.2504
   -726411.04447   -534582.84845  22643336.0554   22643334.3244
        47.0004         33.5004
    418051.024 5                  25607687.281
        32.500
    584357.65348    456856.41246  21209652.0084   21209649.1454
        50.7504         39.5004
   1856608.505 4                  24840009.016
        27.250
   1224344.86848    937505.28746  20783420.2424   20783418.1994
        50.5004         41.7504
   -426539.07846   -317591.53443  24863076.0234   24863073.1524
        38.5004         19.5004
   1597283.33144   1277522.55342  25513989.5634   25513994.5434
        25.2504         12.5004
   -162192.53448   -106948.44546  20430534.4844   20430532.3594
        51.0004         40.7504
 12  3 16 13 30 58.0000000  0 10G02G07G08G15G18G29G10G05G21G26
   1672610.45448   1273837.97645  21912753.4304   21912750.2814
        48.0004         34.2504
    782081.51546    605422.73043  24802444.0554   24802442.8984
        37.7504         19.5004
    -53758.95946    -27706.11743  24550662.7584   24550663.6024
        39.0004         20.7504
   -729851.70447   -537263.88545  22642681.4144   22642679.8794
        47.2504         33.5004
    415259.903 5                  25607155.430
        32.000
    584251.69248    456773.84446  21209632.1254   21209629.1094
        50.7504         40.0004
                                  24840636.125
        28.250
   1225734.06048    938587.77347  20783684.6174   20783682.1174
        50.5004         42.0004
   -429634.60546   -320003.63343  24862487.2664   24862484.0474
        39.0004         19.5004
   -164108.18348   -108441.15446  20430169.8524   20430167.7384
        51.0004         41.0004
 12  3 16 13 30 59.0000000  0 10G02G07G08G15G18G29G10G05G21G26
   1675156.30948   1275821.75445  21913237.9064   21913234.2114
        48.0004         34.5004
    782442.96346    605704.37143  24802512.3284   24802511.9224
        37.7504         19.5004
    -55435.60846    -29012.59743  24550344.2974   24550344.6024
        39.0004         21.0004
   -733292.28647   -539944.85345  22642026.5554   22642025.6564
        47.0004         33.5004
    412468.630 5                  25606625.242
        32.250
    584146.23548    456691.66846  21209611.9614   21209608.9654
        50.5004         40.0004
                                  24841265.633
        27.500
   1227123.42748    939670.39147  20783949.1564   20783946.5784
        50.5004         42.0004
   -432730.36646   -322415.92143  24861897.9064   24861894.8054
        39.0004         19.0004
   -166023.28848   -109933.43946  20429805.5474   20429803.3324
        51.5004         41.2504
 12  3 16 13 31  0.0000000  0 10G02G07G08G15G18G29G10G05G21G26
   1677702.85048   1277806.07145  21913722.7194   21913718.7034
        48.2504         34.7504
    782805.36446    605986.77443  24802581.0634   24802580.8014
        37.7504         19.5004
    -57111.45446    -30318.46743  24550025.3594   24550025.6134
        39.5004         20.5004
   -736732.24047   -542625.32945  22641372.0164   22641370.8554
        47.5004         33.7504
    409677.781 5                  25606094.477
        32.000
    584041.76848    456610.26246  21209591.9224   21209589.1724
        50.2504         40.0004
                                  24841893.523
        26.750
   1228513.40548    940753.49347  20784213.6254   20784210.9924
        50.2504         42.0004
   -435825.76346   -324827.90943  24861308.6094   24861305.7734
        39.0004         19.2504
   -167937.36448   -111424.93046  20429441.2584   20429438.9694
        51.2504         41.2504
 12  3 16 13 31  1.0000000  0 10G02G07G08G15G18G29G10G05G21G26
   1680249.39448   1279790.38445  21914207.4454   21914203.5904
        48.5004         34.7504
    783167.99746    606269.36543  24802649.8984   24802649.7854
        37.7504         19.2504
    -58787.23046    -31624.27043  24549706.1334   24549706.8634
        39.5004         20.5004
   -740172.25547   -545305.85445  22640717.4694   22640715.7894
        47.2504         33.5004
    406886.610 5                  25605560.875
        31.000
    583937.64848    456529.13546  21209572.3914   21209569.5434
        50.0004         40.0004
                                  24842519.633
        26.750
   1229903.35148    941836.56946  20784478.1484   20784475.9264
        50.0004         41.7504
   -438921.59346   -327240.25943  24860720.4924   24860716.2854
        39.2504         19.2504
   -169851.07848   -112916.14046  20429077.2504   20429075.1214
        51.5004         41.5004
 12  3 16 13 31  2.0000000  0 10G02G07G08G15G18G29G10G05G21G26
   1682796.46148   1281775.11545  21914691.8524   21914688.3834
        48.2504         34.7504
    783531.38146    606552.52543  24802718.7274   24802718.9534
        37.5004         19.2504
    -60462.38946    -32929.60643  24549387.7584   24549388.0784
        39.2504         20.2504
   -743611.78947   -547986.01045  22640063.3134   22640061.7154
        47.2504         34.0004
    404095.689 5                  25605029.820
        31.500
    583834.34348    456448.63546  21209552.6804   21209549.6844
        49.7504         40.0004
                                  24843147.547
        28.000
   1231293.77048    942920.01446  20784743.0784   20784740.5084
        50.2504         41.7504
   -442017.20346   -329652.46943  24860130.7504   24860127.5234
        39.5004         19.7504
   -171763.89848   -114406.64746  20428713.6644   20428711.1764
        51.2504         41.2504
 12  3 16 13 31  3.0000000  0 10G02G07G08G15G18G29G10G05G21G26
   1685343.91848   1283760.14645  21915176.7344   21915173.0864
        48.5004         34.7504
    783895.42046    606836.19443  24802788.2814   24802787.9454
        38.0004         19.2504
    -62137.06946    -34234.53543  24549069.1094   24549069.3284
        39.7504         20.0004
   -747050.97647   -550665.89645  22639408.7194   22639406.8634
        47.0004         34.0004
    401304.897 5                  25604498.734
        30.750
    583731.75848    456368.70246  21209533.2114   21209529.9574
        50.0004         40.0004
                                  24843775.414
        25.750
   1232684.55948    944003.74946  20785007.7734   20785005.0394
        50.5004         41.5004
   -445112.88146   -332064.64043  24859541.0314   24859538.2624
        38.7504         19.5004
   -173675.98848   -115896.58846  20428349.3444   20428347.1024
        51.0004         41.5004
 12  3 16 13 31  4.0000000  0 10G02G07G08G15G18G29G10G05G21G26
   1687891.66148   1285745.39845  21915661.2814   21915657.8444
        48.0004         34.7504
    784259.96046    607120.26543  24802857.7974   24802857.6134
        38.0004         19.2504
    -63811.38846    -35539.22543  24548750.4144   24548750.5164
        39.5004         20.2504
   -750489.99447   -553345.64145  22638754.0084   22638752.7464
        46.5004         33.7504
    398514.086 5                  25603966.938
        30.750
    583629.75948    456289.22246  21209513.6724   21209510.6524
        50.0004         40.2504
                                  24844403.945
        25.250
   1234075.54448    945087.63346  20785272.2034   20785269.6454
        50.5004         41.5004
   -448208.62546   -334476.90043  24858951.9614   24858949.2974
        38.7504         19.7504
   -175587.43248   -117386.02146  20427985.6484   20427983.6454
        50.7504         41.0004
 12  3 16 13 31  5.0000000  0 10G02G07G08G15G18G29G10G05G21G26
   1690439.81948   1287730.98045  21916146.1334   21916142.9654
        48.0004         34.7504
    784625.18846    607404.83243  24802927.7424   24802926.8754
        38.0004         19.5004
    -65485.14846    -36843.44443  24548432.2504   24548431.9574
        40.0004         19.7504
   -753928.64147   -556025.10545  22638099.6334   22638097.9774
        46.5004         33.5004
    395723.412 5                  25603436.625
        32.000
    583528.48348    456210.31246  21209494.0474   21209491.4614
        50.2504         39.7504
                                  24845031.266
        25.250
   1235466.91348    946171.81346  20785536.6094   20785534.3284
        50.7504         41.5004
   -451304.33446   -336889.12243  24858363.5474   24858359.5904
        38.7504         20.2504
   -177498.11448   -118874.86846  20427622.0004   20427619.8874
        50.7504         41.2504
 12  3 16 13 31  6.0000000  0 10G02G07G08G15G18G29G10G05G21G26
   1692988.17848   1289716.71645  21916631.1724   21916627.8014
        48.2504         34.7504
    784990.80146    607689.69343  24802998.0394   24802996.6054
        37.5004         19.5004
    -67158.67546    -38147.47743  24548113.3204   24548113.4414
        40.0004         20.0004
   -757367.13247   -558704.44745  22637445.2664   22637443.7854
        46.5004         33.2504
    392932.612 5                  25602904.547
        31.500
    583427.73748    456131.80346  21209475.2664   21209472.1524
        50.0004         40.0004
                                  24845658.516
        25.250
   1236858.44948    947256.12746  20785801.7194   20785799.6484
        50.7504         41.5004
   -454400.21646   -339301.51443  24857774.5394   24857771.3984
        38.5004         20.0004
   -179408.23148   -120363.26846  20427258.4304   20427256.3714
        50.5004         41.2504
 12  3 16 13 31  7.0000000  0 10G02G07G08G15G18G29G10G05G21G26
   1695537.02748   1291702.81845  21917115.9144   21917112.9144
        48.2504         34.5004
    785357.27546    607975.24443  24803065.3674   24803064.5084
        36.0004         19.2504
    -68831.61546    -39451.05043  24547795.2274   24547794.7544
        39.7504         20.2504
   -760805.21347   -561383.46945  22636791.4304   22636789.4734
        46.7504         34.0004
    390142.074 5                  25602373.898
        31.000
    583327.78948    456053.91646  21209456.2424   21209453.0944
        50.0004         39.5004
                                  24846285.188
        26.250
   1238250.42248    948340.77646  20786066.7584   20786064.2544
        51.0004         41.7504
   -457495.95246   -341713.81443  24857184.9774   24857181.8324
        38.7504         19.5004
   -181317.51548   -121851.01846  20426895.1724   20426893.1134
        50.7504         41.2504
 12  3 16 13 31  8.0000000  0 10G02G07G08G15G18G29G10G05G21G26
   1698086.39048   1293689.33545  21917601.0394   21917598.3834
        48.0004         34.7504
    785724.35346    608261.26543  24803136.3284   24803135.9264
        36.0004         19.2504
    -70503.89646    -40754.14643  24547476.1884   24547476.6414
        40.0004         20.0004
   -764242.81847   -564062.12045  22636137.0784   22636135.5784
        47.0004         33.7504
    387351.731 5                  25601842.688
        31.500
    583228.66448    455976.68346  21209437.3364   21209434.2034
        50.5004         39.7504
                                  24846912.625
        25.250
   1239642.86048    949425.79747  20786331.4304   20786329.0434
        50.5004         42.0004
   -460591.63646   -344125.98443  24856595.9534   24856592.9844
        38.7504         19.2504
   -183225.91748   -123338.08346  20426532.1254   20426530.4614
        51.0004         41.0004
 12  3 16 13 31  9.0000000  0 10G02G07G08G15G18G29G10G05G21G26
   1700635.77448   1295675.86145  21918086.1644   21918083.2774
        48.2504         34.5004
    786091.78845    608547.59643  24803206.9384   24803205.7504
        35.7504         19.2504
    -72176.16846    -42057.21043  24547158.8594   24547158.6414
        40.0004         20.2504
   -767680.50747   -566740.83545  22635483.0164   22635481.1684
        47.0004         33.5004
    384561.042 5                  25601310.695
        31.750
    583129.83748    455899.67546  21209418.6024   21209415.7704
        50.7504         39.7504
                                  24847541.242
        23.750
   1241035.24848    950510.77747  20786596.6564   20786594.0084
        50.7504         42.0004
   -463687.69646   -346538.50043  24856007.4774   24856003.9804
        39.0004         19.2504
   -185133.97048   -124824.88046  20426168.9454   20426166.6414
        51.5004         41.2504
 12  3 16 13 31 10.0000000  0 10G02G07G08G15G18G29G10G05G21G26
   1703185.67247   1297662.79445  21918571.7664   21918568.7424
        47.7504         34.5004
    786460.00245    608834.52543  24803277.1724   24803275.7274
        35.7504         19.5004
    -73847.78246    -43359.75743  24546841.0554   24546840.2424
        40.0004         20.5004
   -771117.71947   -569419.18045  22634828.5004   22634827.0234
        47.0004         33.0004
    381770.646 5                  25600779.328
        31.750
    583031.90248    455823.35746  21209400.1024   21209397.1054
        50.5004         39.7504
                                  24848167.547
        24.500
   1242428.16148    951596.15547  20786861.7814   20786859.3134
        51.0004         42.0004
   -466783.54146   -348950.86443  24855417.7584   24855414.7384
        38.5004         19.2504
   -187041.11648   -126310.96746  20425805.8054   20425804.0084
        51.5004         41.0004
 12  3 16 13 31 11.0000000  0  9G02G07G08G15G18G29G05G21G26
   1705735.96848   1299650.03545  21919056.7344   21919053.7384
        48.2504         34.0004
    786828.81045    609121.92643  24803347.5394   24803346.3834
        35.7504         19.2504
    -75518.90746    -44661.93843  24546522.6024   24546522.6524
        40.0004         20.0004
   -774554.57547   -572097.25545  22634174.7114   22634173.1644
        46.7504         33.0004
    378980.326 5                  25600248.906
        32.000
    582934.64048    455747.57546  21209381.4304   21209378.5004
        51.0004         39.5004
   1243821.39548    952681.79847  20787126.8524   20787124.3794
        51.2504         42.0004
   -469879.36946   -351363.18943  24854828.1094   24854825.7974
        38.5004         19.2504
   -188947.52248   -127796.48046  20425442.8284   20425440.7114
        51.0004         40.7504
 12  3 16 13 31 12.0000000  0  9G02G07G08G15G18G29G05G21G26
   1708287.05348   1301637.89045  21919542.3284   21919539.1334
        48.0004         34.5004
    787198.69145    609410.15643  24803418.1254   24803416.9184
        35.0004         19.2504
    -77189.16246    -45963.43443  24546205.4614   24546204.7704
        40.7504         19.2504
   -777990.71647   -574774.76745  22633520.9224   22633519.2154
        46.7504         32.5004
    376190.501 5                  25599718.438
        31.750
    582838.49448    455672.65346  21209363.1564   21209359.8444
        51.0004         39.7504
   1245215.37448    953768.00947  20787392.0084   20787389.4104
        51.2504         42.0004
   -472974.86146   -353775.22043  24854239.1954   24854236.4924
        38.7504         19.2504
   -190852.78148   -129281.10146  20425080.7974   20425078.5744
        51.0004         41.0004
 12  3 16 13 31 13.0000000  0  9G02G07G08G15G18G29G05G21G26
   1710836.99548   1303624.85745  21920027.4924   21920024.5704
        48.2504         34.5004
    787567.66946    609697.68643  24803487.6644   24803486.8284
        36.5004         18.5004
    -78860.44346    -47265.73343  24545886.7424   24545886.2424
        40.7504         19.2504
   -781428.07447   -577453.23345  22632866.8594   22632864.8164
        46.5004         32.7504
    373399.206 5                  25599189.563
        32.000
    582741.51848    455597.08446  21209344.2894   21209341.6764
        51.0004         39.7504
   1246608.17248    954853.31247  20787657.3754   20787654.9384
        51.0004         42.0004
   -476071.79046   -356188.46043  24853649.2344   24853647.1804
        39.0004         19.0004
   -192758.82848   -130766.33046  20424717.8754   20424715.7584
        50.7504         40.5004
 12  3 16 13 31 14.0000000  0  9G02G07G08G15G18G29G05G21G26
   1713389.28748   1305613.64745  21920513.2504   21920510.0124
        48.2504         34.5004
    787939.24746    609987.21843  24803557.8444   24803557.3634
        36.7504         19.0004
    -80529.32546    -48566.14643  24545569.8524   24545568.9654
        40.7504         19.2504
   -784863.12547   -580129.88845  22632212.9694   22632211.2774
        46.2504         33.2504
    370610.084 5                  25598658.586
        32.500
    582647.20248    455523.58946  21209326.7974   21209323.7974
        51.0004         40.0004
   1248003.25848    955940.39547  20787922.5234   20787919.8714
        51.0004         42.0004
   -479166.77846   -358600.13543  24853060.7424   24853058.2544
        38.2504         19.0004
   -194662.16748   -132249.45446  20424355.7974   20424353.7504
        51.0004         40.5004
 12  3 16 13 31 15.0000000  0  9G02G07G08G15G18G29G05G21G26
   1715940.38448   1307601.51345  21920998.6804   21920996.0044
        48.5004         34.5004
    788309.88246    610275.98343  24803628.8134   24803628.2584
        37.0004         18.5004
    -82199.29546    -49867.42843  24545251.9224   24545251.0904
        41.2504         19.0004
   -788299.43447   -582807.53345  22631558.8524   22631557.2464
        46.5004         33.2504
    367819.404 5                  25598125.727
        31.500
    582552.01348    455449.41646  21209308.8134   21209305.5314
        51.0004         39.7504
   1249397.11248    957026.51546  20788187.7814   20788185.3204
        51.2504         41.7504
   -482263.36146   -361013.04943  24852471.6024   24852469.4844
        38.7504         19.2504
   -196566.34048   -133733.22446  20423993.7894   20423991.2154
        50.7504         40.5004
 12  3 16 13 31 16.0000000  0  9G02G07G08G15G18G29G05G21G26
   1718492.24248   1309589.96845  21921484.7274   21921481.3364
        48.2504         34.5004
    788681.52246    610565.56243  24803699.6564   24803698.9884
        38.0004         18.5004
    -83868.43246    -51168.03243  24544934.0704   24544933.7734
        41.2504         19.5004
   -791735.03647   -585484.62145  22630905.2274   22630903.5904
        46.5004         33.0004
    365029.185 5                  25597594.047
        31.750
    582457.89548    455376.07846  21209290.5784   21209287.9924
        50.5004         40.0004
   1250791.66648    958113.17646  20788452.9614   20788450.3874
        51.0004         41.7504
   -485359.59646   -363425.71243  24851882.2894   24851879.6054
        38.7504         19.2504
   -198469.41548   -135216.14146  20423630.9614   20423629.1174
        50.5004         40.7504
 12  3 16 13 31 17.0000000  0  9G02G07G08G15G18G29G05G21G26
   1721045.04947   1311579.16745  21921970.0634   21921966.8554
        47.5004         34.5004
    789054.32546    610856.07843  24803770.4064   24803769.8954
        38.2504         18.5004
    -85536.52046    -52467.84043  24544616.1254   24544616.4064
        40.5004         19.2504
   -795169.75347   -588161.01545  22630251.5314   22630249.7814
        46.2504         33.0004
    362239.648 5                  25597062.477
        31.000
    582365.04248    455303.72346  21209272.6884   21209270.2464
        50.5004         40.0004
   1252187.13748    959200.55646  20788718.3984   20788716.1374
        50.7504         41.7504
   -488455.24646   -365837.89443  24851294.1174   24851290.8754
        39.2504         19.2504
   -200371.15948   -136698.02346  20423268.8984   20423267.1644
        50.5004         41.0004
 12  3 16 13 31 18.0000000  0  9G02G07G08G15G18G29G05G21G26
   1723597.21148   1313567.86045  21922455.9534   21922452.6024
        48.0004         34.7504
    789426.77946    611146.30343  24803841.3204   24803840.4104
        38.5004         19.2504
    -87205.15546    -53768.08843  24544298.9694   24544298.5824
        40.2504         19.5004
   -798605.16947   -590837.96645  22629598.1094   22629596.1174
        46.5004         33.5004
    359449.131 5                  25596530.570
        30.250
    582271.86748    455231.11946  21209254.7814   21209252.4414
        50.5004         40.0004
   1253581.91648    960287.39446  20788984.1334   20788981.6254
        50.5004         41.7504
   -491551.88846   -368250.85343  24850704.9064   24850701.6804
        38.7504         19.2504
   -202273.18548   -138180.11546  20422907.7584   20422905.8204
        50.5004         40.7504
 12  3 16 13 31 19.0000000  0  9G02G07G08G15G18G29G05G21G26
   1726157.10348   1315562.58145  21922942.8284   21922939.7074
        48.0004         34.5004
    789807.16846    611442.71543  24803913.6954   24803913.3054
        38.2504         19.2504
    -88865.97346    -55062.21443  24543982.1024   24543982.5784
        40.5004         20.0004
   -802032.90847   -593508.93245  22628945.9614   22628943.8014
        47.0004         33.7504
    356666.079 5                  25595999.961
        30.500
    582186.75248    455164.79346  21209238.9534   21209236.1684
        50.5004         40.0004
   1254984.39448    961380.23646  20789250.9384   20789248.4384
        50.5004         41.7504
   -494641.15946   -370658.05743  24850116.9694   24850113.5664
        39.0004         19.0004
   -204167.12848   -139655.91346  20422546.9774   20422544.6334
        50.5004         40.7504
 12  3 16 13 31 20.0000000  0  9G02G07G08G15G18G29G05G21G26
   1728710.49948   1317552.24845  21923428.7814   21923425.7074
        48.0004         34.5004
    790181.30246    611734.26943  24803984.6174   24803984.0314
        37.0004         19.2504
    -90533.19046    -56361.32843  24543665.6334   24543665.5004
        40.0004         19.7504
   -805467.20847   -596185.00745  22628292.3674   22628290.2854
        46.7504         33.5004
    353876.284 5                  25595469.141
        30.500
    582095.42148    455093.63246  21209221.5784   21209218.9384
        50.7504         40.0004
   1256380.31048    962467.96547  20789516.8594   20789514.0434
        50.5004         42.0004
   -497737.33746   -373070.68743  24849527.1334   24849524.6644
        38.7504         19.2504
   -206067.22148   -141136.51246  20422185.4144   20422183.5554
        51.0004         41.0004
 12  3 16 13 31 21.0000000  0  9G02G07G08G15G18G29G05G21G26
   1731264.27248   1319542.19445  21923915.2034   21923911.7194
        48.2504         34.5004
    790556.05646    612026.28543  24804056.4064   24804055.7114
        37.2504         19.2504
    -92199.96846    -57660.11643  24543349.2424   24543348.4534
        40.0004         19.7504
   -808901.20047   -598860.85045  22627638.7274   22627636.5434
        47.0004         33.5004
    351086.561 4                  25594938.984
        29.250
    582004.80048    455023.01646  21209204.3674   21209201.7344
        50.7504         40.0004
   1257776.55948    963555.94347  20789782.2344   20789779.6954
        50.5004         42.0004
   -500833.55146   -375483.32643  24848938.7894   24848935.5664
        38.5004         18.5004
   -207966.58048   -142616.52346  20421824.0784   20421821.4184
        51.0004         41.0004
 12  3 16 13 31 22.0000000  0  9G02G07G08G15G18G29G05G21G26
   1733818.48948   1321532.49245  21924400.8834   21924397.1684
        48.0004         34.7504
    790931.52346    612318.83243  24804128.0634   24804127.0664
        37.5004         18.5004
    -93866.17746    -58958.49143  24543031.4224   24543031.6094
        40.2504         19.5004
   -812334.80747   -601536.38045  22626985.5004   22626983.1884
        47.0004         33.5004
    348296.946 5                  25594409.656
        31.000
    581914.92748    454952.98546  21209187.3284   21209184.4104
        50.5004         40.0004
   1259173.21048    964644.24847  20790048.0474   20790045.3284
        50.7504         42.0004
   -503929.69646   -377895.86843  24848348.8914   24848346.3244
        39.0004         19.2504
   -209865.14148   -144095.92546  20421462.7894   20421460.3594
        51.0004         40.5004
 12  3 16 13 31 23.0000000  0  9G02G07G08G15G18G29G05G21G26
   1736373.11048   1323523.10345  21924887.1414   21924884.1374
        48.5004         34.5004
    791307.61246    612611.85743  24804199.7344   24804198.5554
        37.7504         18.5004
    -95531.87246    -60256.44243  24542714.1954   24542714.2624
        40.5004         19.2504
   -815768.07247   -604211.65245  22626332.0634   22626330.0084
        46.7504         33.0004
    345507.454 5                  25593879.039
        31.750
    581825.76348    454883.51046  21209170.3444   21209167.4344
        50.7504         40.2504
   1260570.21448    965732.81647  20790313.7814   20790311.0864
        51.0004         42.0004
   -507025.73646   -380308.40243  24847760.2664   24847756.7624
        39.7504         18.5004
   -211762.93048   -145574.72046  20421100.9694   20421099.1764
        51.0004         40.5004
 12  3 16 13 31 24.0000000  0  9G02G07G08G15G18G29G05G21G26
   1738920.99148   1325508.46345  21925372.0554   21925368.6134
        48.2504         34.5004
    791677.25146    612899.87443  24804269.6564   24804268.9264
        37.7504         18.5004
    -97204.26846    -61559.61743  24542396.5704   24542396.1994
        40.0004         19.2504
   -819208.11647   -606892.20545  22625677.4304   22625675.2304
        47.0004         33.2504
    342710.875 5                  25593350.375
        32.500
    581730.20248    454809.05046  21209152.2504   21209149.0474
        51.0004         40.0004
   1261960.44348    966816.11447  20790578.3204   20790575.8094
        50.7504         42.0004
   -510128.95246   -382726.48643  24847169.2194   24847166.7034
        39.0004         19.0004
   -213667.09948   -147058.49246  20420739.0394   20420736.7704
        51.2504         40.2504
 12  3 16 13 31 25.0000000  0  9G02G07G08G15G18G29G05G21G26
   1741475.93048   1327499.32345  21925858.1954   21925854.7114
        48.2504         34.2504
    792054.19846    613193.62443  24804341.9534   24804340.7734
        38.2504         18.5004
    -98869.48946    -62857.17943  24542079.8364   24542079.3444
        39.7504         19.0004
   -822641.18947   -609567.32945  22625024.3914   22625021.9534
        46.5004         33.0004
    339921.178 5                  25592819.375
        32.250
    581641.98948    454740.31646  21209135.3914   21209132.5234
        51.0004         40.0004
   1263357.69048    967904.87247  20790844.4774   20790842.2304
        51.0004         42.0004
   -513225.45846   -385139.35243  24846580.2194   24846577.2114
        39.2504         19.0004
   -215563.86048   -148536.48846  20420378.3754   20420376.4224
        51.0004         40.7504
 12  3 16 13 31 26.0000000  0  9G02G07G08G15G18G29G05G21G26
   1744031.66848   1329490.80345  21926344.0784   21926340.9384
        48.5004         34.5004
    792432.12346    613488.10843  24804413.3754   24804412.6094
        36.5004         19.0004
   -100533.83746    -64154.06643  24541762.7974   24541762.5124
        40.0004         19.0004
   -826073.51347   -612241.86945  22624370.7584   22624369.0474
        47.0004         33.7504
    337131.901 5                  25592288.383
        32.500
    581554.90748    454672.45646  21209118.8834   21209116.0204
        50.7504         40.0004
   1264755.66748    968994.20447  20791110.3284   20791108.1174
        51.2504         42.0004
   -516321.57946   -387551.91543  24845991.6954   24845988.0274
        38.5004         19.2504
   -217459.46548   -150013.58246  20420017.7664   20420014.9184
        51.2504         40.7504
 12  3 16 13 31 27.0000000  0  9G02G07G08G15G18G29G05G21G26
   1746587.74648   1331482.55445  21926830.8134   21926827.4384
        48.2504         34.5004
    792810.69046    613783.10643  24804485.8984   24804485.0554
        37.0004         19.7504
   -102197.73146    -65450.61143  24541446.0164   24541445.7344
        40.2504         18.5004
   -829505.55147   -614916.18345  22623717.4844   22623715.9264
        47.0004         34.0004
    334342.714 5                  25591758.305
        33.000
    581468.46648    454605.09846  21209102.1724   21209099.5554
        50.5004         40.0004
   1266153.94848    970083.77647  20791376.3444   20791373.8834
        51.2504         42.0004
   -519417.68346   -389964.46443  24845401.8364   24845399.0594
        38.2504         19.0004
   -219354.36748   -151490.12746  20419657.3914   20419654.5944
        51.7504         40.5004
 12  3 16 13 31 28.0000000  0  9G02G07G08G15G18G29G05G21G26
   1749143.44148   1333473.99445  21927317.0004   21927313.6884
        48.0004         34.5004
    793189.10045    614077.95643  24804555.9924   24804555.4844
        35.7504         19.2504
   -103861.94246    -66747.38943  24541129.0944   24541129.2424
        40.0004         18.5004
   -832938.01247   -617590.82545  22623064.9534   22623063.1524
        47.7504         33.7504
    331552.863 5                  25591227.328
        34.000
    581381.98548    454537.70646  21209085.6484   21209083.5084
        50.7504         39.7504
   1267551.81548    971173.02046  20791642.6024   20791639.7974
        51.0004         41.7504
   -522514.58946   -392377.64043  24844812.3984   24844809.9774
        37.5004         19.2504
   -221249.26648   -152966.67146  20419296.7034   20419293.8554
        51.5004         40.5004
 12  3 16 13 31 29.0000000  0  9G02G07G08G15G18G29G05G21G26
   1751700.38148   1335466.41545  21927803.5704   21927799.8324
        48.0004         34.5004
    793569.00946    614373.99843  24804630.3754   24804629.8874
        36.5004         19.7504
   -105524.79446    -68043.12543  24540812.6884   24540812.8364
        39.5004         18.5004
   -836369.30647   -620264.56045  22622411.8204   22622410.1684
        46.7504         32.7504
    328763.944 5                  25590694.945
        34.250
    581297.03848    454471.51046  21209069.5554   21209067.1374
        50.5004         40.0004
   1268950.85748    972263.18746  20791908.6254   20791906.1644
        50.5004         41.7504
   -525610.63346   -394790.14143  24844223.5944   24844220.5124
        38.5004         19.2504
   -223142.60348   -154442.00146  20418936.5554   20418934.2584
        51.2504         40.5004
 12  3 16 13 31 30.0000000  0  9G02G07G08G15G18G29G05G21G26
   1754256.97048   1337458.56145  21928290.2584   21928286.7274
        48.0004         34.2504
    793948.78946    614669.91743  24804702.7894   24804702.2154
        37.2504         19.5004
   -107187.91346    -69339.04143  24540495.9844   24540495.9414
        39.5004         18.5004
   -839801.01047   -622938.60945  22621758.8914   22621757.6914
        46.5004         33.5004
    325974.369 5                  25590165.953
        35.250
    581212.07248    454405.30046  21209053.5784   21209050.6644
        50.5004         39.7504
   1270349.51248    973353.04847  20792174.7584   20792172.1094
        50.5004         42.0004
   -528707.38446   -397203.19843  24843633.9454   24843631.2894
        38.2504         19.2504
   -225035.92048   -155917.31246  20418575.9304   20418573.6884
        51.0004         40.5004
 12  3 16 13 31 31.0000000  0  9G02G07G08G15G18G29G05G21G26
   1756813.84348   1339450.92045  21928776.9694   21928773.3714
        48.0004         34.5004
    794329.13146    614966.28543  24804774.4694   24804774.4064
        36.5004         19.0004
   -108850.65246    -70634.67443  24540179.9694   24540179.7384
        39.7504         18.5004
   -843232.48047   -625612.48445  22621105.5864   22621104.2114
        46.5004         33.5004
    323184.813 5                  25589635.109
        35.500
    581127.70748    454339.56246  21209037.7974   21209034.7384
        50.0004         39.7504
   1271748.41748    974443.09546  20792440.9614   20792438.6174
        50.5004         41.7504
   -531804.25646   -399616.33443  24843044.1024   24843042.3874
        37.7504         19.2504
   -226928.60948   -157392.13646  20418215.2894   20418213.3444
        51.0004         40.2504
 12  3 16 13 31 32.0000000  0  9G02G07G08G15G18G29G05G21G26
   1759371.68548   1341444.04645  21929263.4534   21929259.9264
        48.0004         34.0004
    794710.68046    615263.57143  24804846.8054   24804847.1134
        37.0004         19.2504
   -110512.33046    -71929.49743  24539863.2344   24539863.9614
        39.0004         19.0004
   -846663.04847   -628285.64645  22620453.3204   22620451.4774
        46.5004         33.5004
    320395.928 6                  25589104.891
        36.750
    581044.61148    454274.81746  21209022.0554   21209018.9774
        50.5004         40.0004
   1273148.22748    975533.85446  20792707.4924   20792704.9024
        50.5004         41.7504
   -534900.54446   -402028.95843  24842455.4844   24842452.7704
        38.2504         19.2504
   -228819.93648   -158865.89246  20417856.2504   20417853.4024
        51.0004         40.5004
 12  3 16 13 31 33.0000000  0  9G02G07G08G15G18G29G05G21G26
   1761929.72648   1343437.32445  21929750.2584   21929746.5434
        48.2504         34.0004
    795092.65946    615561.23643  24804919.5394   24804919.7234
        36.7504         19.0004
   -112173.71046    -73224.10143  24539547.1884   24539547.4414
        38.5004         19.0004
   -850093.46747   -630958.70045  22619800.3444   22619798.8594
        46.5004         33.5004
    317606.994 6                  25588574.016
        37.000
    580962.04848    454210.48646  21209006.2034   21209003.4454
        50.0004         40.0004
   1274548.19548    976624.74247  20792973.6334   20792971.7854
        50.5004         42.0004
   -537996.95046   -404441.76943  24841865.7344   24841863.7664
        37.2504         19.0004
   -230710.72248   -160339.23946  20417496.3204   20417493.8914
        51.0004         40.5004
 12  3 16 13 31 34.0000000  0  9G02G07G08G15G18G29G05G21G26
   1764487.61348   1345430.48045  21930237.2504   21930232.9614
        48.5004         34.0004
    795474.78446    615859.00143  24804992.5784   24804992.0354
        37.2504         18.5004
   -113835.17146    -74518.74643  24539231.0314   24539231.4024
        38.7504         18.5004
   -853524.10347   -633631.91945  22619147.2584   22619145.8714
        46.5004         33.7504
    314817.553 6                  25588043.352
        37.000
    580879.63748    454146.27046  21208990.4144   21208987.4804
        50.2504         39.7504
   1275947.95248    977715.46447  20793240.1254   20793237.7624
        50.5004         42.0004
   -541093.94546   -406855.02343  24841276.3834   24841273.9654
        37.5004         19.0004
   -232601.32048   -161812.43546  20417136.0314   20417133.7194
        51.0004         40.5004
 12  3 16 13 31 35.0000000  0  9G02G07G08G15G18G29G05G21G26
   1767046.57148   1347424.47345  21930723.9614   21930720.1414
        48.2504         33.5004
    795858.21446    616157.77143  24805065.7814   24805064.9104
        37.7504         18.5004
   -115495.45946    -75812.46043  24538915.0864   24538915.8054
        38.7504         19.0004
   -856953.71147   -636304.34045  22618495.1254   22618493.5434
        47.0004         33.5004
    312028.964 6                  25587513.016
        36.750
    580798.61548    454083.13446  21208974.7274   21208972.3954
        50.0004         39.7504
   1277348.74648    978806.99247  20793506.8674   20793503.9574
        50.5004         42.0004
   -544190.19046   -409267.69843  24840686.7974   24840685.2304
        38.5004         19.0004
   -234490.46748   -163284.48946  20416776.6024   20416775.2194
        50.7504         40.7504
 12  3 16 13 31 36.0000000  0  9G02G07G08G15G18G29G05G21G26
   1769605.21348   1349418.22545  21931211.0394   21931207.0434
        48.5004         33.7504
    796241.53246    616456.45342  24805139.6724   24805138.0314
        37.7504         17.7504
   -117155.93846    -77106.32943  24538599.4224   24538599.6054
        38.5004         19.0004
   -860383.69847   -638977.04845  22617841.8204   22617840.6254
        46.7504         33.5004
    309239.736 6                  25586981.656
        37.000
    580717.59748    454020.00446  21208959.3674   21208956.8444
        50.0004         40.0004
   1278749.18148    979898.24047  20793773.1484   20793771.0044
        51.0004         42.0004
   -547287.16146   -411680.95743  24840097.4774   24840096.0084
        38.5004         18.5004
   -236379.57548   -164756.52146  20416417.2734   20416415.0124
        50.7504         40.5004
 12  3 16 13 31 37.0000000  0  9G02G07G08G15G18G29G05G21G26
   1772164.61848   1351412.56645  21931698.1174   21931694.2114
        48.5004         34.0004
    796625.85646    616755.90743  24805212.3754   24805211.0984
        37.5004         18.2504
   -118815.61746    -78399.56243  24538283.5944   24538284.3484
        39.2504         19.0004
   -863812.96747   -641649.19545  22617189.4064   22617188.0474
        46.5004         34.0004
    306450.970 6                  25586451.383
        37.250
    580637.65948    453957.71246  21208943.7274   21208941.8054
        50.0004         40.0004
   1280150.32248    980990.03447  20794040.1804   20794037.4414
        51.0004         42.0004
   -550383.73946   -414093.93943  24839508.6094   24839506.9734
        38.5004         18.5004
   -238267.57548   -166227.68846  20416058.1094   20416056.3524
        51.0004         40.5004
 12  3 16 13 31 38.0000000  0  9G02G07G08G15G18G29G05G21G26
   1774724.06748   1353406.93745  21932184.9774   21932181.3554
        48.5004         34.0004
    797010.50446    617055.64942  24805284.3204   24805284.7584
        37.7504         17.7504
   -120475.12946    -79692.68343  24537967.8914   24537968.1134
        40.0004         19.2504
   -867242.25647   -644321.37945  22616536.8674   22616535.4884
        46.7504         34.2504
    303661.939 6                  25585919.922
        36.250
    580558.08048    453895.70446  21208929.0474   21208926.7034
        50.5004         40.0004
   1281551.47448    982081.84347  20794306.5784   20794304.1484
        51.0004         42.0004
   -553480.69246   -416507.10343  24838919.3444   24838917.1484
        38.2504         18.5004
   -240155.14648   -167698.51646  20415698.8204   20415696.4694
        51.0004         40.5004
 12  3 16 13 31 39.0000000  0  9G02G07G08G15G18G29G05G21G26
   1777284.36948   1355401.98245  21932672.3834   21932668.4344
        48.5004         34.0004
    797396.17346    617356.16342  24805357.9844   24805358.1524
        37.5004         17.2504
   -122133.71846    -80985.10343  24537652.4304   24537652.4844
        40.0004         19.5004
   -870670.77147   -646992.95145  22615884.0084   22615883.1024
        47.0004         34.0004
    300873.468 6                  25585389.094
        36.500
    580479.65148    453834.59346  21208913.7274   21208911.5514
        50.2504         39.7504
   1282953.40448    983174.25546  20794573.5704   20794570.9694
        51.2504         41.7504
   -556577.15946   -418919.92943  24838329.8134   24838327.7384
        38.2504         18.2504
   -242041.54348   -169168.44046  20415339.9534   20415337.4884
        51.2504         40.7504
 12  3 16 13 31 40.0000000  0  9G02G07G08G15G18G29G05G21G26
   1779844.39148   1357396.79845  21933159.5234   21933155.9534
        48.2504         34.2504
    797781.89446    617656.73342  24805431.2974   24805431.0474
        37.2504         16.7504
   -123792.47346    -82277.67043  24537336.6644   24537336.6024
        40.5004         19.2504
   -874099.58847   -649664.76345  22615232.0634   22615230.7234
        46.5004         33.5004
    298084.491 6                  25584857.922
        36.750
    580401.27948    453773.51046  21208898.9534   21208896.4494
        50.2504         40.0004
   1284355.02848    984266.42647  20794840.1024   20794837.8164
        51.0004         42.0004
   -559674.23446   -421333.22242  24837741.2814   24837738.5434
        39.0004         17.7504
   -243927.82248   -170638.26946  20414980.6644   20414978.3204
        50.7504         40.7504
 12  3 16 13 31 41.0000000  0  9G02G07G08G15G18G29G05G21G26
   1782405.33348   1359392.33145  21933646.7814   21933643.1134
        48.0004         34.2504
    798168.76946    617958.18442  24805505.1414   24805503.2544
        36.7504         16.7504
   -125450.20746    -83569.42143  24537021.6414   24537021.3484
        40.0004         19.2504
   -877527.56047   -652335.90645  22614579.4224   22614578.3954
        46.7504         33.7504
    295296.081 6                  25584326.688
        37.000
    580324.12348    453713.39146  21208884.5474   21208882.1804
        50.5004         39.7504
   1285757.52148    985359.27647  20795106.8524   20795104.4654
        51.0004         42.0004
   -562770.79246   -423746.11043  24837151.9224   24837149.3094
        39.0004         18.5004
   -245812.82948   -172107.11146  20414621.8444   20414620.1024
        51.0004         41.0004
 12  3 16 13 31 42.0000000  0  9G02G07G08G15G18G29G05G21G26
   1784966.21348   1361387.81645  21934134.1484   21934130.2114
        48.2504         34.5004
    798555.75146    618259.72042  24805580.0234   24805578.5434
        37.0004         16.2504
   -127107.94446    -84861.16243  24536706.1954   24536705.9924
        40.0004         19.2504
   -880955.66447   -655007.14645  22613926.9694   22613926.1484
        46.5004         33.7504
    292507.344 6                  25583797.273
        36.500
    580247.20648    453653.45546  21208870.1334   21208867.7464
        50.7504         39.7504
   1287159.88948    986452.02747  20795373.8134   20795371.1524
        50.7504         42.0004
   -565867.84946   -426159.39843  24836562.5554   24836560.1884
        39.2504         18.5004
   -247697.55548   -173575.71946  20414263.8204   20414262.0554
        51.0004         41.0004
 12  3 16 13 31 43.0000000  0  9G02G07G08G15G18G29G05G21G26
   1787527.96548   1363383.98845  21934621.5234   21934617.6374
        48.2504         34.2504
    798943.86746    618562.15742  24805653.2504   24805652.7464
        37.0004         16.2504
   -128764.69146    -86152.13243  24536390.8674   24536390.5004
        40.2504         19.2504
   -884382.93147   -657677.73745  22613275.2114   22613274.0824
        46.2504         33.7504
    289719.199 6                  25583267.156
        36.500
    580171.49848    453594.46646  21208855.5634   21208853.0234
        50.5004         40.0004
   1288563.10648    987545.44147  20795640.6094   20795638.5744
        50.7504         42.2504
   -568964.34246   -428572.24243  24835973.5314   24835970.4144
        39.2504         18.5004
   -249581.03348   -175043.36846  20413905.2274   20413902.8444
        51.2504         40.7504
 12  3 16 13 31 44.0000000  0  9G02G07G08G15G18G29G05G21G26
   1790089.18847   1365379.74545  21935108.9534   21935105.4924
        47.5004         34.0004
    799331.77846    618864.43042  24805726.9844   24805726.3874
        37.2504         16.7504
   -130421.88646    -87443.44943  24536074.5394   24536075.1914
        40.2504         19.5004
   -887810.77747   -660348.78445  22612622.6334   22612621.4414
        46.0004         34.0004
    286930.212 6                  25582735.781
        36.500
    580095.58048    453535.30546  21208841.0634   21208838.3794
        50.7504         40.0004
   1289965.74448    988638.40947  20795907.7894   20795905.3794
        50.0004         42.2504
   -572061.76646   -430985.82443  24835383.7584   24835381.0204
        39.2504         18.2504
   -251464.68448   -176511.15046  20413546.7974   20413544.8914
        51.0004         40.5004
 12  3 16 13 31 45.0000000  0  9G02G07G08G15G18G29G05G21G26
   1792651.79348   1367376.57745  21935596.8674   21935592.6994
        48.0004         34.0004
    799721.28546    619167.93742  24805800.9224   24805800.2734
        37.7504         17.2504
   -132077.58546    -88733.60543  24535759.2584   24535760.0474
        40.0004         19.7504
   -891237.28947   -663018.79545  22611970.9064   22611969.4774
        46.2504         33.5004
    284142.317 6                  25582205.359
        36.750
    580021.36148    453477.47346  21208826.9304   21208824.5704
        50.7504         40.0004
   1291369.72048    989732.41747  20796174.7114   20796172.6134
        50.2504         42.5004
   -575158.15346   -433398.64043  24834794.6884   24834791.7774
        39.0004         18.5004
   -253346.58348   -177977.56446  20413188.7894   20413186.0904
        51.2504         40.7504
 12  3 16 13 31 46.0000000  0  9G02G07G08G15G18G29G05G21G26
   1795213.78048   1369372.92845  21936084.2974   21936080.1374
        48.0004         34.5004
    800110.39746    619471.15242  24805875.1564   24805874.2154
        38.0004         17.2504
   -133733.83346    -90024.18743  24535444.5704   24535444.5904
        40.5004         20.0004
   -894664.50147   -665689.35445  22611318.2344   22611317.2274
        45.7504         34.0004
    281353.523 6                  25581675.039
        36.500
    579946.84448    453419.40646  21208812.8204   21208810.2974
        50.7504         40.0004
   1292773.00448    990825.88947  20796441.7424   20796439.8244
        50.7504         42.2504
   -578255.56046   -435812.16443  24834205.1644   24834202.5594
        38.7504         18.2504
   -255228.74848   -179444.18546  20412830.1884   20412828.3954
        51.2504         40.7504
 12  3 16 13 31 47.0000000  0  9G02G07G08G15G18G29G05G21G26
   1797776.71948   1371370.02345  21936571.7664   21936567.5984
        48.5004         34.2504
    800500.73046    619775.32942  24805949.4534   24805948.7114
        37.5004         17.7504
   -135389.01746    -91313.98243  24535130.0944   24535130.0514
        40.2504         20.0004
   -898090.80447   -668359.19645  22610666.2274   22610664.9384
        45.7504         34.0004
    278565.427 6                  25581145.008
        36.750
    579873.57248    453362.31446  21208798.9694   21208796.4964
        51.0004         40.2504
   1294177.20448    991920.06747  20796709.1254   20796706.9344
        50.5004         42.5004
   -581352.44146   -438225.31443  24833616.0944   24833613.5164
        39.0004         18.5004
   -257109.63448   -180909.80846  20412472.8524   20412469.9414
        51.7504         41.0004
 12  3 16 13 31 48.0000000  0  9G02G07G08G15G18G29G05G21G26
   1800339.70448   1373367.14745  21937059.9064   21937055.7704
        48.7504         34.5004
    800891.34446    620079.68442  24806023.4614   24806022.5004
        37.5004         17.2504
   -137044.10846    -92603.63143  24534815.5554   24534815.0594
        40.0004         20.5004
   -901517.13147   -671029.06345  22610014.3284   22610012.6764
        46.2504         33.5004
    275777.010 6                  25580614.781
        36.500
    579800.66648    453305.50446  21208785.2974   21208782.3404
        51.0004         39.7504
   1295581.40848    993014.24947  20796976.3054   20796974.1134
        50.0004         42.5004
   -584449.60846   -440638.69743  24833026.4064   24833023.8444
        38.5004         19.0004
   -258990.09448   -182375.10246  20412115.2034   20412112.5234
        51.5004         41.0004
 12  3 16 13 31 49.0000000  0  9G02G07G08G15G18G29G05G21G26
   1802903.54148   1375364.94845  21937547.3054   21937543.3094
        48.2504         34.2504
    801283.06046    620384.94142  24806098.4064   24806097.5354
        37.2504         17.2504
   -138698.20446    -93892.51843  24534500.7034   24534500.6374
        40.0004         20.5004
   -904942.67347   -673698.30645  22609362.7814   22609361.2344
        46.2504         33.5004
    272989.207 6                  25580083.844
        36.250
    579728.94848    453249.61746  21208771.5084   21208768.8984
        50.2504         40.0004
   1296986.40948    994109.05447  20797243.3444   20797241.0314
        50.0004         42.5004
   -587546.29846   -443051.71343  24832437.3834   24832434.6884
        38.0004         19.2504
   -260869.31648   -183839.43146  20411757.2344   20411754.6844
        51.0004         40.7504
 12  3 16 13 31 50.0000000  0  9G02G07G08G15G18G29G05G21G26
   1805466.99748   1377362.44745  21938035.3444   21938031.4454
        48.2504         34.2504
    801674.63346    620690.04642  24806172.8524   24806172.3244
        38.0004         17.7504
   -140352.63846    -95181.68343  24534185.9774   24534185.0864
        41.2504         20.5004
   -908368.59147   -676367.84945  22608710.7034   22608709.4344
        46.7504         34.0004
    270200.711 6                  25579553.820
        36.750
    579657.15948    453193.68746  21208757.8674   21208755.1644
        51.0004         40.0004
   1298391.00648    995203.55347  20797511.1254   20797508.8134
        50.7504         42.7504
   -590643.75146   -445465.31143  24831848.1174   24831845.3244
        38.2504         19.0004
   -262748.57448   -185303.78746  20411399.4384   20411397.5944
        51.5004         40.5004
 12  3 16 13 31 51.0000000  0  9G02G07G08G15G18G29G05G21G26
   1808031.32648   1379360.62645  21938523.0084   21938519.5084
        48.0004         34.5004
    802067.35746    620996.04242  24806247.3754   24806246.5434
        38.5004         17.7504
   -142006.07546    -96470.08143  24533871.1804   24533870.9414
        41.7504         20.2504
   -911793.75047   -679036.80245  22608058.7734   22608057.0044
        46.5004         34.0004
    267412.833 5                  25579021.977
        35.750
    579586.54248    453138.65946  21208744.2734   21208741.4964
        50.7504         40.2504
   1299796.39048    996298.65447  20797778.5004   20797776.1684
        50.7504         42.7504
   -593740.73046   -447878.54143  24831258.6334   24831256.0664
        38.5004         18.5004
   -264626.60048   -186767.18546  20411041.8444   20411039.6804
        51.7504         40.7504
 12  3 16 13 31 52.0000000  0 10G02G07G08G15G18G29G05G21G04G26
   1810595.67948   1381358.81645  21939011.2274   21939007.8134
        48.0004         34.2504
    802460.33546    621302.25542  24806321.8984   24806321.2194
        37.7504         17.7504
   -143659.46046    -97758.44243  24533556.1884   24533556.1764
        40.0004         20.0004
   -915218.92047   -681705.77745  22607407.1254   22607405.7114
        46.5004         33.5004
    264624.671 5                  25578491.063
        35.750
    579516.27448    453083.89946  21208730.9064   21208728.1094
        50.7504         40.2504
   1301201.79048    997393.76947  20798045.9694   20798043.5784
        50.7504         43.0004
   -596838.03746   -450292.04343  24830669.0314   24830666.4574
        39.0004         18.5004
                                  25548841.008
        32.000
   -266504.23248   -188230.27346  20410684.5164   20410682.2544
        51.7504         40.5004
 12  3 16 13 31 53.0000000  0 10G02G07G08G15G18G29G05G21G04G26
   1813160.60848   1383357.45245  21939499.2114   21939495.8244
        48.0004         34.5004
    802854.07646    621609.09442  24806397.9534   24806396.3834
        37.0004         17.2504
   -145312.08546    -99046.20443  24533241.7664   24533241.9494
        41.0004         19.7504
   -918643.60447   -684374.36345  22606755.2344   22606753.8364
        46.2504         33.5004
    261836.745 6                  25577959.953
        36.250
    579446.87548    453029.81346  21208717.8834   21208715.1134
        50.7504         40.5004
   1302607.68748    998489.27747  20798313.1884   20798311.0394
        50.0004         43.0004
   -599935.15846   -452705.38743  24830079.4304   24830077.1414
        38.5004         18.5004
                                  25549474.180
        32.500
   -268380.96348   -189692.66046  20410327.7734   20410325.1644
        52.0004         40.7504
 12  3 16 13 31 54.0000000  0 10G02G07G08G15G18G29G05G21G04G26
   1815725.90348   1385356.37745  21939987.3914   21939983.8164
        48.2504         34.2504
    803248.53946    621916.46942  24806471.9454   24806471.4494
        36.2504         17.7504
   -146964.27846   -100333.61143  24532927.4144   24532927.0554
        41.5004         20.0004
   -922067.93347   -687042.67945  22606104.0864   22606101.9104
        46.5004         33.7504
    259048.947 5                  25577429.656
        34.750
    579378.19448    452976.30546  21208704.5944   21208702.1024
        50.7504         40.5004
   1304013.92848    999585.04247  20798580.9304   20798578.4694
        50.0004         43.0004
   -603032.25346   -455118.70343  24829489.7894   24829487.8484
        38.5004         18.2504
                                  25550107.219
        29.750
   -270256.94148   -191154.46146  20409970.2734   20409968.7774
        51.7504         40.5004
 12  3 16 13 31 55.0000000  0 10G02G07G08G15G18G29G05G21G04G26
   1818291.06148   1387355.20445  21940475.3594   21940471.8594
        48.5004         34.5004
    803643.05345    622223.85842  24806546.7344   24806546.6914
        35.7504         17.7504
   -148616.51846   -101621.06543  24532613.2504   24532612.5744
        41.0004         19.7504
   -925492.47847   -689711.15245  22605451.9614   22605450.2814
        46.7504         34.0004
    256260.656 5                  25576899.211
        34.500
    579309.67648    452922.90546  21208691.8444   21208688.9924
        51.0004         40.7504
   1305419.97748   1000680.66647  20798848.4144   20798846.3634
        50.5004         43.0004
   -606129.99746   -457532.50843  24828900.6414   24828898.2664
        38.7504         18.2504
                                  25550740.367
        30.500
   -272132.70948   -192616.09946  20409613.5394   20409611.6724
        51.2504         40.5004
 12  3 16 13 31 56.0000000  0 10G02G07G08G15G18G29G05G21G04G26
   1820857.98948   1389355.40645  21940964.0314   21940960.3914
        48.0004         34.2504
    804039.52045    622532.81442  24806622.4454   24806622.0594
        35.7504         17.2504
   -150266.91846   -102907.09343  24532298.1644   24532298.5314
        40.5004         19.5004
   -928915.31147   -692378.29445  22604801.2274   22604799.4884
        46.5004         33.5004
    253473.874 5                  25576368.125
        34.750
    579243.22548    452871.13146  21208678.8754   21208676.2704
        50.5004         40.5004
   1306827.74848   1001777.63047  20799116.4614   20799114.2234
        50.0004         43.2504
   -609226.17446   -459945.09143  24828312.2344   24828309.1644
        39.0004         19.2504
                                  25551375.094
        30.500
   -274006.33248   -194076.06146  20409257.0554   20409254.5634
        51.5004         40.7504
 12  3 16 13 31 57.0000000  0 10G02G07G08G15G18G29G05G21G04G26
   1823424.03047   1391354.91445  21941452.6484   21941448.7274
        47.7504         34.7504
    804435.44446    622841.31842  24806696.8754   24806697.4304
        36.2504         17.2504
   -151918.05746   -104193.69443  24531984.0394   24531984.2344
        40.5004         19.5004
   -932339.07447   -695046.14945  22604149.2194   22604147.6604
        46.5004         33.5004
    250685.931 5                  25575838.047
        34.500
    579176.22748    452818.92046  21208666.3444   21208663.4304
        50.7504         40.7504
   1308234.58748   1002873.86947  20799384.1724   20799381.9614
        50.2504         43.0004
   -612323.71846   -462358.76643  24827722.4454   24827719.5354
        38.5004         19.2504
                                  25552009.180
        31.250
   -275880.48248   -195536.43646  20408900.4924   20408898.2814
        51.5004         40.7504
 12  3 16 13 31 58.0000000  0 10G02G07G08G15G18G29G05G21G04G26
   1825990.45548   1393354.72345  21941940.8674   21941937.2384
        48.0004         34.5004
    804832.02546    623150.34243  24806772.5704   24806772.7114
        37.2504         18.2504
   -153568.76046   -105479.96343  24531669.8914   24531670.3284
        40.5004         19.7504
   -935762.50447   -697713.75445  22603497.8284   22603496.2154
        46.7504         34.0004
    247898.150 5                  25575307.336
        33.250
    579109.93048    452767.26446  21208653.5164   21208651.0824
        51.0004         40.7504
   1309641.77848   1003970.37747  20799651.8594   20799649.9884
        50.5004         43.2504
   -615421.19146   -464772.40643  24827132.7274   24827130.3244
        38.7504         19.7504
                                  25552643.219
        31.500
   -277753.90048   -196996.24446  20408543.7584   20408541.6524
        51.2504         40.7504
 12  3 16 13 31 59.0000000  0 10G02G07G08G15G18G29G05G21G04G26
   1828557.69147   1395355.16645  21942429.3984   21942425.8754
        47.7504         34.5004
    805229.55546    623460.12143  24806848.6724   24806848.6334
        37.0004         18.2504
   -155218.52046   -106765.50943  24531355.8984   24531355.9454
        40.5004         20.0004
   -939185.17047   -700380.76045  22602846.5634   22602844.8954
        47.0004         33.7504
    245110.820 5                  25574776.938
        33.000
    579044.77148    452716.48846  21208641.2194   21208638.6564
        51.0004         40.7504
   1311049.72148   1005067.47247  20799919.9304   20799917.3014
        50.7504         43.0004
   -618518.24346   -467185.67843  24826543.3914   24826540.7464
        38.5004         19.7504
                                  25553276.633
        30.000
   -279626.14448   -198455.13746  20408187.8834   20408185.3794
        51.5004         40.5004
 12  3 16 13 32  0.0000000  0 10G02G07G08G15G18G29G05G21G04G26
   1831125.22547   1397355.83345  21942917.7584   21942914.0434
        47.5004         34.2504
    805627.71346    623770.35443  24806924.4694   24806924.4414
        37.0004         18.2504
   -156867.89646   -108050.71743  24531042.2974   24531042.4734
        40.5004         20.0004
   -942607.59747   -703047.58945  22602195.1334   22602193.6024
        46.7504         34.2504
    242323.475 5                  25574247.391
        34.500
    578980.22348    452666.19046  21208628.8754   21208626.0314
        51.0004         40.7504
   1312457.91548   1006164.76847  20800187.6804   20800185.6294
        51.2504         43.0004
   -621615.41246   -469599.03443  24825954.5084   24825951.2894
        39.0004         19.5004
                                  25553909.344
        30.250
   -281497.73148   -199913.51746  20407831.7344   20407829.3524
        51.5004         40.2504
 12  3 16 13 32  1.0000000  0 10G02G07G08G15G18G29G05G21G04G26
   1833692.47548   1399356.29645  21943406.1644   21943402.0634
        48.0004         34.0004
    806025.81946    624080.54443  24807000.1174   24806999.9384
        37.2504         18.2504
   -158517.47746   -109336.11343  24530728.3134   24530728.8324
        40.2504         20.0004
   -946030.36247   -705714.67645  22601543.5004   22601542.4534
        46.7504         34.2504
    239535.617 5                  25573715.984
        32.500
    578915.69248    452615.90746  21208616.6414   21208613.8674
        50.7504         40.5004
   1313865.76348   1007261.78547  20800455.6724   20800454.0084
        50.7504         43.0004
   -624713.16546   -472012.86343  24825364.4844   24825361.8754
        38.7504         19.5004
    862589.666 4                  25554542.711
        29.750
   -283369.22748   -201371.82346  20407475.4454   20407473.2544
        51.2504         40.5004
 12  3 16 13 32  2.0000000  0 10G02G07G08G15G18G29G05G21G04G26
   1836260.61347   1401357.42845  21943895.1884   21943891.3524
        47.7504         33.5004
    806425.04746    624391.60643  24807075.1334   24807075.7814
        37.5004         18.2504
   -160166.10546   -110620.73843  24530415.0314   24530414.9414
        40.5004         19.5004
   -949452.31747   -708381.13745  22600892.6174   22600891.2584
        46.2504         34.0004
    236748.255 5                  25573185.891
        34.750
    578852.37348    452566.56746  21208604.3674   21208602.0354
        50.0004         40.2504
   1315274.47548   1008359.48547  20800723.9614   20800721.5204
        50.7504         43.0004
   -627810.51146   -474426.39043  24824775.2974   24824772.6414
        38.7504         19.2504
                                  25555176.844
        29.750
   -285239.48048   -202829.16346  20407119.4304   20407116.6764
        50.7504         40.7504
 12  3 16 13 32  3.0000000  0 10G02G07G08G15G18G29G05G21G04G26
   1838828.91647   1403358.70445  21944383.7424   21944379.5664
        47.5004         34.0004
    806824.70546    624703.05443  24807152.1334   24807152.3134
        37.5004         18.2504
   -161814.45146   -111905.16543  24530101.4844   24530100.9104
        40.7504         19.0004
   -952874.14347   -711047.48645  22600241.5704   22600239.9654
        46.2504         34.0004
    233960.875 5                  25572655.523
        33.750
    578789.51948    452517.58546  21208592.4224   21208589.7384
        50.5004         40.0004
   1316683.29348   1009457.26047  20800991.7814   20800989.3444
        50.5004         43.0004
   -630908.00946   -476840.02843  24824185.5944   24824182.7704
        38.7504         19.0004
                                  25555811.234
        30.250
   -287109.21648   -204286.10246  20406763.9224   20406761.4964
        50.7504         40.5004
 12  3 16 13 32  4.0000000  0 10G02G07G08G15G18G29G05G21G04G26
   1841398.22547   1405360.76345  21944872.9454   21944868.4734
        47.7504         34.0004
    807225.60046    625015.45742  24807228.4694   24807228.0044
        37.5004         17.7504
   -163461.67646   -113188.73143  24529787.9064   24529787.2274
        40.5004         19.2504
   -956295.00147   -713713.08745  22599590.7734   22599589.1374
        46.5004         34.0004
    231174.173 5                  25572125.070
        34.000
    578728.01648    452469.66446  21208580.7664   21208578.1294
        50.5004         40.0004
   1318093.06848   1010555.79647  20801260.2974   20801257.8754
        50.5004         43.0004
   -634004.86746   -479253.16043  24823596.5864   24823593.6294
        38.0004         19.2504
                                  25556445.602
        29.250
   -288977.56648   -205741.96146  20406408.1954   20406405.8874
        50.7504         40.2504
 12  3 16 13 32  5.0000000  0 10G02G07G08G15G18G29G05G21G04G26
   1843966.74247   1407362.19545  21945361.7894   21945357.4964
        47.5004         33.7504
    807625.93446    625327.39642  24807304.3284   24807304.4304
        37.0004         17.2504
   -165109.62046   -114472.83843  24529474.2034   24529473.8554
        41.0004         19.0004
   -959716.73847   -716379.37345  22598939.4454   22598938.1484
        46.5004         34.0004
    228386.354 5                  25571595.133
        34.000
    578666.01848    452421.35346  21208569.1724   21208566.2424
        50.7504         40.2504
   1319502.00348   1011653.66147  20801528.4304   20801526.0084
        50.7504         43.0004
   -637102.95146   -481667.25543  24823006.7894   24823003.9414
        38.2504         18.5004
                                  25557079.500
        30.000
   -290846.36248   -207198.16646  20406052.5864   20406050.1414
        50.7504         40.2504
 12  3 16 13 32  6.0000000  0 10G02G07G08G15G18G29G05G21G04G26
   1846536.45148   1409364.56645  21945850.4694   21945846.2664
        48.0004         33.7504
    808027.75246    625640.50942  24807380.6804   24807380.8484
        37.2504         17.7504
   -166756.25446   -115755.92043  24529160.7664   24529160.5904
        40.7504         18.5004
   -963137.29847   -719044.74045  22598288.6414   22598286.9844
        46.7504         33.5004
    225599.536 5                  25571064.172
        33.000
    578605.55148    452374.23246  21208557.9224   21208554.5394
        50.7504         39.7504
   1320912.11048   1012752.45047  20801796.6724   20801794.0514
        51.0004         42.7504
   -640200.15146   -484080.67743  24822417.6094   24822414.7894
        38.5004         18.5004
                                  25557712.766
        28.250
   -292713.57548   -208653.13946  20405697.2034   20405694.7074
        50.7504         40.2504
 12  3 16 13 32  7.0000000  0 10G02G07G08G15G18G29G05G21G04G26
   1849106.28748   1411367.04145  21946339.3134   21946335.2584
        48.0004         34.0004
    808429.90446    625953.87243  24807457.1484   24807457.5274
        37.7504         18.2504
   -168402.69546   -117038.84343  24528847.3204   24528847.2814
        41.0004         19.0004
   -966557.80947   -721710.07745  22597637.6334   22597636.2194
        46.5004         33.5004
    222812.478 5                  25570533.398
        33.000
    578545.51248    452327.45446  21208546.3134   21208543.4384
        51.0004         40.0004
   1322322.26748   1013851.26647  20802065.0474   20802062.4264
        50.7504         42.7504
   -643297.65546   -486494.31843  24821828.3674   24821825.4414
        39.0004         19.0004
    882579.478 4                  25558346.211
        28.500
   -294580.34048   -210107.75746  20405341.8134   20405339.6134
        51.0004         40.0004
 12  3 16 13 32  8.0000000  0 10G02G07G08G15G18G29G05G21G04G26
   1851676.30448   1413369.64845  21946828.3754   21946824.5984
        48.0004         34.0004
    808832.49146    626267.56042  24807533.8204   24807533.8754
        36.7504         17.7504
   -170048.81146   -118321.53743  24528534.2734   24528534.3834
        40.7504         18.5004
   -969978.17547   -724375.29445  22596987.0634   22596985.5434
        46.7504         34.0004
    220025.285 5                  25570001.961
        32.250
    578485.98148    452281.06846  21208535.0864   21208532.1414
        50.5004         39.7504
   1323732.58048   1014950.21247  20802333.3674   20802330.7974
        50.5004         42.7504
   -646395.34146   -488908.09043  24821238.4144   24821235.8014
        37.5004         18.5004
    885911.092 4                  25558978.898
        28.500
   -296446.52348   -211561.93146  20404986.9384   20404984.4964
        51.0004         40.0004
 12  3 16 13 32  9.0000000  0 10G02G07G08G15G18G29G05G21G04G26
   1854247.10447   1415372.86845  21947317.8364   21947313.7734
        47.5004         33.7504
    809236.13546    626582.06242  24807610.0784   24807610.5594
        36.7504         17.7504
   -171694.08146   -119603.57043  24528221.1024   24528221.4924
        41.2504         19.0004
   -973397.82747   -727039.96045  22596335.6414   22596334.4384
        47.0004         33.5004
    217238.706 5                  25569471.914
        33.250
    578427.53948    452235.53146  21208523.7894   21208521.0234
        50.5004         39.5004
   1325143.63848   1016049.74247  20802601.7344   20802599.4384
        50.5004         42.7504
   -649492.63446   -491321.56043  24820649.5474   24820646.6524
        37.5004         18.5004
    889243.283 4                  25559612.844
        29.250
   -298311.57048   -213015.21546  20404631.8054   20404629.7274
        51.0004         40.2504
 12  3 16 13 32 10.0000000  0 10G02G07G08G15G18G29G05G21G04G26
   1856817.92447   1417376.09745  21947806.8054   21947803.0514
        47.5004         34.5004
    809640.04546    626896.83042  24807686.9614   24807687.1024
        36.0004         17.2504
   -173339.23346   -120885.50943  24527907.2664   24527907.9574
        41.2504         19.2504
   -976817.52247   -729704.65345  22595684.7584   22595683.6524
        47.0004         33.5004
    214451.777 5                  25568942.516
        33.500
    578369.43448    452190.25646  21208512.4454   21208509.7974
        50.2504         40.0004
   1326554.65048   1017149.22847  20802870.1644   20802867.9414
        50.5004         42.5004
   -652590.25046   -493735.29643  24820059.9304   24820056.9384
        37.5004         19.0004
    892575.119 4                  25560245.961
        28.750
   -300176.26148   -214468.21246  20404277.1954   20404274.8984
        51.2504         40.5004
 12  3 16 13 32 11.0000000  0 10G02G07G08G15G18G29G05G21G04G26
   1859388.56947   1419379.19345  21948295.9614   21948292.4844
        47.7504         34.0004
    810043.94146    627211.56642  24807763.6644   24807764.5084
        36.5004         17.7504
   -174984.44746   -122167.47543  24527593.9534   24527594.9184
        41.0004         19.2504
   -980237.41247   -732369.50645  22595034.3054   22595032.7734
        47.0004         34.0004
    211664.419 5                  25568411.734
        33.000
    578311.48948    452145.10246  21208501.8834   21208499.0314
        50.7504         40.0004
   1327965.46048   1018248.56347  20803138.8364   20803136.3954
        50.7504         42.2504
   -655688.43246   -496149.46543  24819470.4304   24819466.9144
        38.0004         19.5004
    895906.639 4                  25560878.813
        28.750
   -302040.74148   -215921.05846  20403922.2584   20403920.0554
        51.2504         40.5004
 12  3 16 13 32 12.0000000  0 10G02G07G08G15G18G29G05G21G04G26
   1861960.59747   1421383.36645  21948785.8364   21948781.5984
        47.5004         34.0004
    810449.54746    627527.63042  24807841.5004   24807841.3134
        36.0004         17.2504
   -176628.20846   -123448.31843  24527281.5004   24527282.1954
        40.5004         19.0004
   -983656.00047   -735033.33645  22594384.2424   22594383.0664
        47.0004         34.2504
    208878.108 5                  25567881.563
        33.500
    578255.21748    452101.25146  21208491.0164   21208488.1684
        50.7504         39.5004
   1329377.58548   1019348.91547  20803407.6414   20803404.7114
        50.2504         42.5004
   -658785.61946   -498562.86243  24818881.0394   24818877.4184
        38.2504         19.2504
    899239.175 4                  25561512.656
        28.750
   -303903.47948   -217372.53746  20403567.8364   20403565.8954
        51.0004         40.2504
 12  3 16 13 32 13.0000000  0 10G02G07G08G15G18G29G05G21G04G26
   1864532.55547   1423387.48545  21949275.1414   21949271.2934
        47.2504         34.0004
    810855.32046    627843.82342  24807919.2344   24807918.4384
        36.7504         17.2504
   -178271.92646   -124729.14043  24526969.1564   24526969.5594
        40.0004         18.5004
   -987074.72647   -737697.27545  22593733.7034   22593732.2974
        47.2504         34.2504
    206091.491 5                  25567352.086
        33.250
    578199.20548    452057.60546  21208480.3674   21208477.7074
        50.2504         39.7504
   1330789.59748   1020449.18747  20803676.1954   20803673.8794
        50.7504         42.5004
   -661883.23546   -500976.58643  24818291.1724   24818287.9884
        38.2504         19.2504
    902571.234 4                  25562147.719
        28.500
   -305765.91948   -218823.79346  20403213.4924   20403211.2894
        51.5004         40.5004
 12  3 16 13 32 14.0000000  0 10G02G07G08G15G18G29G05G21G04G26
   1867104.43247   1425391.54745  21949764.7274   21949760.7504
        47.7504         34.5004
    811261.25746    628160.11142  24807997.2424   24807995.9304
        37.2504         16.7504
   -179915.63146   -126009.95343  24526656.0234   24526656.9614
        40.5004         19.0004
   -990493.54447   -740361.28845  22593082.7664   22593080.9884
        47.0004         34.0004
    203304.502 5                  25566821.547
        32.500
    578143.43048    452014.13946  21208469.4924   21208466.8164
        50.0004         39.7504
   1332201.49448   1021549.36547  20803944.9454   20803942.2384
        51.0004         42.2504
   -664981.29546   -503390.66543  24817702.3834   24817698.6454
        38.2504         19.2504
    905903.143 4                  25562781.750
        28.750
   -307628.06948   -220274.81746  20402859.2034   20402856.5904
        51.5004         40.5004
 12  3 16 13 32 15.0000000  0 10G02G07G08G15G18G29G05G21G04G26
   1869677.52248   1427396.54845  21950254.0234   21950250.5004
        48.2504         34.5004
    811668.67146    628477.56642  24808073.8754   24808073.1484
        37.0004         16.7504
   -181558.01346   -127289.72543  24526344.5704   24526344.5234
        40.0004         19.0004
   -993911.22347   -743024.41145  22592432.6174   22592430.8054
        46.7504         34.0004
    200518.413 5                  25566289.164
        30.250
    578089.20048    451971.88646  21208459.4304   21208456.4734
        50.2504         39.5004
   1333614.55348   1022650.44947  20804213.8364   20804211.6764
        51.0004         42.2504
   -668078.52046   -505804.08543  24817112.9224   24817109.1804
        38.2504         19.0004
    909235.769 4                  25563416.047
        28.750
   -309488.66648   -221724.64046  20402505.0474   20402502.8984
        52.0004         40.5004
 12  3 16 13 32 16.0000000  0 10G02G07G08G15G18G29G05G21G04G26
   1872250.20348   1429401.23445  21950744.1564   21950739.8134
        48.0004         34.0004
    812075.93846    628794.91242  24808151.6094   24808150.8364
        37.2504         16.2504
   -183200.71946   -128569.76943  24526031.3984   24526031.8054
        40.0004         19.2504
   -997329.36247   -745687.89345  22591781.6254   22591780.2934
        46.7504         34.0004
    197731.680 5                  25565759.094
        31.750
    578034.86248    451929.53746  21208448.7894   21208446.0044
        51.0004         39.5004
   1335027.15248   1023751.17047  20804482.6564   20804480.2974
        50.7504         42.2504
   -671176.58846   -508218.10643  24816523.3834   24816519.7424
        38.2504         19.0004
                                  25564049.594
        28.500
   -311349.30248   -223174.48546  20402151.5004   20402148.9964
        51.7504         40.2504
 12  3 16 13 32 17.0000000  0 10G02G07G08G15G18G29G05G21G04G26
   1874823.40648   1431406.32545  21951233.6484   21951229.3954
        48.2504         34.0004
    812483.95746    629112.87842  24808228.6724   24808228.6484
        37.7504         16.7504
   -184842.81346   -129849.33543  24525719.3524   24525719.0234
        40.0004         19.2504
  -1000747.03847   -748351.01745  22591131.9064   22591129.9614
        47.0004         34.0004
    194945.051 5                  25565227.961
        31.000
    577981.35348    451887.84346  21208438.7814   21208435.5474
        51.0004         39.5004
   1336440.22248   1024852.26947  20804751.3284   20804749.3164
        51.2504         42.2504
   -674274.42946   -510632.03443  24815933.2584   24815930.4964
        38.5004         19.0004
                                  25564683.633
        29.500
   -313209.05248   -224623.63646  20401797.1564   20401795.0784
        51.5004         40.5004
 12  3 16 13 32 18.0000000  0 10G02G07G08G15G18G29G05G21G04G26
   1877397.33348   1433411.98145  21951723.1644   21951719.2814
        48.2504         34.5004
    812892.94346    629431.53442  24808306.7034   24808306.2894
        38.0004         16.7504
   -186484.06146   -131128.22143  24525406.7664   24525406.4414
        39.5004         19.2504
  -1004164.04747   -751013.61845  22590481.3914   22590480.1844
        46.5004         33.5004
    192158.928 5                  25564697.156
        31.500
    577928.88248    451846.96046  21208428.7344   21208426.0904
        50.7504         39.7504
   1337853.96248   1025953.87847  20805020.9774   20805018.3714
        51.0004         42.5004
   -677371.96246   -513045.69443  24815343.8444   24815341.2034
        38.5004         19.0004
                                  25565318.633
        29.250
   -315067.72248   -226071.95346  20401443.6564   20401441.4264
        51.5004         40.0004
 12  3 16 13 32 19.0000000  0 10G02G07G08G15G18G29G05G21G04G26
   1879971.20448   1435417.59145  21952213.2814   21952209.3834
        48.5004         34.5004
    813302.06246    629750.37942  24808384.6724   24808384.0664
        38.0004         16.2504
   -188125.29546   -132407.11543  24525094.6024   24525094.1914
        39.7504         19.2504
  -1007581.16047   -753676.30045  22589831.5234   22589829.6684
        46.5004         33.5004
    189372.495 5                  25564167.648
        32.000
    577876.67248    451806.27346  21208418.7194   21208415.9064
        50.5004         39.5004
   1339267.60748   1027055.41847  20805289.4144   20805287.3014
        51.0004         42.5004
   -680469.96146   -515459.73243  24814754.9844   24814751.6724
        38.2504         19.0004
    922565.127 4                  25565954.859
        29.250
   -316926.08248   -227520.02646  20401089.9924   20401087.8674
        51.2504         40.0004
 12  3 16 13 32 20.0000000  0 10G02G07G08G15G18G29G05G21G04G26
   1882546.09048   1437423.99445  21952703.2424   21952699.4454
        48.5004         34.5004
    813712.52046    630070.18442  24808463.8284   24808462.0394
        37.2504         15.5004
   -189765.37446   -133685.12643  24524782.7194   24524781.6254
        39.7504         19.2504
  -1010997.31347   -756338.22945  22589181.2274   22589179.6994
        46.5004         33.7504
    186586.753 5                  25563638.102
        31.750
    577825.81548    451766.64546  21208409.2664   21208406.0434
        50.5004         39.5004
   1340682.23148   1028157.72747  20805558.5784   20805556.4104
        50.7504         42.5004
   -683567.24746   -517873.21143  24814165.0784   24814162.3754
        37.7504         18.5004
    925898.180 4                  25566589.523
        29.500
   -318783.05548   -228967.01846  20400736.7344   20400733.7154
        51.2504         40.2504
 12  3 16 13 32 21.0000000  0 10G02G07G08G15G18G29G05G21G04G26
   1885120.43948   1439429.98245  21953192.8914   21953189.1374
        48.0004         34.0004
    814122.65446    630389.75842  24808540.7424   24808540.5124
        36.5004         15.5004
   -191405.93946   -134963.47743  24524470.6884   24524469.3444
        39.2504         19.2504
  -1014414.09347   -759000.65945  22588530.7814   22588529.5124
        46.5004         33.5004
    183800.235 5                  25563109.813
        32.250
    577774.71448    451726.82446  21208399.3524   21208396.4384
        50.5004         40.0004
   1342096.24048   1029259.55247  20805827.6564   20805825.3014
        50.7504         42.5004
   -686665.49546   -520287.44143  24813576.0004   24813572.8484
        38.2504         18.2504
    929230.482 5                  25567224.094
        30.750
   -320640.22248   -230414.16246  20400383.2814   20400380.7584
        51.2504         40.7504
 12  3 16 13 32 22.0000000  0 10G02G07G08G15G18G29G05G21G04G26
   1887695.64648   1441436.63045  21953682.9534   21953678.9734
        48.5004         34.2504
    814533.92446    630710.25342  24808618.7274   24808618.9064
        36.7504         16.7504
   -193045.52446   -136241.06443  24524158.5944   24524157.7934
        39.5004         19.5004
  -1017829.99447   -761662.39445  22587881.3364   22587879.1024
        46.5004         34.0004
    181014.205 5                  25562579.672
        33.250
    577724.80948    451687.94146  21208389.9924   21208387.1214
        50.5004         40.0004
   1343511.08548   1030362.02347  20806096.9454   20806094.7624
        50.7504         42.5004
   -689763.22446   -522701.24743  24812985.9304   24812983.2734
        38.7504         18.2504
    932563.241 5                  25567858.617
        31.000
   -322496.13148   -231860.32346  20400029.8754   20400027.5474
        51.2504         40.2504
 12  3 16 13 32 23.0000000  0 10G02G07G08G15G18G29G05G21G04G26
   1890270.03948   1443442.65145  21954173.2034   21954169.2504
        48.0004         34.0004
    814944.61845    631030.30942  24808696.9384   24808696.9454
        35.5004         16.7504
   -194685.82246   -137519.21843  24523846.4384   24523845.0474
        40.0004         19.7504
  -1021246.81547   -764324.85345  22587230.5164   22587229.1414
        46.7504         33.7504
    178227.133 5                  25562050.445
        33.000
    577674.38648    451648.65346  21208380.2894   21208377.8404
        50.5004         40.0004
   1344925.06048   1031463.82247  20806366.2734   20806363.5744
        50.7504         42.2504
   -692862.13946   -525115.97943  24812396.3914   24812393.6524
        39.2504         18.2504
    935895.005 5                  25568492.266
        31.000
   -324352.51948   -233306.86146  20399676.7814   20399674.6884
        51.2504         40.2504
 12  3 16 13 32 24.0000000  0 10G02G07G08G15G18G29G05G21G04G26
   1892845.87548   1445449.79345  21954663.5474   21954659.1764
        48.0004         34.7504
    815356.98146    631351.63242  24808775.5864   24808774.7074
        36.0004         16.7504
   -196324.61546   -138796.20143  24523534.3834   24523534.0744
        40.5004         19.7504
  -1024662.24947   -766986.22145  22586580.8284   22586579.1844
        47.0004         34.2504
    175441.141 5                  25561520.219
        34.250
    577625.72948    451610.74146  21208370.8524   21208367.8594
        50.5004         40.0004
   1346340.43048   1032566.70747  20806635.2894   20806632.7814
        50.7504         42.5004
   -695960.02246   -527529.91843  24811807.0314   24811804.2624
        38.5004         18.2504
    939227.786 5                  25569126.641
        31.750
   -326207.10648   -234751.99146  20399323.8204   20399321.1094
        51.7504         40.0004
 12  3 16 13 32 25.0000000  0 10G02G07G08G15G18G29G05G21G04G26
   1895421.81648   1447457.02045  21955153.4224   21955149.3014
        48.0004         34.7504
    815769.66145    631673.21042  24808854.9694   24808853.2814
        35.7504         16.7504
   -197963.16246   -140072.98543  24523222.9064   24523222.3914
        40.7504         20.0004
  -1028077.60047   -769647.53745  22585931.1024   22585929.2194
        47.5004         34.2504
    172655.024 5                  25560988.461
        34.500
    577577.48748    451573.14846  21208361.7114   21208359.2194
        50.5004         40.0004
   1347755.85248   1033669.63347  20806904.7894   20806902.4064
        50.7504         42.2504
   -699058.14346   -529944.03843  24811218.1414   24811214.4264
        39.0004         18.5004
    942560.423 5                  25569761.617
        31.500
   -328061.20348   -236196.73746  20398970.9454   20398968.7974
        51.5004         40.5004
 12  3 16 13 32 26.0000000  0 10G02G07G08G15G18G29G05G21G04G26
   1897998.05747   1449464.48345  21955643.1954   21955639.6844
        47.2504         34.5004
    816182.94046    631995.20542  24808932.2814   24808930.5164
        36.7504         16.7504
   -199601.36646   -141349.50643  24522911.1024   24522910.8134
        40.0004         20.2504
  -1031492.72647   -772308.67145  22585281.0944   22585279.5234
        47.2504         34.0004
    169868.937 5                  25560460.914
        33.500
    577529.86848    451536.03346  21208352.6484   21208349.8244
        50.5004         40.0004
   1349171.52748   1034772.75647  20807174.2034   20807171.8164
        50.5004         42.5004
   -702156.39446   -532358.25443  24810628.2194   24810624.7304
        39.2504         18.5004
    945893.116 4                  25570394.898
        29.750
   -329914.67348   -237641.00446  20398618.2584   20398615.7544
        51.0004         40.0004
 12  3 16 13 32 27.0000000  0 10G02G07G08G15G18G29G05G21G04G26
   1900574.97547   1451472.46645  21956133.5634   21956129.6524
        47.0004         34.5004
    816597.12846    632317.89842  24809011.7664   24809010.8674
        36.5004         16.7504
   -201238.72246   -142625.37943  24522598.7734   24522598.9024
        39.7504         20.2504
  -1034907.19847   -774969.29445  22584631.3914   22584629.6294
        47.2504         34.2504
    167083.223 5                  25559929.594
        34.250
    577483.23948    451499.70346  21208344.0314   21208341.2704
        50.2504         39.7504
   1350587.86748   1035876.39547  20807443.8134   20807441.2154
        50.0004         42.5004
   -705254.31146   -534772.22143  24810038.0944   24810034.7894
        39.0004         19.0004
    949226.199 4                  25571027.953
        28.750
   -331767.06448   -239084.42846  20398265.7504   20398263.2814
        51.7504         40.0004
 12  3 16 13 32 28.0000000  0 10G02G07G08G15G18G29G05G21G04G26
   1903151.88647   1453480.44645  21956623.9454   21956620.1024
        47.0004         34.5004
    817011.62946    632640.89042  24809090.7034   24809089.9224
        38.2504         16.7504
   -202876.04846   -143901.21143  24522287.2424   24522287.4844
        39.5004         20.0004
  -1038321.75547   -777629.98945  22583981.8054   22583979.9264
        47.2504         34.0004
    164297.205 5                  25559398.820
        34.500
    577436.92448    451463.60946  21208335.1724   21208332.3164
        50.2504         40.2504
   1352004.11448   1036979.97347  20807713.3204   20807710.9104
        50.0004         42.5004
   -708352.62546   -537186.49843  24809449.0554   24809445.5004
        38.7504         19.0004
    952559.024 4                  25571661.977
        28.500
   -333619.10548   -240527.57346  20397913.6024   20397911.0044
        51.5004         40.0004
 12  3 16 13 32 29.0000000  0 10G02G07G08G15G18G29G05G21G04G26
   1905729.92547   1455489.30745  21957114.7504   21957110.9264
        46.5004         34.0004
    817427.35146    632964.86042  24809171.0234   24809169.3524
        38.5004         16.7504
   -204512.11946   -145176.07743  24521976.2114   24521976.2194
        40.0004         20.2504
  -1041735.22047   -780289.83145  22583332.3754   22583330.6884
        47.2504         33.7504
    161512.010 5                  25558869.148
        35.750
    577392.06048    451428.64946  21208326.9774   21208323.9574
        50.5004         40.2504
   1353421.46548   1038084.39247  20807982.7344   20807980.3404
        49.7504         42.5004
   -711450.17346   -539600.14943  24808859.5704   24808855.9614
        39.5004         18.5004
    955892.582 4                  25572295.188
        28.250
   -335469.64948   -241969.55646  20397561.2344   20397558.9574
        51.5004         40.0004
 12  3 16 13 32 30.0000000  0 10G02G07G08G15G18G29G05G21G04G26
   1908308.15447   1457498.30945  21957605.6254   21957601.6804
        47.0004         34.0004
    817843.67446    633289.27342  24809250.2424   24809248.8244
        37.5004         17.2504
   -206147.92146   -146450.72743  24521664.3134   24521664.6294
        39.7504         20.2504
  -1045148.53847   -782949.55945  22582682.2194   22582680.9694
        47.0004         34.0004
    158726.782 5                  25558339.281
        35.250
    577347.69248    451394.07846  21208318.5004   21208315.5394
        50.5004         40.0004
   1354838.94048   1039188.91947  20808252.5474   20808250.2814
        50.0004         42.5004
   -714547.93546   -542013.98943  24808269.7344   24808266.4454
        40.0004         19.0004
    959226.136 4                  25572929.242
        26.750
   -337319.65048   -243411.11546  20397209.2584   20397207.0554
        51.0004         40.0004
 12  3 16 13 32 31.0000000  0 10G02G07G08G15G18G29G05G21G04G26
   1910886.08647   1459507.08645  21958095.5394   21958092.3914
        47.2504         34.0004
    818259.86046    633613.56942  24809328.1954   24809328.2854
        38.7504         17.2504
   -207783.90346   -147725.52443  24521353.7194   24521353.4264
        40.2504         19.7504
  -1048562.22647   -785609.57945  22582032.6414   22582031.2344
        47.0004         34.5004
    155940.910 5                  25557809.227
        35.500
    577303.36248    451359.53046  21208310.0234   21208306.7584
        50.5004         40.2504
   1356256.08748   1040293.19547  20808522.1724   20808519.5314
        50.5004         42.5004
   -717646.33146   -544428.32143  24807680.2734   24807676.9414
        39.5004         19.0004
    962559.056 4                  25573563.875
        27.500
   -339169.56648   -244852.60846  20396857.0864   20396854.7194
        51.5004         40.0004
 12  3 16 13 32 32.0000000  0 10G02G07G08G15G18G29G05G21G04G26
   1913464.40447   1461516.16545  21958586.5004   21958582.8204
        47.0004         34.0004
    818676.67546    633938.37542  24809408.0004   24809407.1414
        37.5004         17.7504
   -209419.41946   -148999.92143  24521041.9304   24521042.2504
        40.0004         20.0004
  -1051975.57547   -788269.32745  22581383.2814   22581381.6844
        47.2504         34.0004
    153155.116 6                  25557279.406
        36.000
    577259.70848    451325.51946  21208301.5554   21208298.4104
        50.2504         40.0004
   1357673.55548   1041397.71647  20808792.1564   20808789.5944
        50.2504         42.5004
   -720744.72646   -546842.67543  24807090.5004   24807087.1954
        39.7504         19.5004
    965892.058 4                  25574198.328
        28.500
   -341018.75548   -246293.53346  20396505.2114   20396502.8204
        51.5004         40.0004
 12  3 16 13 32 33.0000000  0 10G02G07G08G15G18G29G05G21G04G26
   1916043.53047   1463525.87345  21959077.0394   21959073.3754
        47.0004         34.0004
    819094.57046    634264.00542  24809487.6724   24809486.3244
        38.5004         17.7504
   -211054.00546   -150273.60743  24520730.9694   24520731.1764
        40.0004         19.7504
  -1055388.16047   -790928.47845  22580733.9304   22580732.4534
        47.2504         34.0004
    150369.910 5                  25556748.336
        33.250
    577217.20148    451292.40046  21208293.2664   21208290.2114
        50.7504         40.0004
   1359091.79348   1042502.83547  20809061.8674   20809059.4064
        50.5004         42.5004
   -723842.68646   -549256.67043  24806501.4304   24806497.9574
        39.5004         19.0004
    969225.539 4                  25574833.188
        28.500
   -342866.75848   -247733.52746  20396153.5634   20396150.9804
        51.5004         40.0004
 12  3 16 13 32 34.0000000  0 10G02G07G08G15G18G29G05G21G04G26
   1918622.63747   1465535.55545  21959567.8594   21959564.4184
        47.0004         34.0004
    819512.69246    634589.78142  24809568.5554   24809566.3054
        38.0004         17.2504
   -212688.52346   -151547.26943  24520419.8054   24520420.3244
        39.7504         20.0004
  -1058800.81547   -793587.68345  22580084.5704   22580082.7424
        47.2504         34.0004
    147584.346 5                  25556219.789
        33.000
    577174.97548    451259.50046  21208285.0164   21208282.5864
        50.7504         40.0004
   1360509.96748   1043607.89947  20809331.8204   20809329.5314
        50.5004         42.2504
   -726941.05146   -551670.99143  24805912.1644   24805908.6484
        40.0004         18.5004
    972558.791 4                  25575468.820
        29.000
   -344714.43248   -249173.28346  20395801.9614   20395799.4264
        51.2504         40.0004
 12  3 16 13 32 35.0000000  0 10G02G07G08G15G18G29G05G21G04G26
   1921202.16947   1467545.58145  21960059.2734   21960055.1174
        47.2504         34.0004
    819931.45146    634916.09942  24809646.7424   24809645.9184
        37.7504         17.2504
   -214322.53746   -152820.53643  24520108.2504   24520109.2074
        39.7504         20.2504
  -1062213.11447   -796246.62245  22579434.9064   22579433.5354
        47.2504         34.0004
    144798.918 5                  25555690.023
        35.000
    577133.50048    451227.17746  21208277.1644   21208274.5594
        51.0004         40.0004
   1361928.49148   1044713.24547  20809601.8364   20809599.4064
        50.5004         42.5004
   -730039.35046   -554085.23943  24805321.6884   24805318.7894
        39.7504         18.2504
    975892.233 5                  25576102.289
        30.250
   -346561.30248   -250612.40246  20395450.5314   20395447.8594
        51.7504         40.0004
 12  3 16 13 32 36.0000000  0 10G02G07G08G15G18G29G05G21G04G26
   1923782.60747   1469556.30845  21960550.2734   21960546.3874
        47.7504         34.0004
    820351.41646    635243.34642  24809727.1644   24809725.7734
        38.2504         16.7504
   -215955.49446   -154092.96943  24519798.7504   24519798.5704
        40.2504         19.7504
  -1065624.53547   -798904.86645  22578785.9774   22578784.4534
        47.7504         34.0004
    142014.153 5                  25555160.109
        35.000
    577093.25448    451195.81546  21208269.5554   21208267.3094
        50.5004         40.0004
   1363347.91448   1045819.28147  20809872.1334   20809869.2894
        50.7504         42.2504
   -733137.10746   -556499.08543  24804732.4304   24804728.9964
        40.2504         18.2504
    979226.183 4                  25576737.680
        29.000
   -348406.89248   -252050.52246  20395099.4694   20395096.5904
        51.5004         40.0004
 12  3 16 13 32 37.0000000  0 10G02G07G08G15G18G29G05G21G04G26
   1926362.34447   1471566.49545  21961041.0004   21961037.0744
        47.5004         34.0004
    820770.90346    635570.23242  24809807.3134   24809805.6024
        38.2504         17.2504
   -217589.07746   -155365.90743  24519487.8754   24519487.8134
        39.7504         19.5004
  -1069036.72847   -801563.71445  22578136.9534   22578135.0784
        47.2504         34.5004
    139228.320 5                  25554629.914
        35.250
    577052.62048    451164.15046  21208262.0864   21208259.4104
        50.2504         40.0004
   1364766.55748   1046924.71847  20810142.1954   20810139.6414
        50.7504         42.2504
   -736235.95246   -558913.75742  24804143.1484   24804139.6134
        39.2504         17.7504
    982559.158 5                  25577372.273
        30.250
   -350252.82748   -253488.90946  20394748.0314   20394745.6564
        51.5004         40.0004
 12  3 16 13 32 38.0000000  0 10G02G07G08G15G18G29G05G21G04G26
   1928942.69447   1473577.15545  21961532.0234   21961528.2704
        47.7504         34.0004
    821191.22646    635897.75942  24809887.5944   24809885.6174
        38.5004         17.2504
   -219221.95746   -156638.29443  24519176.9064   24519177.1174
        39.5004         20.0004
  -1072448.32647   -804222.10245  22577487.1564   22577485.8524
        47.5004         34.2504
    136442.889 6                  25554099.844
        36.250
    577012.93948    451133.22846  21208254.3674   21208251.7734
        50.5004         40.0004
   1366185.77448   1048030.60447  20810411.9614   20810409.6094
        51.0004         42.2504
   -739334.52746   -561328.23042  24803553.2894   24803550.0554
        39.0004         17.2504
    985892.516 5                  25578007.680
        30.500
   -352097.77748   -254926.53546  20394396.8674   20394394.4964
        51.5004         40.2504
 12  3 16 13 32 39.0000000  0 10G02G07G08G15G18G29G05G21G04G26
   1931523.54248   1475588.19745  21962023.0784   21962019.2664
        48.0004         34.0004
    821612.33646    636225.89142  24809967.2194   24809964.8404
        38.7504         17.7504
   -220854.23446   -157910.20043  24518866.0634   24518866.5164
        39.0004         20.2504
  -1075859.47847   -806880.13745  22576838.3834   22576836.6914
        47.5004         34.2504
    133657.663 6                  25553569.523
        36.500
    576974.05348    451102.92346  21208247.3054   21208244.3634
        50.5004         39.7504
   1367605.47048   1049136.86247  20810682.2194   20810679.5314
        51.0004         42.5004
   -742432.96846   -563742.60942  24802963.8054   24802960.0434
        39.2504         17.2504
    989226.063 5                  25578641.945
        31.000
   -353941.85548   -256363.48046  20394045.8284   20394043.7464
        51.5004         40.5004
 12  3 16 13 32 40.0000000  0 10G02G07G08G15G18G29G05G21G04G26
   1934104.72647   1477599.51045  21962514.3524   21962510.5164
        47.7504         33.5004
    822034.01646    636554.49343  24810048.0394   24810045.7274
        39.0004         18.2504
   -222486.03446   -159181.72343  24518555.6254   24518556.1884
        38.7504         20.0004
  -1079270.34848   -809537.96045  22576189.2504   22576187.4144
        48.0004         34.5004
    130872.489 6                  25553039.469
        36.500
    576935.83048    451073.14246  21208240.0004   21208236.9964
        50.7504         39.7504
   1369025.45148   1050243.34347  20810952.1564   20810950.1024
        51.0004         42.5004
   -745531.49446   -566157.06142  24802373.2424   24802370.7074
        39.0004         17.7504
    992559.630 5                  25579277.805
        31.000
   -355785.23348   -257799.88246  20393694.9614   20393692.7464
        51.5004         40.5004
 12  3 16 13 32 41.0000000  0 10G02G07G08G15G18G29G05G21G04G26
   1936686.34947   1479611.16645  21963005.5164   21963002.0394
        47.7504         34.0004
    822456.40546    636883.64143  24810128.7344   24810125.4574
        38.0004         18.2504
   -224117.34746   -160452.89543  24518245.1414   24518245.8754
        39.0004         20.0004
  -1082680.85348   -812195.49945  22575540.0314   22575538.4694
        48.0004         34.5004
    128087.453 5                  25552508.617
        35.750
    576898.35348    451043.93446  21208232.8834   21208229.7974
        51.2504         39.7504
   1370445.78248   1051350.09247  20811222.7584   20811220.2814
        50.7504         42.5004
   -748629.92846   -568571.43642  24801784.2274   24801781.3874
        39.5004         17.7504
    995893.402 5                  25579913.016
        31.750
   -357627.82048   -259235.66446  20393344.4304   20393342.0634
        51.2504         40.5004
 12  3 16 13 32 42.0000000  0 10G02G07G08G15G18G29G05G21G04G26
   1939268.51147   1481623.23445  21963496.9384   21963493.1884
        47.7504         33.5004
    822879.51646    637213.34743  24810208.6884   24810206.5664
        37.2504         18.2504
   -225748.04946   -161723.57343  24517934.9774   24517935.4694
        40.0004         19.5004
  -1086090.88248   -814852.66145  22574891.5004   22574889.5784
        48.0004         34.5004
    125302.614 5                  25551979.359
        35.000
    576861.73248    451015.40146  21208225.7034   21208223.5164
        50.7504         40.0004
   1371866.65448   1052457.26647  20811492.9694   20811490.5664
        50.7504         42.5004
   -751728.18446   -570985.64942  24801194.1254   24801191.7194
        39.5004         17.2504
    999227.435 5                  25580548.883
        31.250
   -359469.49148   -260670.73246  20392994.1024   20392991.7664
        51.5004         40.5004
 12  3 16 13 32 43.0000000  0 10G02G07G08G15G18G29G05G21G04G26
   1941850.96048   1483635.53145  21963988.1094   21963984.4304
        48.0004         34.0004
    823303.23946    637543.51043  24810288.6804   24810286.7344
        36.7504         18.5004
   -227378.27546   -162993.87443  24517625.2274   24517625.5394
        40.0004         19.2504
  -1089500.62847   -817509.60245  22574242.3524   22574240.6254
        47.5004         34.2504
    122517.834 5                  25551449.422
        35.000
    576825.73348    450987.35046  21208219.0314   21208216.4614
        50.7504         40.0004
   1373287.76048   1053564.61847  20811763.6174   20811761.1994
        50.5004         42.5004
   -754826.52746   -573399.92242  24800605.2974   24800601.7584
        39.7504         17.2504
   1002561.408 5                  25581183.922
        31.250
   -361310.48748   -262105.27146  20392643.7114   20392641.4454
        51.0004         40.5004
 12  3 16 13 32 44.0000000  0 10G02G07G08G15G18G29G05G21G04G26
   1944433.97148   1485648.27045  21964479.7504   21964476.1524
        48.2504         34.0004
    823727.74246    637874.28843  24810369.5084   24810367.0634
        37.0004         18.5004
   -229007.90146   -164263.70143  24517315.2664   24517315.0044
        40.0004         19.5004
  -1092909.87547   -820166.16045  22573593.6414   22573591.5984
        47.5004         34.0004
    119733.322 5                  25550919.969
        35.500
    576790.58348    450959.96446  21208212.1724   21208209.5474
        50.5004         40.2504
   1374709.33348   1054672.33747  20812033.6564   20812031.9064
        50.2504         42.2504
   -757924.68846   -575814.07342  24800015.3834   24800012.2544
        39.0004         17.2504
   1005895.645 5                  25581817.539
        31.250
   -363150.58148   -263539.11046  20392293.6254   20392291.3204
        51.0004         40.5004
 12  3 16 13 32 45.0000000  0 10G02G07G08G15G18G29G05G21G04G26
   1947015.80348   1487660.07845  21964971.3594   21964967.2894
        48.5004         34.0004
    824151.30446    638204.32343  24810450.1094   24810448.4184
        37.2504         18.2504
   -230638.55446   -165534.36543  24517004.8054   24517004.4924
        40.5004         19.5004
  -1096320.37047   -822823.69145  22572944.7274   22572942.5234
        47.2504         34.5004
    116947.346 5                  25550390.492
        35.750
    576754.58048    450931.91346  21208205.3834   21208203.0474
        50.7504         40.5004
   1376129.72048   1055779.13447  20812304.0474   20812301.8134
        50.5004         42.5004
   -761024.43746   -578229.47142  24799425.8914   24799422.3754
        39.2504         17.2504
   1009228.439 5                  25582452.359
        30.250
   -364991.47948   -264973.57246  20391943.3204   20391941.2074
        51.0004         41.0004
 12  3 16 13 32 46.0000000  0 10G02G07G08G15G18G29G05G21G04G26
   1949598.86348   1489672.84745  21965462.9774   21965458.8874
        48.5004         34.2504
    824576.36846    638535.54943  24810531.1954   24810528.7854
        37.5004         18.2504
   -232267.93846   -166803.97943  24516694.5704   24516694.7274
        40.7504         19.7504
  -1099729.66147   -825480.28545  22572295.8594   22572293.4574
        47.0004         34.2504
    114162.282 5                  25549861.227
        34.750
    576720.14048    450905.07346  21208198.4224   21208196.1724
        50.5004         40.2504
   1377551.28548   1056886.84047  20812574.7194   20812571.9884
        50.5004         42.7504
   -764123.27946   -580644.17542  24798835.6804   24798832.6604
        39.2504         17.2504
   1012562.116 5                  25583086.234
        31.000
   -366830.77448   -266406.79146  20391593.3134   20391591.0554
        50.5004         41.0004
 12  3 16 13 32 47.0000000  0 10G02G07G08G15G18G29G05G21G04G26
   1952182.59148   1491686.14345  21965954.5394   21965950.5274
        48.2504         34.2504
    825002.32246    638867.45443  24810612.5944   24810610.0944
        37.7504         18.2504
   -233896.53846   -168073.00343  24516384.3914   24516384.6374
        41.0004         19.7504
  -1103138.35947   -828136.41145  22571647.3754   22571644.9264
        47.0004         34.2504
    111377.658 5                  25549331.398
        35.250
    576686.67248    450878.99746  21208191.8984   21208189.5124
        50.0004         40.5004
   1378973.45748   1057995.02747  20812845.1414   20812843.1724
        50.2504         42.5004
   -767221.84446   -583058.64042  24798246.1334   24798243.2344
        39.5004         17.7504
   1015896.273 5                  25583721.727
        31.250
   -368669.07448   -267839.23346  20391243.5784   20391241.1564
        50.7504         40.7504
 12  3 16 13 32 48.0000000  0 10G02G07G08G15G18G29G05G21G04G26
   1954766.62248   1493699.66445  21966446.7034   21966442.1524
        48.2504         34.0004
    825428.82346    639199.78442  24810693.4694   24810691.4734
        37.2504         17.7504
   -235524.71046   -169341.70443  24516074.3134   24516074.9224
        40.5004         19.5004
  -1106546.77247   -830792.32345  22570998.6174   22570996.9344
        47.0004         35.0004
    108593.053 5                  25548802.000
        35.000
    576653.82148    450853.40246  21208185.9694   21208183.3794
        50.0004         40.2504
   1380395.88348   1059103.40847  20813116.3284   20813113.9224
        50.2504         42.5004
   -770320.48746   -585473.16542  24797656.0944   24797653.0164
        39.7504         17.7504
   1019230.430 5                  25584355.852
        31.250
   -370506.67248   -269271.12646  20390893.9844   20390891.6374
        50.7504         40.7504
 12  3 16 13 32 49.0000000  0 10G02G07G08G15G18G29G05G21G04G26
   1957351.00248   1495713.46645  21966938.5554   21966934.0984
        48.0004         34.0004
    825855.89846    639532.58243  24810774.4694   24810772.6254
        37.5004         18.2504
   -237152.44746   -170610.09443  24515764.8364   24515765.5784
        40.0004         20.0004
  -1109954.90447   -833448.00945  22570350.4774   22570348.4344
        47.2504         34.7504
    105808.480 5                  25548268.836
        33.500
    576621.63448    450828.32146  21208179.8134   21208177.5824
        50.0004         40.0004
   1381818.63048   1060212.03847  20813386.7274   20813384.3914
        50.5004         42.2504
   -773419.13546   -587887.67642  24797066.5634   24797063.4964
        40.0004         17.2504
   1022564.575 5                  25584991.578
        31.000
   -372343.55448   -270702.46546  20390544.3754   20390541.8134
        50.7504         41.2504
 12  3 16 13 32 50.0000000  0 10G02G07G08G15G18G29G05G21G04G26
   1959935.72048   1497727.52845  21967429.8914   21967425.7704
        48.2504         34.0004
    826283.62846    639865.88743  24810856.0394   24810854.4384
        37.2504         18.5004
   -238779.70546   -171878.08643  24515454.7974   24515455.7384
        40.5004         20.2504
  -1113362.72447   -836103.44345  22569701.5704   22569699.8984
        47.0004         34.5004
    103023.875 5                  25547738.852
        33.500
    576590.13048    450803.76246  21208173.8054   21208171.6414
        50.2504         40.2504
   1383241.66548   1061320.90547  20813657.6254   20813655.0704
        50.5004         42.0004
   -776517.81046   -590302.23042  24796476.8834   24796474.3324
        39.5004         17.2504
   1025898.829 5                  25585624.953
        30.500
   -374179.73448   -272133.25046  20390194.8984   20390192.7194
        51.0004         41.0004
 12  3 16 13 32 51.0000000  0 10G02G07G08G15G18G29G05G21G04G26
   1962520.89748   1499741.95445  21967921.7424   21967918.0634
        48.5004         34.0004
    826712.05546    640199.73143  24810937.4614   24810935.7304
        37.2504         18.5004
   -240406.45746   -173145.70743  24515144.7814   24515146.3674
        39.5004         19.7504
  -1116770.16447   -838758.59445  22569053.1484   22569051.3244
        47.0004         34.2504
    100239.529 5                  25547210.273
        32.750
    576559.37748    450779.79746  21208168.0084   21208165.8524
        50.2504         40.0004
   1384665.09648   1062430.06947  20813928.4454   20813925.9104
        50.7504         42.0004
   -779616.44146   -592716.75742  24795887.4694   24795884.5784
        39.2504         17.2504
   1029233.236 4                  25586259.258
        29.500
   -376015.11948   -273563.41746  20389845.5554   20389843.0274
        51.0004         41.0004
 12  3 16 13 32 52.0000000  0 10G02G07G08G15G18G29G05G21G04G26
   1965106.12748   1501756.41145  21968413.5554   21968410.0784
        48.7504         33.7504
    827140.76146    640533.80543  24811018.8914   24811017.6954
        37.0004         18.2504
   -242033.01246   -174413.14443  24514835.9454   24514836.8324
        39.7504         19.7504
  -1120177.56747   -841413.71145  22568404.6954   22568402.8554
        47.5004         34.2504
     97454.966 5                  25546680.461
        32.750
    576529.01348    450756.13746  21208162.2974   21208159.8444
        50.0004         39.7504
   1386088.55748   1063539.26047  20814199.3444   20814197.0594
        50.2504         42.0004
   -782715.33646   -595131.49142  24795297.9304   24795295.0354
        39.7504         17.7504
   1032567.447 4                  25586893.477
        27.500
   -377850.04148   -274993.22646  20389496.4614   20389494.4384
        51.0004         41.0004
 12  3 16 13 32 53.0000000  0 10G02G07G08G15G18G29G05G21G04G26
   1967693.19748   1503772.31545  21968906.2664   21968902.6054
        48.5004         34.2504
    827571.55046    640869.47042  24811100.3594   24811099.6294
        37.5004         17.7504
   -243657.65746   -175679.07643  24514526.3134   24514527.0904
        39.7504         19.5004
  -1123583.19947   -844067.44845  22567756.9534   22567755.0664
        47.5004         34.0004
     94671.904 5                  25546151.578
        32.250
    576500.79048    450734.14646  21208157.0634   21208154.3794
        50.0004         40.0004
   1387513.79548   1064649.83247  20814470.5634   20814468.0354
        50.5004         42.0004
   -785812.80046   -597545.09942  24794708.3444   24794705.2934
        40.0004         17.7504
   1035903.169 4                  25587526.758
        28.500
   -379682.76848   -276421.33446  20389147.5394   20389145.6094
        51.0004         41.0004
 12  3 16 13 32 54.0000000  0 10G02G07G08G15G18G29G05G21G04G26
   1970279.30648   1505787.46145  21969398.5314   21969394.5234
        48.7504         34.0004
    828001.63146    641204.57742  24811181.9924   24811180.9924
        37.7504         17.2504
   -245283.18146   -176945.70343  24514216.7344   24514218.0164
        39.5004         19.5004
  -1126989.86447   -846721.98945  22567108.5864   22567106.9144
        47.5004         34.2504
     91887.619 5                  25545620.383
        32.000
    576471.92248    450711.65646  21208151.4614   21208149.3554
        50.2504         40.0004
   1388937.99348   1065759.60047  20814741.4454   20814738.5084
        51.0004         42.0004
   -788911.60946   -599959.73742  24794118.7344   24794115.6954
        39.7504         17.2504
   1039237.692 4                  25588160.844
        28.000
   -381516.12048   -277849.91846  20388798.8284   20388796.5864
        51.0004         40.7504
 12  3 16 13 32 55.0000000  0 10G02G07G08G15G18G29G05G21G04G26
   1972865.40448   1507802.60245  21969889.9694   21969886.3054
        48.5004         35.0004
    828431.95346    641539.87442  24811264.6564   24811262.7704
        37.7504         17.2504
   -246908.57046   -178212.25043  24513907.9614   24513908.9344
        40.0004         19.7504
  -1130396.54647   -849376.54345  22566460.3524   22566458.5864
        47.2504         34.0004
     89103.054 5                  25545090.359
        32.250
    576443.36148    450689.39846  21208146.1254   21208143.7384
        50.0004         40.2504
   1390362.18648   1066869.36147  20815012.7814   20815010.2854
        51.0004         42.0004
   -792010.76846   -602374.68242  24793528.9924   24793526.2154
        40.0004         17.2504
   1042571.79414                  25588796.297
        27.500
   -383349.09248   -279278.20346  20388449.7894   20388447.7894
        51.2504         40.7504
 12  3 16 13 32 56.0000000  0 10G02G07G08G15G18G29G05G21G04G26
   1975452.38948   1509818.43245  21970382.4614   21970378.8674
        48.0004         34.5004
    828863.39146    641876.04842  24811345.7344   24811344.8754
        37.5004         17.7504
   -248532.96046   -179478.00943  24513598.5084   24513600.0044
        39.7504         19.5004
  -1133802.40847   -852030.46345  22565811.8674   22565810.2854
        47.0004         34.0004
     86319.066 5                  25544560.906
        32.500
    576416.02548    450668.09946  21208140.4304   21208138.3364
        50.0004         40.5004
   1391787.19448   1067979.75447  20815283.7114   20815281.2384
        50.7504         42.0004
   -795109.44646   -604789.25042  24792940.0394   24792936.1724
        40.0004         17.2504
                                  25589430.500
        27.250
   -385180.80648   -280705.51446  20388101.2894   20388098.9734
        51.2504         40.5004
 12  3 16 13 32 57.0000000  0 10G02G07G08G15G18G29G05G21G04G26
   1978039.70848   1511834.52045  21970874.5864   21970871.2544
        48.2504         34.5004
    829295.45646    642212.73842  24811429.1804   24811427.3364
        36.5004         17.7504
   -250156.99246   -180743.48343  24513290.1484   24513291.0394
        39.7504         19.5004
  -1137207.99547   -854684.16745  22565163.9224   22565162.5664
        47.2504         34.5004
     83535.140 5                  25544030.023
        33.500
    576389.32948    450647.30146  21208135.6804   21208133.5474
        50.0004         40.5004
   1393212.48648   1069090.37447  20815554.9304   20815552.4384
        50.5004         42.0004
   -798208.12746   -607203.80142  24792350.1094   24792346.7074
        40.2504         17.7504
                                  25590063.766
        26.750
   -387011.81548   -282132.27746  20387752.8914   20387750.6254
        51.5004         40.7504
 12  3 16 13 32 58.0000000  0 10G02G07G08G15G18G29G05G21G04G26
   1980627.45848   1513850.95145  21971367.3524   21971363.7074
        48.7504         34.2504
    829728.17546    642549.93443  24811510.7664   24811509.6094
        37.0004         18.2504
   -251780.42246   -182008.52143  24512981.2894   24512981.8834
        40.5004         19.7504
  -1140613.19047   -857337.56045  22564515.8594   22564514.6524
        47.2504         34.5004
     80751.316 5                  25543500.766
        33.000
    576363.37248    450627.07146  21208130.9384   21208128.5274
        50.2504         40.5004
   1394638.15848   1070201.28546  20815826.3524   20815823.6254
        50.7504         41.7504
   -801306.78246   -609618.32842  24791760.3984   24791757.5044
        40.2504         17.7504
                                  25590698.422
        27.500
   -388842.05748   -283558.44046  20387404.5474   20387402.4494
        51.5004         40.7504
 12  3 16 13 32 59.0000000  0 10G02G07G08G15G18G29G05G21G04G26
   1983215.33148   1515867.46845  21971860.1024   21971856.4064
        48.7504         34.5004
    830161.26646    642887.42842  24811592.7974   24811592.0864
        36.7504         17.7504
   -253403.63146   -183273.35543  24512672.7274   24512672.9144
        40.2504         19.5004
  -1144018.31347   -859990.90245  22563868.2974   22563866.8874
        47.5004         34.2504
     77967.385 5                  25542969.672
        31.500
    576337.85848    450607.19046  21208125.9454   21208123.3244
        50.5004         40.2504
   1396063.90648   1071312.25147  20816097.4064   20816094.9184
        50.5004         42.0004
   -804405.67946   -612033.06042  24791170.4224   24791167.7774
        40.7504         17.7504
                                  25591332.477
        28.250
   -390671.78648   -284984.20446  20387056.3444   20387054.3134
        51.2504         40.5004
 12  3 16 13 33  0.0000000  0 10G02G07G08G15G18G29G05G21G04G26
   1985803.51348   1517884.23345  21972352.1724   21972348.8874
        49.0004         34.2504
    830594.91046    643225.33742  24811675.4924   24811675.2734
        37.0004         17.7504
   -255026.48746   -184537.92743  24512363.6414   24512364.1724
        40.2504         19.5004
  -1147423.18047   -862644.04345  22563220.3754   22563218.8324
        47.7504         34.2504
     75183.431 5                  25542440.094
        31.500
    576312.95848    450587.79446  21208121.7424   21208119.1254
        50.5004         40.2504
   1397489.91348   1072423.42247  20816369.0554   20816366.3054
        50.5004         42.0004
   -807504.66046   -614447.84942  24790581.0864   24790578.0394
        40.0004         17.7504
                                  25591968.313
        28.000
   -392500.84948   -286409.44346  20386708.2504   20386706.4534
        51.5004         40.5004
 12  3 16 13 33  1.0000000  0 10G02G07G08G15G18G29G05G21G04G26
   1988391.74448   1519901.03545  21972844.4694   21972841.0704
        49.0004         34.0004
    831028.81246    643563.42543  24811758.0554   24811757.8594
        37.0004         18.5004
   -256649.11646   -185802.31543  24512054.3914   24512054.9494
        39.7504         19.5004
  -1150828.05147   -865297.18645  22562572.3204   22562570.6294
        47.2504         34.2504
     72399.260 5                  25541910.211
        31.250
    576288.45148    450568.69146  21208116.8524   21208114.4104
        51.0004         40.0004
   1398915.92948   1073534.60447  20816640.2034   20816637.6844
        49.7504         42.0004
   -810603.91646   -616862.84742  24789990.6334   24789988.0704
        40.5004         17.7504
   1062580.553 4                  25592605.141
        28.500
   -394329.47448   -287834.35146  20386360.4064   20386358.2734
        51.0004         40.5004
 12  3 16 13 33  2.0000000  0 10G02G07G08G15G18G29G05G21G04G26
   1990981.15548   1521918.74545  21973337.4144   21973334.0004
        48.0004         34.2504
    831464.17246    643902.66643  24811841.1024   24811840.7734
        36.5004         18.5004
   -258270.52146   -187065.75443  24511746.5864   24511746.6524
        40.0004         19.2504
  -1154231.76847   -867949.42945  22561924.3204   22561923.2854
        47.2504         34.2504
     69616.019 5                  25541380.078
        31.750
    576265.43248    450550.76446  21208112.0004   21208109.5944
        51.0004         40.0004
   1400343.08648   1074646.67747  20816911.6174   20816909.2934
        49.7504         42.0004
   -813702.38846   -619277.23542  24789401.4614   24789398.1764
        40.5004         17.7504
   1065915.960 4                  25593241.133
        29.000
   -396156.56648   -289258.05646  20386012.7194   20386010.4694
        51.0004         40.5004
 12  3 16 13 33  3.0000000  0 10G02G07G08G15G18G29G05G21G04G26
   1993570.45848   1523936.38545  21973830.3754   21973826.8094
        48.0004         34.0004
    831899.71446    644242.03343  24811923.8834   24811923.6294
        37.5004         19.0004
   -259891.88546   -188329.13743  24511437.8054   24511438.1524
        39.7504         19.2504
  -1157635.65247   -870601.80045  22561276.3914   22561275.1094
        47.5004         34.2504
     66832.338 5                  25540851.703
        32.250
    576242.61448    450532.97846  21208108.1564   21208105.6604
        51.2504         40.5004
   1401770.08448   1075758.62647  20817183.4144   20817180.5634
        50.0004         42.0004
   -816801.33046   -621691.98842  24788811.5394   24788808.8594
        40.7504         17.7504
   1069251.061 4                  25593876.805
        28.750
   -397983.40048   -290681.56046  20385665.1174   20385662.9574
        51.5004         40.5004
 12  3 16 13 33  4.0000000  0 10G02G07G08G15G18G29G05G21G04G26
   1996160.18648   1525954.35245  21974323.1804   21974319.5904
        48.2504         33.7504
    832335.91846    644581.92243  24812007.5784   24812006.5394
        37.2504         19.0004
   -261512.76746   -189592.14243  24511129.0784   24511129.7934
        40.2504         19.2504
  -1161039.17047   -873253.88345  22560629.5164   22560627.9344
        47.7504         34.2504
     64048.773 5                  25540320.766
        32.750
    576220.54148    450515.78546  21208104.0234   21208101.5354
        51.0004         40.2504
   1403197.43348   1076870.84347  20817454.9614   20817452.6094
        50.0004         42.0004
   -819900.23546   -624106.74043  24788221.8524   24788219.1564
        41.0004         18.2504
   1072586.179 4                  25594511.414
        27.500
   -399809.45048   -292104.45646  20385317.5864   20385315.7194
        51.5004         40.5004
 12  3 16 13 33  5.0000000  0 10G02G07G08G15G18G29G05G21G04G26
   1998749.50248   1527971.99845  21974815.8914   21974812.3874
        48.2504         34.0004
    832771.93446    644921.66243  24812089.9384   24812089.6414
        37.5004         18.5004
   -263133.91946   -190855.36343  24510821.0554   24510821.0554
        40.7504         19.0004
  -1164443.10347   -875906.29645  22559981.1724   22559979.9384
        47.5004         34.2504
     61264.575 5                  25539791.922
        32.750
    576198.38948    450498.51746  21208099.1724   21208096.8054
        51.2504         40.0004
   1404624.34448   1077982.72047  20817726.7034   20817724.1724
        50.5004         42.0004
   -822999.90246   -626522.06643  24787632.2664   24787629.2624
        40.7504         18.2504
   1075920.792 4                  25595147.578
        25.750
   -401635.51648   -293527.36846  20384970.1564   20384968.0664
        51.5004         40.5004
 12  3 16 13 33  6.0000000  0 10G02G07G08G15G18G29G05G21G04G26
   2001340.38648   1529990.86945  21975308.9614   21975305.2424
        48.0004         33.5004
    833209.79046    645262.83743  24812172.8984   24812172.8484
        37.0004         19.0004
   -264753.41446   -192117.31343  24510512.2194   24510512.7194
        40.7504         19.5004
  -1167845.57148   -878557.56545  22559334.1644   22559332.7384
        48.0004         34.2504
     58481.623 5                  25539262.148
        33.500
    576178.11348    450482.72046  21208095.4844   21208093.2854
        50.5004         40.2504
   1406052.78248   1079095.78947  20817998.3054   20817995.2854
        50.5004         42.2504
   -826098.40846   -628936.49243  24787042.6414   24787039.5274
        41.0004         18.2504
                                  25595783.242
        25.250
   -403459.69448   -294948.80646  20384623.0084   20384620.7424
        51.2504         40.2504
 12  3 16 13 33  7.0000000  0 10G02G07G08G15G18G29G05G21G04G26
   2003930.60248   1532009.21745  21975801.6334   21975798.0784
        48.0004         33.0004
    833647.22146    645603.68143  24812256.0784   24812256.3134
        36.2504         19.0004
   -266373.46346   -193379.70343  24510204.0164   24510204.9734
        40.2504         19.5004
  -1171248.72548   -881209.36545  22558686.3984   22558684.6994
        48.2504         34.0004
     55697.672 5                  25538730.180
        32.250
    576157.48948    450466.65046  21208091.8594   21208089.2274
        50.2504         40.0004
   1407480.48348   1080208.28247  20818270.4384   20818267.7114
        50.5004         42.2504
   -829197.95346   -631351.69843  24786452.0084   24786449.4304
        41.0004         18.2504
                                  25596417.867
        25.250
   -405284.14648   -296370.45846  20384275.6644   20384273.3324
        51.5004         40.2504
 12  3 16 13 33  8.0000000  0 10G02G07G08G15G18G29G05G21G04G26
   2006522.22947   1534028.66745  21976295.0554   21976291.4104
        47.7504         34.0004
    834086.30146    645945.81843  24812340.3594   24812339.9384
        36.2504         19.0004
   -267991.99246   -194640.91343  24509896.0784   24509896.7974
        39.5004         19.2504
  -1174650.49648   -883860.09945  22558039.3284   22558037.6884
        48.2504         34.0004
     52914.944 5                  25538200.539
        31.750
    576138.60448    450451.93646  21208088.2274   21208085.5984
        50.2504         40.2504
   1408909.57148   1081321.85347  20818542.0944   20818539.3874
        50.7504         42.0004
   -832296.41646   -633766.08842  24785863.3054   24785859.8164
        41.0004         17.7504
                                  25597057.688
        26.250
   -407106.80448   -297790.70746  20383929.0634   20383926.8524
        51.2504         40.5004
 12  3 16 13 33  9.0000000  0 10G02G07G08G15G18G29G05G21G04G26
   2009113.12247   1536047.54245  21976787.7584   21976784.1954
        47.7504         34.0004
    834524.88246    646287.54543  24812423.5554   24812423.1414
        36.2504         18.5004
   -269611.20446   -195902.63943  24509587.6644   24509588.5664
        39.5004         19.2504
  -1178053.09148   -886511.47045  22557391.3204   22557389.9734
        48.7504         34.7504
     50131.076 5                  25537672.898
        33.000
    576119.28248    450436.87746  21208084.5164   21208082.1294
        50.2504         40.5004
   1410337.85448   1082434.79847  20818813.6414   20818811.0784
        50.5004         42.5004
   -835396.01846   -636181.37643  24785272.9224   24785270.1294
        40.2504         18.2504
                                  25597695.383
        22.750
   -408929.83348   -299211.25446  20383582.1644   20383579.7034
        51.7504         40.5004
 12  3 16 13 33 10.0000000  0  9G02G07G08G15G18G29G05G21G26
   2011705.20147   1538067.33645  21977280.9304   21977277.9064
        47.2504         33.7504
    834964.92946    646630.46143  24812506.7504   24812506.6764
        36.7504         19.0004
   -271229.07546   -197163.30243  24509279.5234   24509280.6134
        39.5004         19.2504
  -1181454.49648   -889161.92145  22556744.3984   22556742.5354
        49.0004         34.7504
     47348.276 5                  25537143.547
        34.000
    576101.49848    450423.02346  21208081.0634   21208078.5394
        50.2504         40.5004
   1411767.30048   1083548.65947  20819085.9774   20819083.0044
        50.7504         42.2504
   -838494.78746   -638596.00343  24784683.8284   24784680.7114
        40.0004         18.2504
   -410751.29748   -300630.57746  20383235.8524   20383233.3444
        51.7504         40.7504
 12  3 16 13 33 11.0000000  0  9G02G07G08G15G18G29G05G21G26
   2014297.42547   1540087.25245  21977774.5004   21977770.8484
        47.7504         33.7504
    835405.37746    646973.65043  24812591.5234   24812590.2114
        37.0004         19.0004
   -272846.73746   -198423.80043  24508971.8364   24508972.6374
        39.5004         19.0004
  -1184855.82248   -891812.29845  22556096.8834   22556095.1764
        48.5004         34.5004
     44565.208 5                  25536614.828
        34.750
    576084.17948    450409.52546  21208077.7344   21208075.2234
        50.5004         40.2504
   1413196.83348   1084662.57547  20819358.1414   20819355.0824
        50.7504         42.2504
   -841593.76946   -641010.80643  24784094.1724   24784090.7034
        40.2504         18.5004
   -412572.27248   -302049.51246  20382889.0394   20382886.7814
        51.5004         40.7504
 12  3 16 13 33 12.0000000  0  9G02G07G08G15G18G29G05G21G26
   2016889.66547   1542107.17945  21978267.6094   21978264.0864
        47.2504         34.0004
    835846.07046    647317.02643  24812674.4844   24812674.6724
        36.2504         19.2504
   -274464.22746   -199684.21643  24508664.2894   24508664.6914
        39.0004         19.0004
  -1188257.17248   -894462.69845  22555449.7664   22555447.9534
        48.0004         34.5004
     41781.901 5                  25536084.680
        33.000
    576067.15848    450396.25746  21208074.7194   21208072.2344
        50.7504         40.2504
   1414626.33548   1085776.47147  20819630.3674   20819627.2544
        51.2504         42.2504
   -844693.13046   -643425.87043  24783503.8834   24783500.7664
        40.5004         18.5004
   -414392.84048   -303468.13646  20382542.6334   20382540.4574
        51.0004         40.7504
 12  3 16 13 33 13.0000000  0  9G02G07G08G15G18G29G05G21G26
   2019481.91047   1544127.10845  21978761.6094   21978757.0044
        47.5004         34.0004
    836286.99445    647660.62343  24812758.5554   24812758.3324
        35.5004         19.0004
   -276081.65046   -200944.54143  24508356.4924   24508357.0274
        38.5004         19.5004
  -1191658.59148   -897113.15245  22554801.9454   22554800.6524
        48.2504         34.2504
     38998.233 5                  25535554.891
        33.500
    576050.46148    450383.24446  21208071.2424   21208068.9804
        50.5004         40.0004
   1416055.77948   1086890.32647  20819902.0084   20819899.2154
        51.0004         42.2504
   -847792.88146   -645841.28943  24782913.9384   24782911.0394
        40.7504         18.5004
   -416213.07248   -304886.50446  20382195.9774   20382194.2074
        51.0004         40.5004
 12  3 16 13 33 14.0000000  0  9G02G07G08G15G18G29G05G21G26
   2022075.55647   1546148.12545  21979255.0084   21979250.7504
        47.5004         34.7504
    836729.59845    648005.52043  24812842.9454   24812842.6414
        35.2504         18.2504
   -277697.52746   -202203.64843  24508049.1174   24508049.4574
        39.0004         19.5004
  -1195058.58847   -899762.50145  22554155.3364   22554154.3134
        47.7504         34.2504
     36215.817 5                  25535025.781
        34.000
    576035.55348    450371.62946  21208068.7424   21208066.2074
        50.5004         40.0004
   1417486.62148   1088005.27347  20820174.1094   20820171.6604
        50.7504         42.0004
   -850891.50746   -648255.81043  24782324.2274   24782321.5554
        40.7504         18.2504
   -418031.45348   -306303.42046  20381850.3284   20381847.9184
        51.5004         40.2504
 12  3 16 13 33 15.0000000  0  9G02G07G08G15G18G29G05G21G26
   2024668.94447   1548168.94745  21979748.6564   21979744.1414
        47.2504         34.0004
    837172.12245    648350.32643  24812925.6024   24812925.8164
        34.5004         18.2504
   -279313.62746   -203462.95943  24507741.7114   24507742.0664
        38.2504         19.7504
  -1198458.98947   -902412.16345  22553508.1414   22553506.5004
        47.7504         34.7504
     33432.698 5                  25534495.836
        34.750
    576020.60148    450359.97446  21208065.7344   21208063.1334
        51.0004         40.0004
   1418917.08348   1089119.91647  20820446.2734   20820443.8554
        51.0004         42.2504
   -853990.88446   -650670.90543  24781734.8284   24781732.1094
        41.0004         18.5004
   -419849.82348   -307720.34046  20381504.1254   20381501.7304
        51.5004         40.5004
 12  3 16 13 33 16.0000000  0  9G02G07G08G15G18G29G05G21G26
   2027262.79347   1550190.12745  21980242.1254   21980237.6134
        47.7504         34.0004
    837615.45245    648695.77143  24813010.8444   24813011.6604
        34.2504         19.0004
   -280929.09046   -204721.76843  24507434.1644   24507434.5004
        38.5004         20.2504
  -1201858.87047   -905061.41345  22552861.4384   22552859.5554
        47.7504         34.5004
     30649.871 5                  25533966.273
        35.750
    576006.52048    450349.00546  21208063.1644   21208060.8244
        51.0004         40.0004
   1420348.02248   1090234.93147  20820718.8204   20820715.7034
        51.0004         42.2504
   -857090.08946   -653085.85843  24781144.6564   24781142.4414
        41.0004         19.0004
   -421667.29448   -309136.54746  20381158.3444   20381156.1294
        51.2504         40.5004
 12  3 16 13 33 17.0000000  0  9G02G07G08G15G18G29G05G21G26
   2029856.92747   1552211.52645  21980735.7424   21980731.5594
        47.7504         34.2504
    838059.29745    649041.62443  24813095.1884   24813095.6254
        34.7504         19.0004
   -282544.21446   -205980.31343  24507126.8364   24507127.4844
        38.5004         19.7504
  -1205258.55647   -907710.52545  22552214.1564   22552212.5634
        47.7504         34.5004
     27867.006 5                  25533437.328
        35.000
    575992.98648    450338.46046  21208060.5634   21208058.5634
        51.0004         40.0004
   1421779.16448   1091350.10847  20820990.9774   20820988.3754
        50.7504         42.0004
   -860189.39646   -655500.91543  24780554.4614   24780552.6604
        40.7504         18.5004
   -423484.13648   -310552.27346  20380812.6024   20380810.0664
        51.0004         40.7504
 12  3 16 13 33 18.0000000  0  9G02G07G08G15G18G29G05G21G26
   2032451.53548   1554233.30045  21981229.6564   21981225.5204
        48.2504         34.5004
    838503.85445    649388.04243  24813180.2584   24813180.5164
        35.7504         18.5004
   -284158.68446   -207238.33243  24506820.1724   24506820.1684
        39.0004         19.7504
  -1208657.78747   -910359.27045  22551567.4694   22551565.5784
        47.5004         34.2504
     25084.376 5                  25532907.625
        35.500
    575980.28648    450328.56646  21208058.0474   21208055.4654
        51.2504         40.0004
   1423210.77248   1092465.64847  20821263.2974   20821260.7774
        50.7504         42.0004
   -863288.59646   -657915.88343  24779965.3134   24779962.4884
        40.2504         18.2504
   -425300.10648   -311967.30346  20380467.1094   20380464.6094
        51.2504         40.7504
 12  3 16 13 33 19.0000000  0  9G02G07G08G15G18G29G05G21G26
   2035046.24548   1556255.15145  21981723.1644   21981719.3324
        48.0004         34.2504
    838948.78646    649734.73743  24813265.9144   24813265.0864
        36.2504         18.5004
   -285773.00546   -208496.23143  24506512.1724   24506513.1454
        38.7504         19.7504
  -1212056.99547   -913008.00145  22550920.4534   22550918.9304
        47.7504         34.0004
     22301.520 6                  25532377.359
        36.000
    575967.96848    450318.96446  21208055.7504   21208053.5084
        51.5004         40.0004
   1424642.40848   1093581.20247  20821535.8754   20821533.0784
        50.7504         42.0004
   -866388.07046   -660331.05942  24779375.4534   24779372.6844
        40.0004         17.7504
   -427115.63548   -313382.00746  20380121.2114   20380119.4924
        51.2504         40.7504
 12  3 16 13 33 20.0000000  0  9G02G07G08G15G18G29G05G21G26
   2037641.64447   1558277.53845  21982216.9454   21982213.1884
        47.7504         33.7504
    839394.61946    650082.15143  24813350.9144   24813350.0164
        36.0004         18.2504
   -287386.53246   -209753.53643  24506204.8204   24506205.6804
        39.2504         20.2504
  -1215455.53047   -915656.20845  22550273.6024   22550272.1524
        47.5004         34.2504
     19519.126 6                  25531849.109
        36.000
    575956.67548    450310.16646  21208053.7114   21208050.7584
        50.5004         39.7504
   1426074.69748   1094697.27247  20821808.4064   20821805.6454
        50.7504         42.0004
   -869487.23346   -662745.97343  24778785.7424   24778782.7304
        40.5004         18.2504
   -428930.10748   -314795.88246  20379776.3754   20379774.1134
        51.2504         40.7504
 12  3 16 13 33 21.0000000  0  9G02G07G08G15G18G29G05G21G26
   2040236.87947   1560299.80145  21982710.7034   21982707.3164
        47.5004         34.0004
    839840.54946    650429.61043  24813435.5234   24813434.8244
        36.2504         19.0004
   -289000.10946   -211010.87343  24505898.2814   24505898.8324
        39.5004         20.2504
  -1218854.27847   -918304.58145  22549626.9224   22549625.8364
        47.5004         34.5004
     16736.214 6                  25531320.250
        36.000
    575945.54748    450301.49746  21208051.4614   21208048.8914
        50.7504         39.7504
   1427506.74948   1095813.15747  20822080.9064   20822078.1174
        50.5004         42.0004
   -872586.93446   -665161.30242  24778195.8524   24778193.1914
        40.2504         17.7504
   -430744.36048   -316209.58746  20379431.0394   20379428.7854
        51.0004         41.0004
 12  3 16 13 33 22.0000000  0  9G02G07G08G15G18G29G05G21G26
   2042833.03548   1562322.77445  21983205.0474   21983201.0314
        48.0004         34.0004
    840287.64346    650777.98543  24813520.1254   24813520.0394
        36.5004         18.5004
   -290612.67946   -212267.42743  24505591.1644   24505592.0984
        39.0004         20.0004
  -1222252.18548   -920952.29545  22548980.6414   22548979.2304
        48.0004         34.5004
     13953.967 5                  25530791.313
        34.750
    575935.65248    450293.78646  21208049.7974   21208047.0664
        50.7504         39.5004
   1428939.69848   1096929.73947  20822353.5634   20822350.2974
        51.0004         42.0004
   -875686.09146   -667576.23143  24777605.7034   24777603.3754
        40.2504         18.5004
   -432557.31748   -317622.27846  20379085.8524   20379083.6524
        51.2504         41.0004
 12  3 16 13 33 23.0000000  0  9G02G07G08G15G18G29G05G21G26
   2045429.19848   1564345.76345  21983698.6024   21983695.2074
        48.0004         34.0004
    840735.00146    651126.55643  24813605.8134   24813605.1134
        37.0004         18.5004
   -292225.12546   -213523.87243  24505284.2814   24505284.9654
        38.7504         20.2504
  -1225650.10348   -923600.02545  22548334.1414   22548332.7384
        48.0004         34.0004
     11171.417 5                  25530261.633
        34.500
    575926.07048    450286.31446  21208047.7894   21208045.5984
        51.0004         39.7504
   1430372.58448   1098046.27547  20822626.5394   20822623.9064
        51.0004         42.0004
   -878785.58346   -669991.41843  24777015.4454   24777014.0434
        40.5004         18.5004
   -434369.91548   -319034.69146  20378741.1804   20378738.8914
        51.5004         40.7504
 12  3 16 13 33 24.0000000  0  9G02G07G08G15G18G29G05G21G26
   2048025.49348   1566368.85145  21984192.9224   21984189.1994
        48.5004         34.5004
    841182.76946    651475.48843  24813691.0864   24813690.1094
        37.5004         18.2504
   -293837.33046   -214780.13543  24504977.8054   24504978.5704
        38.7504         20.2504
  -1229047.96047   -926247.70945  22547687.6254   22547686.0864
        47.7504         34.5004
      8388.720 5                  25529733.141
        34.500
    575916.95048    450279.20746  21208045.9454   21208043.5314
        51.0004         39.5004
   1431805.55548   1099162.87947  20822898.9144   20822896.2774
        50.7504         42.0004
   -881885.31546   -672406.81443  24776426.5314   24776423.6994
        41.0004         19.2504
   -436182.00348   -320446.70946  20378396.2814   20378394.0274
        51.7504         41.0004
 12  3 16 13 33 25.0000000  0  9G02G07G08G15G18G29G05G21G26
   2050622.45548   1568392.45145  21984686.8134   21984683.3054
        48.2504         34.0004
    841631.35646    651825.05743  24813776.7894   24813775.5704
        37.5004         18.5004
   -295448.78546   -216035.82443  24504671.9774   24504671.8524
        38.0004         20.2504
  -1232445.16147   -928894.87545  22547040.8524   22547039.7974
        47.5004         34.5004
      5606.421 5                  25529202.203
        34.250
    575908.82748    450272.87746  21208044.5634   21208042.0394
        51.0004         39.5004
   1433239.16648   1100279.97947  20823171.9614   20823169.4654
        50.5004         42.0004
   -884984.79346   -674822.00243  24775836.5004   24775833.8594
        40.5004         19.0004
   -437993.04148   -321857.90546  20378051.5784   20378049.7274
        51.5004         41.0004
 12  3 16 13 33 26.0000000  0  9G02G07G08G15G18G29G05G21G26
   2053219.70747   1570416.28345  21985181.5004   21985177.3874
        47.7504         33.5004
    842080.59646    652175.13443  24813862.8914   24813860.8674
        37.2504         18.5004
   -297059.82746   -217291.18043  24504365.0474   24504365.5474
        39.0004         20.0004
  -1235842.14048   -931541.87545  22546394.5634   22546393.3874
        48.0004         34.5004
      2824.048 5                  25528673.008
        33.500
    575901.31348    450267.02946  21208042.8754   21208040.7034
        51.0004         39.5004
   1434673.01148   1101397.25647  20823444.4144   20823442.3014
        50.5004         42.0004
   -888084.29146   -677237.19443  24775247.3914   24775244.3404
        40.5004         19.2504
   -439803.43748   -323268.60946  20377706.8674   20377704.8954
        51.0004         41.0004
 12  3 16 13 33 27.0000000  0  9G02G07G08G15G18G29G05G21G26
   2055817.24248   1572440.33645  21985675.6564   21985672.1374
        48.0004         34.0004
    842530.35446    652525.56243  24813947.0554   24813946.7424
        37.2504         18.5004
   -298670.46346   -218546.22143  24504058.3204   24504058.8674
        39.0004         20.0004
  -1239238.88647   -934188.68545  22545747.6884   22545746.7734
        47.2504         34.5004
        41.736 5                  25528143.445
        33.250
    575894.39148    450261.62846  21208041.8054   21208039.0744
        51.5004         39.2504
   1436107.08548   1102514.71947  20823717.6174   20823714.9804
        50.5004         42.2504
   -891183.90846   -679652.48143  24774656.1724   24774654.1604
        40.5004         19.0004
   -441613.16848   -324678.78346  20377362.5864   20377360.5554
        50.7504         41.0004
 12  3 16 13 33 28.0000000  0  9G02G07G08G15G18G29G05G21G26
   2058415.36848   1574464.83945  21986170.2424   21986166.2074
        48.5004         33.7504
    842980.93446    652876.61643  24814033.2274   24814032.0904
        38.0004         18.5004
   -300280.44246   -219800.75243  24503752.0784   24503752.3484
        38.5004         20.0004
  -1242635.04847   -936835.04545  22545101.9694   22545100.4304
        47.5004         34.7504
     -2740.196 5                  25527613.039
        33.500
    575888.38848    450256.94846  21208040.4534   21208038.0594
        51.0004         39.5004
   1437541.69648   1103632.59847  20823990.5394   20823987.6094
        50.5004         42.0004
   -894283.31246   -682067.60543  24774067.5704   24774065.1254
        40.5004         18.5004
   -443421.92848   -326088.20946  20377018.4534   20377016.0594
        50.7504         41.0004
 12  3 16 13 33 29.0000000  0  9G02G07G08G15G18G29G05G21G26
   2061013.78348   1576489.57945  21986664.7664   21986660.9494
        49.0004         34.0004
    843431.99246    653228.12943  24814119.2424   24814118.2304
        37.2504         18.5004
   -301889.99246   -221054.96243  24503445.9384   24503446.2894
        38.7504         19.7504
  -1246030.99647   -939481.22745  22544455.6564   22544453.7704
        47.5004         34.5004
     -5522.203 5                  25527082.992
        33.500
    575882.99848    450252.74646  21208039.5474   21208037.0354
        51.2504         39.7504
   1438976.55648   1104750.67347  20824263.3524   20824260.6644
        50.5004         42.0004
   -897382.78846   -684482.78743  24773477.4064   24773474.7234
        40.5004         18.5004
   -445230.04948   -327497.13346  20376674.3444   20376672.1884
        51.0004         41.0004
 12  3 16 13 33 30.0000000  0  9G02G07G08G15G18G29G05G21G26
   2063612.07048   1578514.21845  21987159.3754   21987155.1024
        48.7504         33.5004
    843883.23246    653579.73443  24814205.7504   24814204.2584
        37.0004         18.5004
   -303499.56146   -222309.16243  24503139.3284   24503139.8754
        38.5004         20.0004
  -1249427.11147   -942127.54445  22543809.1024   22543808.1684
        47.5004         34.5004
     -8304.615 5                  25526554.148
        33.750
    575877.78148    450248.68346  21208038.5704   21208035.6134
        51.0004         39.7504
   1440411.23448   1105868.59847  20824536.4614   20824534.3244
        50.2504         42.0004
   -900482.78946   -686898.34643  24772887.6564   24772884.9844
        40.7504         18.2504
   -447037.92248   -328905.86146  20376330.3364   20376328.3524
        51.0004         41.0004
 12  3 16 13 33 31.0000000  0  9G02G07G08G15G18G29G05G21G26
   2066211.15648   1580539.48445  21987653.3594   21987649.6414
        48.5004         34.0004
    844335.46746    653932.12143  24814291.1884   24814290.2384
        37.2504         18.2504
   -305108.27946   -223562.70843  24502832.9924   24502833.9414
        38.5004         20.0004
  -1252822.47847   -944773.27845  22543163.1724   22543161.8754
        47.5004         34.5004
    -11086.571 5                  25526024.320
        35.000
    575873.66848    450245.47646  21208037.7664   21208035.2504
        51.0004         40.0004
   1441846.66848   1106987.12247  20824809.6254   20824807.0314
        50.2504         42.0004
   -903582.31646   -689313.54943  24772297.7194   24772295.2114
        41.0004         19.0004
   -448844.62848   -330313.68946  20375986.5394   20375984.3954
        50.7504         41.2504
 12  3 16 13 33 32.0000000  0  9G02G07G08G15G18G29G05G21G26
   2068810.32948   1582564.81145  21988147.7894   21988144.4924
        48.2504         34.0004
    844788.07046    654284.80342  24814376.7974   24814376.0084
        37.5004         17.7504
   -306716.74646   -224816.05343  24502526.8914   24502527.2814
        38.5004         20.2504
  -1256217.78547   -947418.97045  22542517.1804   22542515.5004
        47.7504         34.5004
    -13868.679 5                  25525495.461
        35.500
    575869.98648    450242.61246  21208037.0164   21208034.2464
        50.5004         40.0004
   1443282.14648   1108105.67547  20825082.6954   20825080.0474
        50.5004         42.2504
   -906682.15046   -691728.99943  24771707.5944   24771705.2154
        40.7504         19.2504
   -450650.86948   -331721.14746  20375642.7504   20375640.6884
        51.0004         41.0004
 12  3 16 13 33 33.0000000  0  9G02G07G08G15G18G29G05G21G26
   2071410.32448   1584590.78245  21988642.8054   21988639.4344
        48.5004         34.5004
    845241.73346    654638.32942  24814463.9064   24814462.5554
        37.2504         17.7504
   -308324.31746   -226068.69943  24502221.0004   24502221.7234
        39.2504         19.7504
  -1259612.34448   -950064.08145  22541871.3204   22541869.5664
        48.0004         35.0004
    -16650.218 6                  25524966.297
        36.000
    575867.43048    450240.61846  21208036.7114   21208033.8754
        51.0004         40.2504
   1444718.38348   1109224.81447  20825356.0314   20825353.7734
        50.2504         42.2504
   -909781.52946   -694144.12643  24771118.0084   24771115.6484
        41.0004         19.0004
   -452455.92148   -333127.68046  20375299.3524   20375297.0474
        51.5004         41.2504
 12  3 16 13 33 34.0000000  0  9G02G07G08G15G18G29G05G21G26
   2074010.60848   1586616.97245  21989137.4924   21989134.1024
        48.0004         33.7504
    845695.93946    654992.26242  24814550.4774   24814549.0164
        38.0004         17.7504
   -309931.49846   -227321.05543  24501915.8594   24501916.0944
        40.0004         19.7504
  -1263006.65348   -952708.99945  22541225.4224   22541223.5204
        48.0004         34.7504
    -19431.824 5                  25524437.203
        34.750
    575865.48048    450239.10546  21208036.1484   21208033.3484
        50.2504         40.2504
   1446154.86348   1110344.14547  20825629.4614   20825627.0594
        50.5004         42.0004
   -912880.99846   -696559.30543  24770528.2194   24770525.9844
        40.5004         19.0004
   -454260.32848   -334533.71246  20374956.0944   20374953.9574
        51.0004         41.5004
 12  3 16 13 33 35.0000000  0  9G02G07G08G15G18G29G05G21G26
   2076610.43848   1588642.80445  21989632.6334   21989629.1294
        48.5004         33.7504
    846149.96446    655346.02342  24814637.0004   24814635.4804
        37.7504         17.7504
   -311539.03546   -228573.70443  24501609.9224   24501610.4734
        40.0004         19.7504
  -1266401.42048   -955354.28045  22540579.6644   22540577.5664
        48.2504         34.5004
    -22214.127 5                  25523907.070
        35.750
    575863.41948    450237.50046  21208035.7894   21208033.5434
        50.5004         40.0004
   1447590.86848   1111463.11847  20825902.8134   20825900.4884
        50.5004         42.2504
   -915981.25446   -698975.10243  24769937.6414   24769935.3674
        40.5004         18.5004
   -456064.79948   -335939.79446  20374612.6564   20374610.4534
        51.0004         41.2504
 12  3 16 13 33 36.0000000  0  9G02G07G08G15G18G29G05G21G26
   2079211.36648   1590669.49645  21990127.6644   21990123.5044
        48.5004         33.5004
    846605.29846    655700.83242  24814723.7734   24814722.2234
        37.5004         17.7504
   -313145.32946   -229825.36743  24501303.9384   24501304.5554
        40.0004         19.7504
  -1269795.15648   -957998.74845  22539933.8284   22539931.5784
        48.5004         34.5004
    -24995.628 5                  25523377.750
        35.500
    575862.75348    450236.98146  21208036.1484   21208033.0434
        50.7504         40.0004
   1449027.89048   1112582.87647  20826176.5164   20826173.8014
        50.7504         42.0004
   -919080.81046   -701390.34743  24769348.0944   24769345.4844
        40.5004         18.5004
   -457867.81248   -337344.73846  20374269.5084   20374267.6024
        51.0004         41.0004
 12  3 16 13 33 37.0000000  0  9G02G07G08G15G18G29G05G21G26
   2081812.22548   1592696.13945  21990622.3444   21990618.6914
        48.7504         33.5004
    847060.86546    656055.81142  24814809.5234   24814809.0984
        37.2504         17.2504
   -314751.61046   -231077.01743  24500998.8134   24500998.6564
        40.0004         20.0004
  -1273188.99148   -960643.29245  22539287.9614   22539285.8484
        48.5004         34.2504
    -27777.502 5                  25522849.047
        35.500
    575862.35548    450236.66746  21208035.7664   21208032.9224
        50.7504         40.0004
   1450464.82448   1113702.56347  20826449.7504   20826447.0474
        50.7504         42.0004
   -922180.79046   -703805.90343  24768758.3284   24768755.4884
        40.2504         18.5004
   -459670.49248   -338749.42746  20373926.3204   20373924.4774
        51.0004         41.0004
 12  3 16 13 33 38.0000000  0  9G02G07G08G15G18G29G05G21G26
   2084413.89548   1594723.40945  21991117.7504   21991113.8914
        48.7504         33.5004
    847517.42946    656411.57343  24814896.6484   24814895.7424
        36.5004         18.2504
   -316356.96846   -232327.93143  24500692.8204   24500693.0744
        40.2504         20.0004
  -1276582.08748   -963287.25345  22538642.1174   22538640.1524
        48.0004         34.5004
    -30558.801 6                  25522319.078
        36.000
    575863.07948    450237.22646  21208035.3984   21208033.0784
        51.0004         40.0004
   1451902.51348   1114822.84047  20826723.1804   20826720.3134
        50.7504         42.0004
   -925280.34246   -706221.13743  24768168.3364   24768165.6334
        40.5004         19.0004
   -461472.02148   -340153.22046  20373583.3204   20373581.0704
        51.2504         41.2504
 12  3 16 13 33 39.0000000  0  9G02G07G08G15G18G29G05G21G26
   2087015.99048   1596751.01445  21991612.5474   21991609.2304
        49.0004         34.2504
    847974.71146    656767.90142  24814983.5084   24814982.3954
        36.5004         17.7504
   -317961.77546   -233578.41143  24500387.2814   24500387.6994
        39.5004         20.2504
  -1279974.77748   -965930.90945  22537996.1414   22537994.2894
        48.0004         34.5004
    -33339.960 6                  25521789.391
        36.250
    575864.56548    450238.38646  21208035.9924   21208033.2194
        50.7504         40.0004
   1453340.58448   1115943.41047  20826996.9614   20826994.3284
        50.5004         42.0004
   -928379.83346   -708636.30843  24767578.3284   24767576.1484
        40.5004         19.2504
   -463272.75148   -341556.38046  20373240.7114   20373238.8164
        51.0004         41.0004
 12  3 16 13 33 40.0000000  0  9G02G07G08G15G18G29G05G21G26
   2089618.15748   1598778.67345  21992107.7664   21992104.1094
        48.7504         34.0004
    848432.33246    657124.49743  24815070.4774   24815069.2774
        37.2504         18.5004
   -319566.47146   -234828.83043  24500082.7504   24500082.4884
        39.0004         20.2504
  -1283367.45748   -968574.55445  22537350.5474   22537348.6414
        48.2504         34.5004
    -36121.354 6                  25521260.305
        36.250
    575866.42348    450239.82646  21208036.5004   21208033.3284
        51.0004         40.0004
   1454778.66248   1117063.99147  20827270.7034   20827267.8364
        50.5004         42.2504
   -931479.63446   -711051.71243  24766987.9924   24766986.0664
        40.2504         19.0004
   -465073.04848   -342959.20646  20372898.4384   20372896.0784
        51.2504         41.0004
 12  3 16 13 33 41.0000000  0  9G02G07G08G15G18G29G05G21G26
   2092220.32148   1600806.33145  21992602.7344   21992599.2814
        48.2504         34.0004
    848890.16746    657481.25343  24815157.5394   24815156.6094
        37.0004         18.2504
   -321170.98346   -236079.14943  24499776.8444   24499777.2034
        39.2504         20.0004
  -1286760.20748   -971218.25645  22536705.2504   22536702.8984
        48.5004         34.5004
    -38903.026 6                  25520731.336
        36.500
    575868.59548    450241.51846  21208036.8984   21208033.8984
        51.2504         40.2504
   1456216.68948   1118184.53147  20827544.1094   20827541.6604
        50.7504         42.2504
   -934579.80646   -713467.44043  24766397.9924   24766396.4144
        40.5004         19.2504
   -466872.96648   -344361.73946  20372555.7194   20372553.7544
        51.2504         41.0004
 12  3 16 13 33 42.0000000  0  9G02G07G08G15G18G29G05G21G26
   2094823.37848   1602834.68345  21993097.9924   21993094.9104
        48.0004         33.5004
    849349.11246    657838.84743  24815245.2034   24815243.9144
        37.0004         18.2504
   -322774.56946   -237328.64843  24499471.4144   24499472.0314
        39.5004         20.0004
  -1290152.05548   -973861.24745  22536059.6094   22536057.6884
        48.5004         34.2504
    -41684.073 6                  25520202.523
        36.000
    575871.97748    450244.15646  21208037.0944   21208034.6294
        51.0004         40.0004
   1457655.57948   1119305.73947  20827818.2034   20827815.4454
        51.0004         42.2504
   -937679.43946   -715882.75243  24765808.6884   24765806.0594
        40.5004         19.7504
   -468671.62748   -345763.28946  20372213.6954   20372211.5084
        51.5004         41.0004
 12  3 16 13 33 43.0000000  0  9G02G07G08G15G18G29G05G21G26
   2097426.27848   1604862.91245  21993593.1884   21993590.0984
        48.0004         33.5004
    849808.19146    658196.58842  24815332.5474   24815331.1724
        36.7504         17.7504
   -324378.16646   -238578.20443  24499165.6094   24499166.9224
        40.2504         20.2504
  -1293544.16348   -976504.45145  22535414.1094   22535412.2814
        48.0004         34.2504
    -44465.619 6                  25519673.234
        36.750
    575875.52148    450246.92046  21208038.3914   21208035.3204
        51.0004         39.5004
   1459094.23648   1120426.77747  20828091.8054   20828088.9734
        50.5004         42.2504
   -940779.64046   -718298.50643  24765218.6884   24765216.4494
        40.2504         19.5004
   -470470.08048   -347164.68146  20371871.1954   20371869.4804
        52.0004         41.0004
 12  3 16 13 33 44.0000000  0  9G02G07G08G15G18G29G05G21G26
   2100029.87748   1606891.68645  21994089.1484   21994085.6414
        48.2504         33.5004
    850268.18546    658555.03443  24815419.8444   24815418.3874
        36.2504         18.2504
   -325980.96146   -239827.12543  24498861.6724   24498861.8554
        39.5004         20.0004
  -1296935.57147   -979147.10345  22534769.2274   22534766.6724
        47.5004         34.2504
    -47246.753 6                  25519142.398
        37.000
    575880.10148    450250.48746  21208039.0234   21208036.3404
        50.7504         40.0004
   1460533.55848   1121548.32447  20828365.8754   20828363.3364
        50.5004         42.2504
   -943879.46646   -720713.97143  24764628.9454   24764626.4224
        40.2504         19.7504
   -472267.41348   -348565.20846  20371529.4144   20371527.1294
        52.0004         41.0004
 12  3 16 13 33 45.0000000  0  9G02G07G08G15G18G29G05G21G26
   2102633.73748   1608920.66545  21994584.3594   21994581.2544
        48.5004         33.5004
    850728.74046    658913.90742  24815507.7814   24815506.1374
        36.7504         17.7504
   -327583.40546   -241075.79843  24498555.9694   24498556.7774
        40.5004         20.0004
  -1300326.79247   -981789.60845  22534123.4384   22534121.7664
        47.5004         34.5004
    -50027.900 6                  25518614.320
        37.250
    575885.21948    450254.47446  21208040.2114   21208037.4344
        50.5004         39.5004
   1461973.08348   1122670.03447  20828639.4534   20828637.0824
        51.0004         42.0004
   -946979.39846   -723129.49143  24764039.2974   24764036.7704
        40.5004         19.5004
   -474064.17048   -349965.28046  20371187.4144   20371185.4024
        51.7504         40.7504
 12  3 16 13 33 46.0000000  0  9G02G07G08G15G18G29G05G21G26
   2105237.80048   1610949.79945  21995080.3364   21995076.5864
        48.5004         33.7504
    851189.71446    659273.11142  24815595.7344   24815593.2034
        37.5004         17.7504
   -329185.52546   -242324.20343  24498251.3914   24498252.1054
        40.7504         20.0004
  -1303717.83847   -984431.97745  22533478.3444   22533476.1414
        47.5004         34.5004
    -52809.110 6                  25518085.516
        37.500
    575890.89548    450258.89346  21208041.2584   21208038.4184
        50.7504         39.5004
   1463412.77148   1123791.86347  20828913.6254   20828911.0164
        51.0004         42.5004
   -950079.53846   -725545.18943  24763449.1254   24763446.4104
        40.0004         19.5004
   -475860.33448   -351364.88446  20370845.5474   20370843.4344
        51.5004         40.7504
 12  3 16 13 33 47.0000000  0  9G02G07G08G15G18G29G05G21G26
   2107842.58048   1612979.50245  21995575.6254   21995572.5004
        48.7504         34.0004
    851651.63346    659633.05742  24815683.7734   24815680.7154
        37.2504         17.7504
   -330786.79746   -243571.93743  24497947.0394   24497947.6954
        41.2504         20.0004
  -1307108.19547   -987073.80945  22532832.7894   22532831.4304
        47.7504         34.0004
    -55589.881 6                  25517556.898
        37.500
    575897.59648    450264.11246  21208042.5394   21208039.8914
        50.7504         39.7504
   1464853.12848   1124914.22347  20829187.7194   20829184.7624
        51.0004         42.2504
   -953179.27846   -727960.57143  24762858.8594   24762856.9614
        40.0004         19.2504
   -477655.39048   -352763.63446  20370504.0554   20370501.8284
        52.0004         41.0004
 12  3 16 13 33 48.0000000  0  9G02G07G08G15G18G29G05G21G26
   2110447.55648   1615009.35045  21996071.0634   21996067.6994
        48.7504         33.5004
    852114.02445    659993.35042  24815770.4844   24815767.7274
        35.5004         17.2504
   -332387.81646   -244819.48443  24497642.6564   24497642.5704
        41.0004         20.2504
  -1310498.42148   -989715.54245  22532187.8204   22532186.3914
        48.0004         34.7504
    -58370.717 6                  25517026.742
        36.500
    575904.81948    450269.74146  21208043.7734   21208041.1024
        51.0004         39.7504
   1466293.62148   1126036.68047  20829461.5474   20829459.0124
        50.2504         42.2504
   -956279.21446   -730376.11343  24762269.6804   24762267.0634
        40.0004         19.0004
   -479449.91348   -354161.96146  20370162.5634   20370160.5784
        51.7504         41.0004
 12  3 16 13 33 49.0000000  0  9G02G07G08G15G18G29G05G21G26
   2113052.66748   1617039.30245  21996567.3204   21996563.5664
        48.2504         33.5004
    852576.84646    660353.97542  24815860.3134   24815857.2734
        36.0004         17.2504
   -333988.55646   -246066.80543  24497338.5784   24497338.2464
        41.0004         20.0004
  -1313888.53748   -992357.18845  22531542.8834   22531541.1024
        48.0004         34.5004
    -61151.859 6                  25516497.156
        36.500
    575912.49648    450275.72546  21208045.1484   21208042.3754
        51.0004         40.0004
   1467734.20448   1127159.21547  20829736.0474   20829733.0434
        50.2504         42.5004
   -959379.38046   -732791.83243  24761679.4454   24761677.1684
        40.0004         19.0004
   -481243.88848   -355559.86946  20369821.0864   20369819.2074
        51.0004         40.5004
 12  3 16 13 33 50.0000000  0  9G02G07G08G15G18G29G05G21G26
   2115657.90748   1619069.36445  21997062.6564   21997059.0514
        48.2504         34.0004
    853040.01146    660714.88842  24815947.9454   24815945.5164
        36.0004         16.7504
   -335589.05946   -247313.94643  24497033.7114   24497033.9224
        40.7504         20.2504
  -1317278.56348   -994998.77045  22530897.4384   22530895.9024
        48.0004         34.7504
    -63933.006 6                  25515968.922
        36.250
    575920.60348    450282.04046  21208047.0704   21208044.3204
        51.0004         39.7504
   1469174.85848   1128281.80047  20830010.0004   20830007.2974
        50.2504         42.2504
   -962479.81246   -735207.72343  24761089.1644   24761086.5944
        40.2504         19.2504
   -483037.40748   -356957.41246  20369479.7034   20369477.8524
        51.2504         40.5004
 12  3 16 13 33 51.0000000  0  9G02G07G08G15G18G29G05G21G26
   2118264.13548   1621100.18445  21997558.5554   21997555.1954
        48.5004         34.2504
    853504.40046    661076.76342  24816035.9454   24816034.0664
        36.0004         16.7504
   -337188.45146   -248560.22743  24496728.6254   24496729.4924
        40.5004         20.0004
  -1320667.65048   -997639.61045  22530252.5704   22530251.4574
        48.2504         34.5004
    -66713.495 6                  25515438.789
        36.750
    575930.04348    450289.39946  21208048.5164   21208045.6524
        51.0004         40.0004
   1470616.48148   1129405.14447  20830284.3834   20830281.6094
        50.2504         42.2504
   -965579.57946   -737623.12143  24760499.0314   24760496.9454
        40.0004         19.7504
   -484829.52548   -358353.86146  20369138.8364   20369136.7234
        51.0004         40.5004
 12  3 16 13 33 52.0000000  0  9G02G07G08G15G18G29G05G21G26
   2120870.30948   1623130.96845  21998054.6254   21998051.0744
        48.2504         34.0004
    853969.00446    661438.78842  24816123.5164   24816122.3134
        36.5004         16.7504
   -338787.79246   -249806.47943  24496424.2974   24496424.9694
        41.0004         20.0004
  -1324056.82348  -1000280.52145  22529607.8054   22529606.2544
        48.0004         34.5004
    -69494.321 6                  25514909.680
        37.250
    575939.74848    450296.96446  21208050.7424   21208047.9804
        51.0004         40.0004
   1472058.00748   1130528.41547  20830558.8054   20830556.3794
        50.7504         42.0004
   -968679.80746   -740038.89643  24759909.7584   24759907.1564
        39.7504         19.5004
   -486621.32048   -359750.06246  20368797.7344   20368795.4064
        51.0004         40.7504
 12  3 16 13 33 53.0000000  0  9G02G07G08G15G18G29G05G21G26
   2123476.96348   1625162.12545  21998550.6564   21998547.2664
        48.2504         34.0004
    854434.35646    661801.43042  24816213.2974   24816210.3874
        37.0004         17.2504
   -340386.56546   -251052.28643  24496120.3444   24496120.6954
        40.5004         20.2504
  -1327445.58747  -1002921.11845  22528962.8754   22528961.3874
        47.5004         34.5004
    -72274.909 6                  25514380.227
        37.000
    575950.24148    450305.13346  21208052.6564   21208049.6844
        51.0004         40.2504
   1473499.93448   1131651.98747  20830833.1884   20830830.4184
        50.5004         42.0004
   -971779.88346   -742454.55943  24759319.2974   24759316.9184
        40.2504         19.0004
   -488412.27248   -361145.61246  20368457.0084   20368454.7974
        51.0004         40.7504
 12  3 16 13 33 54.0000000  0  9G02G07G08G15G18G29G05G21G26
   2126084.25148   1627193.77745  21999047.2424   21999043.0864
        48.2504         34.0004
    854900.53546    662164.71142  24816302.5234   24816298.9614
        37.5004         17.2504
   -341984.59246   -252297.50843  24495816.2974   24495817.0514
        40.5004         20.5004
  -1330833.72847  -1005561.22345  22528317.9694   22528316.7424
        47.2504         34.0004
    -75055.171 6                  25513850.578
        37.750
    575961.69448    450314.06746  21208054.7424   21208051.9774
        50.7504         40.5004
   1474942.45748   1132776.03447  20831107.8444   20831105.1294
        50.5004         42.5004
   -974879.73146   -744870.00743  24758729.7664   24758726.8874
        40.2504         19.0004
   -490202.23448   -362540.38146  20368116.2894   20368113.8134
        51.0004         40.7504
 12  3 16 13 33 55.0000000  0  9G02G07G08G15G18G29G05G21G26
   2128691.13648   1629225.11645  21999543.0164   21999539.6254
        48.7504         34.2504
    855366.60846    662527.90142  24816390.9614   24816387.7504
        37.0004         16.7504
   -343582.89146   -253542.93543  24495511.8754   24495512.8094
        40.5004         20.2504
  -1334222.30447  -1008201.67345  22527673.1884   22527672.1054
        47.5004         35.0004
    -77836.153 6                  25513321.180
        38.000
    575973.06748    450322.92946  21208056.7424   21208054.0274
        51.0004         40.5004
   1476384.54848   1133899.73647  20831382.0864   20831379.3674
        50.5004         42.2504
   -977980.34646   -747286.07143  24758139.9694   24758136.9884
        40.5004         18.5004
   -491992.20048   -363935.16446  20367775.7114   20367773.6174
        51.2504         40.7504
 12  3 16 13 33 56.0000000  0  9G02G07G08G15G18G29G05G21G26
   2131298.75848   1631257.03145  22000039.0164   22000035.8444
        49.0004         33.5004
    855833.65946    662891.81742  24816480.1954   24816476.1174
        37.5004         16.7504
   -345180.37446   -254787.71143  24495207.5944   24495208.8094
        40.7504         20.2504
  -1337610.18948  -1010841.58145  22527028.5554   22527027.2384
        48.0004         34.7504
    -80616.675 6                  25512791.758
        37.750
    575985.50148    450332.61446  21208059.2344   21208056.2074
        51.2504         40.2504
   1477827.31148   1135023.97547  20831656.9304   20831653.9454
        50.7504         42.2504
   -981080.58746   -749701.84643  24757550.1254   24757547.1484
        40.2504         19.0004
   -493781.05548   -365329.08446  20367435.2114   20367433.5824
        51.2504         40.7504
 12  3 16 13 33 57.0000000  0  9G02G07G08G15G18G29G05G21G26
   2133906.86848   1633289.31945  22000535.2194   22000531.8984
        49.0004         33.5004
    856301.43446    663256.29642  24816568.2114   24816565.4144
        37.7504         17.2504
   -346777.23646   -256032.01743  24494903.9844   24494904.8954
        40.5004         20.5004
  -1340997.64148  -1013481.15645  22526383.8054   22526382.7114
        48.2504         34.7504
    -83396.935 6                  25512262.906
        38.000
    575998.74048    450342.92546  21208061.4694   21208058.8634
        51.0004         40.2504
   1479270.51548   1136148.54547  20831931.0634   20831928.3714
        50.7504         42.5004
   -984180.68246   -752117.51943  24756960.0394   24756956.8954
        40.0004         18.5004
   -495569.06948   -366722.34746  20367095.0314   20367092.7034
        51.5004         41.0004
 12  3 16 13 33 58.0000000  0  9G02G07G08G15G18G29G05G21G26
   2136515.21548   1635321.79245  22001031.8984   22001028.4024
        49.0004         33.7504
    856769.73446    663621.19542  24816658.0704   24816654.6724
        37.7504         17.2504
   -348373.77546   -257276.06443  24494600.0864   24494601.1214
        40.5004         20.0004
  -1344384.89148  -1016120.57445  22525739.2664   22525737.9184
        48.0004         34.2504
    -86177.287 6                  25511733.914
        38.250
    576012.52548    450353.66446  21208063.8674   21208061.4534
        50.7504         40.5004
   1480713.91048   1137273.26447  20832206.0474   20832203.3594
        50.5004         42.0004
   -987280.92546   -754533.28843  24756370.2504   24756367.2234
        40.5004         19.0004
   -497356.47248   -368115.12046  20366754.7274   20366752.9024
        51.2504         41.0004
 12  3 16 13 33 59.0000000  0  9G02G07G08G15G18G29G05G21G26
   2139123.86448   1637354.49545  22001528.3524   22001525.1254
        48.7504         33.7504
    857238.52746    663986.47942  24816746.6644   24816744.2274
        37.2504         17.2504
   -349969.88846   -258519.78643  24494296.3284   24494297.4884
        41.0004         20.0004
  -1347771.86748  -1018759.76945  22525094.9224   22525093.5984
        48.5004         34.5004
    -88957.603 6                  25511206.023
        38.500
    576026.94748    450364.90146  21208066.9224   21208063.8984
        50.5004         40.2504
   1482157.55548   1138398.18947  20832480.7114   20832477.9654
        50.7504         42.2504
   -990381.25646   -756949.12843  24755779.4534   24755777.0084
        40.5004         19.0004
   -499143.19448   -369507.37546  20366414.7194   20366412.7584
        50.7504         41.0004
 12  3 16 13 34  0.0000000  0  9G02G07G08G15G18G29G05G21G26
   2141733.21648   1639387.75645  22002024.9924   22002021.1994
        48.5004         33.5004
    857708.32146    664352.53442  24816835.3754   24816833.0124
        37.0004         16.7504
   -351565.16546   -259762.85343  24493992.4304   24493993.7504
        40.2504         20.2504
  -1351158.18648  -1021398.46145  22524450.1884   22524449.1884
        48.0004         34.2504
    -91737.527 6                  25510676.953
        38.500
    576042.39348    450376.93646  21208070.0864   21208067.2974
        50.7504         40.5004
   1483601.86048   1139523.61447  20832755.4534   20832752.8244
        50.5004         42.2504
   -993481.24346   -759364.69443  24755189.8674   24755187.2974
        40.2504         19.0004
   -500928.85048   -370898.79746  20366074.8984   20366073.0164
        50.7504         41.0004
 12  3 16 13 34  1.0000000  0  9G02G07G08G15G18G29G05G21G26
   2144342.14748   1641420.68645  22002521.3444   22002518.0554
        48.5004         33.2504
    858177.92046    664718.48442  24816924.5784   24816922.3914
        37.5004         17.2504
   -353160.77346   -261006.20843  24493689.2344   24493690.0984
        40.0004         19.7504
  -1354544.96647  -1024037.50745  22523806.0004   22523804.0164
        47.7504         34.2504
    -94518.131 6                  25510148.211
        39.250
    576057.71848    450388.87446  21208072.8444   21208069.7544
        50.7504         40.2504
   1485045.69748   1140648.68647  20833030.2424   20833027.8594
        51.0004         42.5004
   -996582.00346   -761780.85343  24754599.9304   24754597.1684
        40.0004         19.2504
   -502714.53648   -372290.24146  20365735.5234   20365733.1294
        51.0004         41.0004
 12  3 16 13 34  2.0000000  0  9G02G07G08G15G18G29G05G21G26
   2146951.84848   1643454.22045  22003017.7974   22003014.4884
        48.5004         33.5004
    858648.54746    665085.22542  24817014.0784   24817012.0274
        36.7504         17.2504
   -354755.51746   -262248.88443  24493385.4774   24493386.5664
        39.7504         19.7504
  -1357931.02647  -1026676.00045  22523161.3284   22523159.8674
        47.5004         34.0004
    -97298.293 6                  25509619.625
        39.250
    576074.14648    450401.67846  21208076.2034   21208072.7704
        51.0004         40.2504
   1486490.25448   1141774.31447  20833305.0634   20833302.6174
        51.0004         42.5004
   -999682.38346   -764196.73343  24754010.0634   24754007.3324
        40.0004         19.7504
   -504499.08548   -373680.79346  20365396.0084   20365393.7504
        51.0004         41.0004
 12  3 16 13 34  3.0000000  0  9G02G07G08G15G18G29G05G21G26
   2149562.38648   1645488.41145  22003514.6954   22003511.0124
        48.5004         33.5004
    859120.24546    665452.75242  24817103.9384   24817101.9614
        36.0004         16.7504
   -356349.28346   -263490.77943  24493082.1024   24493083.3164
        40.0004         19.5004
  -1361316.28847  -1029313.87545  22522517.6334   22522515.5704
        47.5004         34.5004
   -100077.868 6                  25509090.961
        39.500
    576091.73148    450415.37746  21208079.3594   21208076.2114
        51.0004         40.5004
   1487935.58948   1142900.55147  20833580.1174   20833577.4024
        51.0004         42.5004
  -1002782.25946   -766612.24043  24753420.1954   24753417.0204
        40.0004         20.0004
   -506282.41848   -375070.40746  20365056.5314   20365054.1294
        51.0004         41.0004
 12  3 16 13 34  4.0000000  0  9G02G07G08G15G18G29G05G21G26
   2152172.04648   1647521.91245  22004011.1094   22004007.6764
        48.2504         33.7504
    859591.34645    665819.84242  24817193.3594   24817191.4844
        35.7504         16.7504
   -357943.80346   -264733.25543  24492778.7424   24492779.7424
        39.5004         19.2504
  -1364702.42947  -1031952.41745  22521873.2814   22521871.1724
        47.2504         34.0004
   -102858.594 6                  25508562.125
        38.750
    576108.76248    450428.65146  21208082.6724   21208079.7734
        51.2504         40.2504
   1489380.04948   1144026.09947  20833854.7734   20833852.5234
        50.7504         42.2504
  -1005883.37646   -769028.71243  24752829.9144   24752826.8674
        40.2504         19.5004
   -508066.25048   -376460.40246  20364717.1484   20364714.7304
        51.0004         41.0004
 12  3 16 13 34  5.0000000  0  9G02G07G08G15G18G29G05G21G26
   2154783.66648   1649556.93645  22004507.9694   22004504.5314
        48.2504         33.5004
    860064.65745    666188.64742  24817283.4384   24817281.6414
        35.7504         16.7504
   -359536.30046   -265974.15343  24492475.4774   24492477.0234
        40.0004         19.2504
  -1368086.67647  -1034589.48645  22521229.3444   22521227.2814
        47.5004         33.7504
   -105637.600 6                  25508032.836
        39.250
    576128.08148    450443.70646  21208086.2664   21208083.4844
        51.5004         40.2504
   1490826.40048   1145153.13047  20834130.1644   20834127.8754
        50.7504         42.2504
  -1008982.97246   -771443.94243  24752240.0784   24752237.1334
        40.5004         19.5004
   -509847.75148   -377848.58146  20364378.2344   20364376.1214
        50.7504         41.2504
 12  3 16 13 34  6.0000000  0  9G02G07G08G15G18G29G05G21G26
   2157393.92748   1651590.90245  22005004.8834   22005001.2234
        48.5004         33.5004
    860536.84146    666556.57942  24817372.8364   24817371.6134
        36.0004         17.2504
   -361130.01546   -267216.00643  24492172.2664   24492173.8674
        39.2504         19.5004
  -1371472.33247  -1037227.65245  22520585.2274   22520582.6764
        47.7504         34.0004
   -108418.329 6                  25507504.008
        39.000
    576146.33148    450457.93046  21208089.7974   21208086.7034
        51.2504         40.2504
   1492271.31848   1146279.03547  20834405.0784   20834402.4964
        50.7504         42.5004
  -1012084.21246   -773860.53343  24751650.6564   24751646.9024
        40.0004         19.2504
   -511630.24748   -379237.54046  20364038.8134   20364036.4184
        51.0004         41.0004
 12  3 16 13 34  7.0000000  0  9G02G07G08G15G18G29G05G21G26
   2160005.74848   1653626.08745  22005501.8444   22005498.4304
        48.5004         34.2504
    861010.86845    666925.95842  24817462.2584   24817459.8284
        35.5004         16.7504
   -362722.10046   -268456.60343  24491869.5164   24491870.5864
        39.2504         19.7504
  -1374856.49948  -1039864.66745  22519941.0234   22519938.7034
        48.2504         34.0004
   -111197.781 6                  25506975.070
        39.000
    576166.47248    450473.61946  21208093.4924   21208090.7504
        51.2504         40.5004
   1493717.72848   1147406.10647  20834680.2974   20834677.7464
        50.7504         42.2504
  -1015184.34046   -776276.22743  24751059.6724   24751057.1254
        39.5004         19.2504
   -513410.82148   -380625.00146  20363699.7734   20363697.6374
        51.0004         40.7504
 12  3 16 13 34  8.0000000  0  9G02G07G08G15G18G29G05G21G26
   2162618.09248   1655661.67945  22005999.2344   22005995.5824
        48.0004         34.0004
    861485.61145    667295.89142  24817554.5474   24817552.0634
        35.7504         16.7504
   -364313.50646   -269696.67043  24491566.6954   24491568.1024
        39.2504         19.7504
  -1378240.12748  -1042501.25345  22519297.2424   22519294.7704
        48.5004         34.5004
   -113976.996 6                  25506445.336
        39.000
    576187.45748    450489.96946  21208097.0394   21208094.3324
        50.7504         40.7504
   1495164.66648   1148533.59347  20834956.2894   20834953.3754
        51.0004         42.2504
  -1018284.25346   -778691.72843  24750470.0234   24750466.9964
        39.7504         19.0004
   -515190.48948   -382011.75546  20363361.7814   20363359.4774
        51.0004         41.0004
 12  3 16 13 34  9.0000000  0  9G02G07G08G15G18G29G05G21G26
   2165230.00347   1657696.92045  22006496.1804   22006492.9344
        47.7504         34.0004
    861960.24546    667665.75342  24817644.6884   24817642.3054
        36.2504         16.7504
   -365905.28346   -270936.98043  24491263.8444   24491264.7704
        39.7504         19.2504
  -1381624.25948  -1045138.24345  22518653.4224   22518650.7194
        49.0004         34.2504
   -116756.865 6                  25505916.195
        38.500
    576208.33748    450506.24146  21208101.3364   21208098.5204
        50.7504         40.7504
   1496611.08548   1149660.67447  20835231.1174   20835228.5164
        50.5004         42.5004
  -1021384.98246   -781107.88543  24749880.1954   24749877.0124
        39.5004         18.5004
   -516970.20648   -383398.55346  20363022.6954   20363020.7384
        51.2504         41.0004
 12  3 16 13 34 10.0000000  0  9G02G07G08G15G18G29G05G21G26
   2167842.49848   1659732.63145  22006992.8364   22006989.8204
        48.0004         34.0004
    862435.64646    668036.18242  24817734.4774   24817732.9654
        36.0004         16.2504
   -367496.38246   -272176.79343  24490961.1884   24490961.7304
        39.5004         19.2504
  -1385007.83448  -1047774.79445  22518009.8134   22518007.0004
        49.0004         34.2504
   -119536.498 6                  25505387.195
        37.500
    576230.11348    450523.20646  21208105.3834   21208103.0744
        51.0004         40.2504
   1498058.06048   1150788.18947  20835506.1644   20835504.0434
        50.5004         42.5004
  -1024485.51446   -783523.90143  24749289.8984   24749286.9574
        39.7504         18.5004
   -518748.97748   -384784.60946  20362684.1564   20362682.2234
        51.0004         40.7504
 12  3 16 13 34 11.0000000  0  9G02G07G08G15G18G29G05G21G26
   2170454.63348   1661768.06545  22007490.3134   22007487.0944
        48.2504         33.7504
    862910.94545    668406.50342  24817825.4774   24817823.2974
        35.5004         16.2504
   -369087.60146   -273416.74543  24490658.3364   24490658.9494
        38.7504         19.5004
  -1388391.79948  -1050411.65245  22517365.5164   22517363.3164
        48.7504         34.0004
   -122316.733 6                  25504858.727
        38.000
    576251.86548    450540.15246  21208109.5704   21208106.7034
        51.0004         40.0004
   1499504.61848   1151915.37047  20835781.4304   20835779.1294
        50.5004         42.5004
  -1027586.74546   -785940.44243  24748700.1644   24748697.5704
        39.7504         18.5004
   -520527.71348   -386170.63546  20362345.6564   20362343.6564
        51.0004         41.0004
 12  3 16 13 34 12.0000000  0  9G02G07G08G15G18G29G05G21G26
   2173068.59648   1663804.91445  22007987.6564   22007984.4184
        48.5004         34.2504
    863388.34245    668778.52842  24817916.0474   24817914.3794
        35.5004         16.2504
   -370676.96746   -274655.24743  24490355.3524   24490356.9344
        38.0004         19.0004
  -1391773.98948  -1053047.12745  22516722.0234   22516719.5274
        48.5004         34.7504
   -125095.450 6                  25504329.953
        39.000
    576275.76248    450558.77446  21208114.5004   21208111.2194
        51.2504         39.7504
   1500952.97148   1153043.96147  20836057.4144   20836054.6764
        50.2504         42.2504
  -1030686.54046   -788355.85942  24748110.7274   24748107.4804
        39.5004         17.7504
   -522304.26248   -387554.95846  20362007.7814   20362005.6564
        51.2504         41.0004
 12  3 16 13 34 13.0000000  0  9G02G07G08G15G18G29G05G21G26
   2175681.61348   1665841.02745  22008484.8674   22008481.9384
        48.0004         34.0004
    863865.08245    669150.00142  24818005.0394   24818003.9224
        33.7504         16.7504
   -372267.17146   -275894.33743  24490053.2894   24490054.3714
        37.5004         19.0004
  -1395157.12748  -1055683.33745  22516078.0004   22516076.0314
        48.2504         34.2504
   -127875.342 6                  25503800.250
        38.250
    576299.03748    450576.91546  21208118.8524   21208116.3284
        51.0004         40.0004
   1502400.32148   1154171.77047  20836332.5944   20836330.1134
        50.2504         42.2504
  -1033787.58846   -790772.24543  24747519.6334   24747517.0744
        39.7504         18.2504
   -524081.35448   -388939.70846  20361669.1174   20361667.2624
        51.0004         40.7504
 12  3 16 13 34 14.0000000  0  9G02G07G08G15G18G29G05G21G26
   2178295.46948   1667877.79845  22008982.3754   22008979.1094
        48.0004         34.0004
    864342.83645    669522.29942  24818096.5864   24818096.4774
        33.5004         16.7504
   -373856.39746   -277132.67243  24489751.0474   24489752.0394
        37.7504         18.5004
  -1398539.52548  -1058318.97645  22515434.3444   22515432.5944
        48.0004         34.7504
   -130654.744 6                  25503271.625
        39.500
    576323.44748    450595.93646  21208123.4844   21208120.3874
        50.5004         40.0004
   1503848.44248   1155300.17447  20836608.4144   20836605.8404
        50.2504         42.2504
  -1036888.24046   -793188.33343  24746930.1094   24746927.0744
        39.5004         18.2504
   -525857.26748   -390323.53846  20361331.4384   20361329.5204
        51.2504         40.5004
 12  3 16 13 34 15.0000000  0  9G02G07G08G15G18G29G05G21G26
   2180909.66748   1669914.83245  22009479.6174   22009476.8594
        48.0004         34.0004
    864821.25645    669895.13442  24818187.7504   24818187.4844
        33.5004         16.2504
   -375445.23846   -278370.72743  24489448.3134   24489449.6094
        37.7504         19.2504
  -1401921.58147  -1060954.34545  22514790.5234   22514788.6954
        47.7504         34.5004
   -133434.089 6                  25502742.367
        39.250
    576348.52848    450615.46946  21208128.0394   21208125.2114
        51.0004         40.0004
   1505296.87548   1156428.81747  20836884.0474   20836881.1644
        50.0004         42.0004
  -1039988.87846   -795604.43243  24746339.6254   24746336.9734
        38.5004         18.2504
   -527632.44048   -391706.78246  20360993.7584   20360991.6214
        52.0004         40.5004
 12  3 16 13 34 16.0000000  0  9G02G07G08G15G18G29G05G21G26
   2183524.55648   1671952.41145  22009977.3914   22009974.3714
        48.0004         33.7504
    865300.52845    670268.58842  24818279.1564   24818278.5314
        33.5004         17.2504
   -377033.18946   -279608.09343  24489146.4694   24489147.3794
        38.5004         19.7504
  -1405303.00447  -1063589.21045  22514147.3364   22514145.1764
        47.5004         34.7504
   -136213.031 6                  25502213.188
        39.000
    576374.61648    450635.80346  21208133.3134   21208130.3634
        51.0004         40.2504
   1506745.93548   1157557.95547  20837159.7814   20837157.1374
        50.7504         42.0004
  -1043089.21546   -798020.28143  24745750.3284   24745747.1684
        39.2504         18.5004
   -529406.58348   -393089.23446  20360656.1094   20360654.0124
        51.5004         40.5004
 12  3 16 13 34 17.0000000  0  9G02G07G08G15G18G29G05G21G26
   2186139.16848   1673989.76845  22010475.0164   22010472.2194
        48.0004         33.5004
    865779.81345    670642.04742  24818370.3834   24818370.0044
        33.0004         16.7504
   -378621.37346   -280845.64243  24488844.2584   24488845.1174
        38.5004         20.0004
  -1408684.74248  -1066224.32945  22513503.5164   22513501.6564
        48.0004         34.2504
   -138992.509 6                  25501684.281
        38.000
    576400.76748    450656.17946  21208138.3364   21208135.6174
        51.0004         40.2504
   1508194.69348   1158686.85547  20837435.1644   20837432.7664
        50.7504         42.2504
  -1046190.16446   -800436.60043  24745160.1954   24745156.9534
        39.2504         18.2504
   -531180.57948   -394471.57246  20360318.2814   20360316.0984
        51.2504         40.5004
 12  3 16 13 34 18.0000000  0  9G02G07G08G15G18G29G05G21G26
   2188754.76148   1676027.88545  22010973.1954   22010969.4304
        48.2504         33.7504
    866260.33945    671016.43742  24818462.4614   24818461.4494
        32.5004         16.7504
   -380208.42446   -282082.32643  24488541.9224   24488542.7034
        39.2504         20.0004
  -1412065.51647  -1068858.69745  22512860.1334   22512858.6804
        47.5004         34.7504
   -141771.297 6                  25501156.125
        38.000
    576428.19248    450677.55046  21208143.4064   21208140.4184
        51.2504         40.0004
   1509644.36848   1159816.47547  20837711.3134   20837708.9224
        51.0004         42.2504
  -1049290.49646   -802852.44843  24744569.9694   24744566.8014
        39.5004         18.2504
   -532953.25248   -395852.87346  20359981.4614   20359978.9264
        51.2504         40.5004
 12  3 16 13 34 19.0000000  0  9G02G07G08G15G18G29G05G21G26
   2191370.49248   1678066.11645  22011470.7194   22011467.4844
        48.5004         34.2504
    866741.21845    671391.11342  24818552.9614   24818552.7234
        33.5004         16.2504
   -381795.24446   -283318.80943  24488239.7114   24488240.8954
        38.7504         20.2504
  -1415446.20747  -1071492.99645  22512217.1884   22512215.4104
        47.7504         34.7504
   -144550.184 6                  25500627.797
        38.500
    576456.11848    450699.31346  21208148.6954   21208145.9734
        51.0004         40.0004
   1511094.13348   1160946.16047  20837987.0164   20837984.6684
        51.5004         42.2504
  -1052391.12146   -805268.49342  24743980.0784   24743976.9654
        39.5004         17.7504
   -534725.40048   -397233.76746  20359644.1254   20359641.8954
        51.2504         40.5004
