     2.11           OBSERVATION DATA    G (GPS)             RINEX VERSION / TYPE
teqc  2012Jan19                         20120316 17:19:26UTCPGM / RUN BY / DATE
OSX ker:10.8.0|Core 2 Duo|gcc 4.2 -m64|OSX ker:10.8.0+|=+   COMMENT
BIT 2 OF LLI FLAGS DATA COLLECTED UNDER A/S CONDITION       COMMENT
CREF0001                                                    MARKER NAME
0001                                                        MARKER NUMBER
-Unknown-           -Unknown-                               OBSERVER / AGENCY
4435237655          TRIMBLE NETRS       1.1-2               REC # / TYPE / VERS
00000000            TRM41249.00     NONE                    ANT # / TYPE
  1529215.69    -4465715.78   4275065.55                    APPROX POSITION XYZ
        0.0000        0.0000        0.0000                  ANTENNA: DELTA H/E/N
     1     1                                                WAVELENGTH FACT L1/2
     7    L1    L2    C1    P2    P1    S1    S2            # / TYPES OF OBSERV
    15                                                      LEAP SECONDS
 SNR is mapped to RINEX snr flag value [0-9]                COMMENT
  L1 & L2: min(max(int(snr_dBHz/6), 0), 9)                  COMMENT
  2012     3    16    13    23   50.0000000     GPS         TIME OF FIRST OBS
                                                            END OF HEADER
 12  3 16 13 23 50.0000000  0  2G05G07
     43947.71158     14335.30557  22941255.3364   22941253.1604
        50.0004         43.2504
      7288.16056     -1352.66053  27048705.2664   27048704.9494
        41.2504         20.7504
 12  3 16 13 23 51.0000000  0  2G05G07
     45323.30548     15407.19547  22941517.5704   22941515.1914
        50.2504         42.7504
      7515.76646     -1175.29343  27048748.4924   27048747.8164
        39.7504         21.0004
 12  3 16 13 23 52.0000000  0  2G05G07
     46698.84848     16479.04347  22941778.8914   22941776.7934
        50.2504         42.5004
      7743.46946      -997.83643  27048792.1174   27048791.0784
        40.2504         20.5004
 12  3 16 13 23 53.0000000  0  2G05G07
     48074.31348     17550.82847  22942040.6024   22942038.7274
        50.7504         42.5004
      7971.44547      -820.17243  27048835.4064   27048834.7664
        42.2504         20.2504
 12  3 16 13 23 54.0000000  0  2G05G07
     49449.81648     18622.64147  22942302.5084   22942300.3014
        50.7504         42.5004
      8199.73047      -642.28143  27048878.8284   27048878.3484
        42.2504         20.2504
 12  3 16 13 23 55.0000000  0  2G05G07
     50825.27348     19694.42647  22942564.4924   22942561.9694
        51.0004         42.2504
      8428.27347      -464.20743  27048922.2034   27048922.0354
        44.7504         21.5004
 12  3 16 13 23 56.0000000  0  2G05G07
     52200.85248     20766.30547  22942826.1174   22942823.5514
        50.7504         42.2504
      8657.17647      -285.85243  27048966.2034   27048965.4384
        44.0004         21.5004
 12  3 16 13 23 57.0000000  0  2G05G07
     53576.38748     21838.15247  22943087.6254   22943085.5354
        51.2504         42.2504
      8886.30946      -107.28943  27049010.0704   27049009.1214
        40.2504         21.5004
 12  3 16 13 23 58.0000000  0  2G05G07
     54951.94148     22910.01247  22943349.4694   22943346.9494
        51.2504         42.5004
      9115.72746        71.46943  27049052.8984   27049053.2504
        40.5004         21.0004
 12  3 16 13 23 59.0000000  0  2G05G07
     56327.53548     23981.89847  22943611.2664   22943608.9804
        51.0004         42.7504
      9345.46946       250.45343  27049097.1724   27049096.7704
        41.5004         20.7504
 12  3 16 13 24  0.0000000  0  2G05G07
     57703.25448     25053.88747  22943873.0474   22943871.0704
        51.5004         43.0004
      9575.57046       429.71943  27049140.9144   27049140.4614
        41.0004         20.7504
 12  3 16 13 24  1.0000000  0  2G05G07
     59078.93048     26125.84447  22944134.9304   22944132.6334
        51.7504         42.5004
      9805.95346       609.23843  27049183.9454   27049184.3324
        39.7504         20.2504
 12  3 16 13 24  2.0000000  0  2G05G07
     60454.62948     27197.81347  22944396.4924   22944394.1994
        52.0004         42.5004
     10036.57846       788.93843  27049228.0634   27049228.1524
        39.0004         19.7504
 12  3 16 13 24  3.0000000  0  2G05G07
     61830.39548     28269.83647  22944658.1884   22944656.0864
        51.5004         42.5004
     10267.55946       968.94143  27049273.0164   27049272.3404
        39.5004         19.7504
 12  3 16 13 24  4.0000000  0  2G05G07
     63206.33248     29341.99647  22944920.2344   22944917.8984
        51.5004         42.5004
     10498.99246      1149.29743  27049316.7274   27049316.0044
        39.0004         19.2504
 12  3 16 13 24  5.0000000  0  2G05G07
     64582.30948     30414.18847  22945181.8444   22945179.6524
        51.5004         42.5004
     10730.69946      1329.85243  27049360.3134   27049360.1684
        39.5004         19.0004
 12  3 16 13 24  6.0000000  0  2G05G07
     65958.41448     31486.48047  22945443.7344   22945441.4804
        51.2504         43.0004
     10962.82046      1510.72743  27049403.8444   27049404.2974
        40.2504         19.0004
 12  3 16 13 24  7.0000000  0  2G05G07
     67334.54748     32558.78947  22945705.7274   22945703.8674
        51.0004         43.0004
     11195.25446      1691.81343  27049448.7194   27049448.8984
        39.7504         18.5004
 12  3 16 13 24  8.0000000  0  4G29G05G26G07
     -9886.20758    -10443.43756  23494186.8444   23494184.8324
        50.7504         40.7504
     68710.78548     33631.18447  22945967.5704   22945965.7074
        50.5004         42.7504
    -81296.82858    -52484.48056  22856435.9774   22856434.0554
        51.0004         39.7504
     11428.05946      1873.21143  27049493.5314   27049492.9104
        40.2504         18.5004
 12  3 16 13 24  9.0000000  0  4G29G05G26G07
    -10147.71948    -10647.20746  23494137.1884   23494135.3054
        51.0004         40.5004
     70087.03148     34703.58247  22946229.6564   22946227.5474
        51.0004         42.7504
    -83379.19948    -54107.10246  22856039.3834   22856037.8634
        50.7504         40.2504
     11661.10246      2054.82443  27049537.5314   27049537.5634
        40.7504         18.5004
 12  3 16 13 24 10.0000000  0  4G29G05G26G07
    -10408.72748    -10850.58646  23494087.2504   23494085.4774
        51.0004         40.5004
     71463.44948     35776.11347  22946491.6024   22946489.2304
        51.0004         42.7504
    -85461.05148    -55729.32846  22855643.2034   22855641.9414
        50.7504         40.0004
     11894.69146      2236.85243  27049581.8284   27049581.9454
        41.0004         19.0004
 12  3 16 13 24 11.0000000  0  4G29G05G26G07
    685991.88948    531799.24146  21228267.8594   21228266.5004
        50.5004         40.5004
    769513.54848    579711.25947  20680986.3364   20680984.0084
        50.7504         42.7504
    609104.97248    485490.95846  20589475.0084   20589473.3134
        50.7504         40.0004
    708793.50347    545274.87543  24783857.5944   24783857.6524
        42.0004         19.0004
 12  3 16 13 24 12.0000000  0  4G29G05G26G07
    685616.12648    531506.43846  21228196.2664   21228195.0984
        49.5004         40.2504
    770774.50448    580693.82347  20681226.2344   20681224.2854
        50.7504         42.7504
    606908.38148    483779.32746  20589057.2504   20589055.6844
        50.5004         39.7504
    708912.11947    545367.31443  24783880.4224   24783879.7424
        42.0004         19.0004
 12  3 16 13 24 13.0000000  0  5G02G29G05G26G07
    785447.27558    593260.83756  21722091.3364   21722087.6684
        49.2504         36.0004
    685242.44048    531215.25446  21228125.2344   21228123.6724
        49.5004         40.0004
    772037.24048    581677.76847  20681466.3364   20681464.2034
        51.0004         42.5004
    604713.91348    482069.35046  20588639.3914   20588637.9304
        50.2504         39.7504
    709032.76846    545461.35743  24783902.8984   24783903.2584
        41.5004         19.0004
 12  3 16 13 24 14.0000000  0  5G02G29G05G26G07
    787850.45648    595133.43946  21722548.4534   21722544.7154
        49.0004         36.0004
    684870.33548    530925.30146  21228054.4144   21228052.9414
        49.2504         40.2504
    773301.19048    582662.66347  20681706.9924   20681704.9184
        50.7504         42.5004
    602520.99548    480360.58446  20588222.1414   20588220.7234
        50.0004         40.0004
    709154.92147    545556.51343  24783926.3834   24783926.2504
        42.2504         19.2504
 12  3 16 13 24 15.0000000  0  5G02G29G05G26G07
    790252.60148    597005.23645  21723005.5004   21723002.1094
        48.7504         35.5004
    684497.49948    530634.77046  21227984.1644   21227981.8834
        50.0004         40.5004
    774564.10448    583646.75447  20681947.8524   20681945.3404
        50.5004         42.5004
    600327.37048    478651.26846  20587804.8594   20587802.8484
        50.5004         40.0004
    709276.34746    545651.11943  24783949.4774   24783949.2704
        37.7504         19.0004
 12  3 16 13 24 16.0000000  0  5G02G29G05G26G07
    792655.31248    598877.47145  21723462.7974   21723459.1844
        48.5004         35.2504
    684125.49148    530344.89546  21227913.0314   21227911.0234
        50.2504         40.7504
    775827.49548    584631.20747  20682187.9924   20682185.8444
        50.7504         42.5004
    598134.63148    476942.63546  20587387.2114   20587385.9104
        50.5004         39.7504
    709398.44845    545746.31143  24783972.0634   24783972.8134
        34.2504         18.5004
 12  3 16 13 24 17.0000000  0  5G02G29G05G26G07
    795057.87148    600749.59445  21723920.0394   21723916.5204
        48.5004         35.2504
    683753.66748    530055.15046  21227842.4144   21227840.5124
        50.7504         40.7504
    777090.72248    585615.54447  20682428.6024   20682426.3204
        51.5004         42.5004
    595942.04548    475234.12946  20586969.8674   20586968.5634
        50.7504         39.7504
    709520.76945    545841.69543  24783996.0394   24783995.4884
        34.5004         18.2504
 12  3 16 13 24 18.0000000  0  5G02G29G05G26G07
    797460.98048    602622.14745  21724377.3524   21724373.8914
        48.5004         35.5004
    683382.69048    529766.09046  21227771.7894   21227769.9964
        51.0004         40.5004
    778354.47248    586600.27747  20682668.6724   20682666.5554
        50.7504         42.5004
    593750.33848    473526.30646  20586552.9534   20586551.5514
        50.5004         39.5004
    709643.77646    545937.50643  24784019.4224   24784019.2384
        37.0004         18.2504
 12  3 16 13 24 19.0000000  0  5G02G29G05G26G07
    799864.45448    604494.98445  21724834.4534   21724831.3284
        48.2504         35.5004
    683012.33648    529477.50146  21227701.2504   21227699.9064
        50.5004         40.7504
    779618.52848    587585.26347  20682909.3444   20682907.4574
        51.0004         42.5004
    591559.28448    471818.99546  20586136.2344   20586134.7774
        50.7504         39.5004
    709767.40746    546033.80442  24784042.0394   24784042.2734
        37.0004         17.7504
 12  3 16 13 24 20.0000000  0  7G08G02G29G05G15G26G07
    641188.07156    510983.75553  24684092.8834   24684094.3794
        40.2504         20.7504
    802265.00048    606365.53246  21725291.2114   21725287.9574
        48.2504         36.0004
    682639.38148    529186.88046  21227630.4454   21227628.5004
        50.5004         40.5004
    780879.63248    588567.93147  20683149.2894   20683147.2854
        51.0004         42.5004
    600097.21457    475638.54155  22907433.9534   22907433.7664
        44.5004         32.7504
    589365.61848    470109.63646  20585718.2974   20585717.3164
        50.2504         39.5004
    709888.29646    546128.00042  24784065.2424   24784065.6724
        36.5004         17.2504
 12  3 16 13 24 21.0000000  0  7G08G02G29G05G15G26G07
    639344.64746    509547.33143  24683741.7504   24683743.4264
        40.0004         20.7504
    804669.60348    608239.24845  21725749.0084   21725745.7344
        49.0004         35.7504
    682270.77748    528899.65946  21227560.2734   21227558.3714
        50.7504         40.5004
    782144.75148    589553.73847  20683390.1884   20683387.8164
        51.0004         42.5004
    596549.30547    472873.94845  22906758.8364   22906758.8874
        44.5004         32.5004
    587176.34248    468403.71146  20585301.9144   20585300.6724
        50.7504         39.5004
    710013.54346    546225.57942  24784090.1094   24784089.3954
        36.7504         17.2504
 12  3 16 13 24 22.0000000  0  7G08G02G29G05G15G26G07
    637501.10446    508110.82543  24683392.1884   24683392.5044
        40.5004         20.5004
    807074.00748    610112.80245  21726206.6414   21726203.6564
        48.2504         35.7504
    681902.27748    528612.51346  21227490.0704   21227488.3524
        50.5004         40.7504
    783409.62348    590539.35047  20683630.9534   20683628.6484
        50.7504         42.5004
    593001.10747    470109.12345  22906083.1804   22906083.7234
        44.0004         32.5004
    584987.13248    466697.83146  20584885.3284   20584883.8754
        50.7504         39.5004
    710138.71646    546323.13342  24784114.1024   24784113.1524
        38.2504         17.7504
 12  3 16 13 24 23.0000000  0  7G08G02G29G05G15G26G07
    635658.10346    506674.74643  24683040.7504   24683041.9494
        40.0004         20.5004
    809478.91648    611986.75445  21726664.3984   21726661.0004
        48.2504         35.5004
    681534.58148    528326.00446  21227419.5784   21227418.3324
        50.2504         40.7504
    784675.00548    591525.37247  20683871.4224   20683869.4144
        51.0004         42.7504
    589453.29747    467344.59845  22905407.6484   22905408.4414
        43.2504         33.0004
    582798.79148    464992.63446  20584468.8444   20584467.7504
        50.5004         39.7504
    710264.72346    546421.27242  24784137.3524   24784137.2624
        39.7504         17.2504
 12  3 16 13 24 24.0000000  0  7G08G02G29G05G15G26G07
    633815.44546    505238.92643  24682689.9064   24682691.3164
        39.5004         20.5004
    811884.12648    613860.94645  21727121.5164   21727118.1684
        48.5004         35.7504
    681167.47048    528039.94346  21227349.7424   21227348.5394
        50.5004         40.5004
    785940.60948    592511.55747  20684112.1564   20684110.1414
        51.0004         42.7504
    585905.65547    464580.20045  22904733.2894   22904733.3054
        43.7504         32.7504
    580611.03148    463287.87746  20584052.8364   20584051.2114
        51.0004         39.7504
    710391.21346    546519.82742  24784161.8674   24784160.9844
        39.7504         17.2504
 12  3 16 13 24 25.0000000  0  7G08G02G29G05G15G26G07
    631973.33646    503803.54543  24682339.1564   24682340.4924
        40.5004         20.2504
    814289.84948    615735.53845  21727579.9534   21727576.4064
        48.5004         35.7504
    680801.16648    527754.51146  21227279.8594   21227278.5704
        50.5004         40.5004
    787206.69248    593498.11747  20684353.4064   20684351.0394
        50.7504         42.5004
    582358.43247    461816.13245  22904057.7814   22904057.7504
        43.5004         33.0004
    578424.11748    461583.79346  20583636.6564   20583635.1884
        51.0004         39.7504
    710518.47146    546619.01342  24784186.2424   24784185.4454
        39.7504         17.2504
 12  3 16 13 24 26.0000000  0  7G08G02G29G05G15G26G07
    630131.68246    502368.47443  24681989.0944   24681990.4264
        40.5004         20.5004
    816695.99648    617610.45546  21728037.7734   21728034.0554
        49.0004         36.2504
    680435.59748    527469.65046  21227210.5704   21227209.0554
        50.5004         40.5004
    788473.16648    594484.97647  20684594.4224   20684592.2074
        51.5004         42.7504
    578811.51247    459052.29545  22903383.5004   22903383.1374
        44.0004         32.0004
    576237.90848    459880.24946  20583221.2114   20583219.3634
        51.0004         40.0004
    710646.36046    546718.64942  24784210.3284   24784209.7034
        40.0004         17.2504
 12  3 16 13 24 27.0000000  0  7G08G02G29G05G15G26G07
    628290.07346    500933.43943  24681638.4694   24681639.4414
        40.7504         20.5004
    819102.14948    619485.37346  21728495.4924   21728492.2274
        48.5004         36.0004
    680070.33248    527185.02546  21227141.2114   21227139.4064
        50.0004         40.5004
    789739.57748    595471.79247  20684835.3444   20684833.1414
        51.0004         42.7504
    575264.49047    456288.38045  22902708.4844   22902707.9304
        43.7504         33.0004
    574052.03848    458176.97946  20582805.0084   20582802.9844
        51.0004         40.0004
    710774.52546    546818.52742  24784234.9454   24784233.6254
        39.0004         16.7504
 12  3 16 13 24 28.0000000  0  7G08G02G29G05G15G26G07
    626449.02846    499498.85343  24681287.8834   24681289.3054
        40.5004         20.2504
    821508.78748    621360.67146  21728953.6094   21728949.9924
        48.7504         36.5004
    679705.84148    526900.99846  21227071.9304   21227070.1254
        50.0004         40.2504
    791006.46648    596458.97747  20685076.5784   20685074.4144
        51.2504         42.7504
    571717.87747    453524.78745  22902033.7814   22902033.0864
        43.5004         32.2504
    571866.96448    456474.32746  20582388.9384   20582387.4534
        51.2504         40.0004
    710903.39346    546918.93842  24784259.7194   24784258.4774
        38.5004         16.7504
 12  3 16 13 24 29.0000000  0  7G08G02G29G05G15G26G07
    624608.36146    498064.56443  24680938.3834   24680938.8204
        40.7504         20.2504
    823915.80448    623236.26546  21729411.7974   21729408.2464
        48.7504         36.5004
    679342.05348    526617.53346  21227002.9844   21227000.7114
        50.0004         40.2504
    792273.67848    597446.41047  20685317.5084   20685315.2624
        51.2504         42.7504
    568171.51547    450761.39245  22901358.4224   22901358.1954
        43.5004         32.0004
    569682.59448    454772.22146  20581973.5474   20581972.0234
        50.7504         39.5004
    711032.90246    547019.89142  24784283.6094   24784283.1564
        38.5004         17.2504
 12  3 16 13 24 30.0000000  0  7G08G02G29G05G15G26G07
    622767.91746    496630.44943  24680588.0394   24680588.7464
        40.7504         20.0004
    826322.95448    625111.96745  21729869.5554   21729866.1914
        48.7504         35.5004
    678978.67248    526334.37646  21226933.7194   21226931.6374
        50.2504         40.0004
    793540.99648    598433.92947  20685558.6094   20685556.5354
        51.2504         42.7504
    564625.19647    447998.02845  22900683.3134   22900683.1134
        44.0004         32.0004
    567498.67448    453070.45846  20581558.1094   20581556.2934
        51.2504         40.0004
    711162.75946    547121.04642  24784308.8984   24784307.7584
        38.2504         17.2504
 12  3 16 13 24 31.0000000  0  7G08G02G29G05G15G26G07
    620928.23046    495196.94143  24680237.8204   24680238.9184
        41.2504         19.7504
    828730.88548    626988.27545  21730327.7504   21730324.1484
        49.0004         35.5004
    678616.38048    526052.07446  21226864.5634   21226863.0044
        50.2504         40.5004
    794809.04848    599422.01847  20685799.8914   20685797.9694
        51.0004         43.0004
    561079.51447    445235.15545  22900008.7114   22900008.5744
        44.5004         32.2504
    565315.83548    451369.54346  20581142.4224   20581140.9064
        51.5004         39.7504
    711293.61646    547223.03342  24784333.7504   24784332.8014
        38.5004         17.2504
 12  3 16 13 24 32.0000000  0  7G08G02G29G05G15G26G07
    619088.98046    493763.76443  24679887.3984   24679888.7814
        41.5004         20.2504
    831139.15948    628864.84845  21730785.8054   21730782.4534
        49.0004         35.2504
    678254.73948    525770.26846  21226795.9694   21226793.6724
        51.0004         40.2504
    796077.39248    600410.33747  20686041.2424   20686038.9924
        50.5004         43.0004
    557534.07247    442472.47945  22899333.7194   22899333.7664
        44.2504         32.0004
    563133.63548    449669.12846  20580727.1804   20580725.3404
        51.5004         39.7504
    711425.06546    547325.43942  24784358.0864   24784357.3754
        39.7504         16.7504
 12  3 16 13 24 33.0000000  0  7G08G02G29G05G15G26G07
    617249.75446    492330.60043  24679538.0084   24679538.8094
        40.7504         20.5004
    833547.43348    630741.42345  21731244.3364   21731240.7344
        49.0004         35.5004
    677893.38848    525488.70246  21226726.9844   21226725.3484
        50.7504         40.2504
    797345.72148    601398.64647  20686282.5394   20686280.6844
        51.0004         43.0004
    553988.57647    439709.76045  22898659.0944   22898659.1334
        44.5004         32.2504
    560951.78848    447968.98346  20580311.6884   20580310.2274
        51.2504         40.2504
    711556.76546    547428.02942  24784383.3284   24784382.5314
        39.7504         16.7504
 12  3 16 13 24 34.0000000  0  7G08G02G29G05G15G26G07
    615411.18246    490897.96043  24679187.5944   24679188.5944
        41.0004         21.2504
    835956.31948    632618.47845  21731702.9614   21731699.5474
        48.5004         35.5004
    677532.94148    525207.83546  21226658.3364   21226656.7624
        50.7504         40.0004
    798614.61048    602387.39347  20686524.2504   20686522.1524
        51.5004         43.2504
    550443.51647    436947.38145  22897985.1954   22897984.4964
        44.2504         32.2504
    558770.84548    446269.54646  20579896.6724   20579895.2344
        51.2504         40.2504
    711689.29446    547531.29842  24784409.0554   24784407.5744
        39.5004         16.7504
 12  3 16 13 24 35.0000000  0  7G08G02G29G05G15G26G07
    613573.14146    489465.73743  24678837.7584   24678839.2034
        40.7504         20.2504
    838365.68048    634495.90045  21732161.6884   21732157.8674
        48.2504         35.5004
    677173.26748    524927.56546  21226589.7814   21226588.2934
        50.5004         40.0004
    799883.94448    603376.48747  20686765.6024   20686763.6524
        50.7504         43.0004
    546898.88147    434185.34245  22897310.3914   22897310.1294
        44.5004         32.2504
    556590.69048    444570.72546  20579481.6334   20579480.2114
        51.0004         40.2504
    711822.50346    547635.14242  24784434.0474   24784433.0864
        39.7504         17.2504
 12  3 16 13 24 36.0000000  0  7G08G02G29G05G15G26G07
    611735.34146    488033.69543  24678488.5394   24678489.7034
        40.5004         20.2504
    840775.27648    636373.51145  21732619.6094   21732616.5354
        48.2504         35.5004
    676814.13248    524647.72746  21226521.7734   21226520.0514
        50.0004         40.5004
    801153.44648    604365.71147  20687007.1484   20687005.3094
        50.7504         43.0004
    543354.34347    431423.35945  22896635.6174   22896635.4774
        45.0004         31.5004
    554411.07848    442872.33646  20579066.9924   20579066.0664
        50.2504         40.0004
    711956.18446    547739.32742  24784459.6094   24784458.8554
        40.5004         17.2504
 12  3 16 13 24 37.0000000  0  7G08G02G29G05G15G26G07
    609897.75746    486601.80543  24678138.5474   24678139.7854
        41.0004         20.0004
    843184.98448    638251.19945  21733078.5944   21733075.3054
        48.5004         34.7504
    676455.42648    524368.21246  21226453.1174   21226451.6954
        49.7504         40.2504
    802423.05248    605355.00947  20687248.7894   20687246.6334
        51.0004         43.0004
    539809.83647    428661.39145  22895961.6094   22895961.0164
        45.0004         32.0004
    552231.91548    441174.28646  20578652.3834   20578650.9964
        50.5004         39.7504
    712090.19346    547843.70742  24784485.6804   24784484.0594
        40.2504         17.7504
 12  3 16 13 24 38.0000000  0  7G08G02G29G05G15G26G07
    608061.10146    485170.64643  24677789.4534   24677790.0554
        40.7504         19.7504
    845595.64148    640129.63145  21733537.0394   21733533.8094
        48.7504         34.5004
    676097.94648    524089.65146  21226385.3204   21226383.7734
        49.5004         40.0004
    803693.54548    606345.00247  20687490.4694   20687488.4184
        51.0004         43.0004
    536266.14247    425900.07245  22895287.0864   22895286.7504
        45.0004         32.0004
    550054.00548    439477.21346  20578237.8054   20578236.4694
        50.5004         39.5004
    712225.45146    547949.07142  24784510.9614   24784510.2074
        39.5004         16.7504
 12  3 16 13 24 39.0000000  0  7G08G02G29G05G15G26G07
    606224.08546    483739.22543  24677439.2814   24677440.7704
        40.2504         19.2504
    848005.86448    642007.72145  21733995.8674   21733992.0434
        48.7504         35.0004
    675740.32848    523810.98346  21226317.5084   21226315.6724
        50.0004         40.2504
    804963.56148    607334.61647  20687732.3284   20687729.8874
        50.7504         42.7504
    532721.91447    423138.34545  22894612.1954   22894612.5354
        44.5004         31.5004
    547875.95848    437780.02946  20577823.5704   20577821.9454
        50.5004         39.5004
    712360.43246    548054.25542  24784536.6414   24784536.0124
        40.0004         17.7504
 12  3 16 13 24 40.0000000  0  7G08G02G29G05G15G26G07
    604388.25846    482308.70643  24677089.8914   24677091.3324
        39.7504         19.0004
    850417.25648    643886.72245  21734455.0084   21734451.3444
        48.5004         35.0004
    675384.16548    523533.45246  21226249.7114   21226247.9304
        50.5004         40.0004
    806234.70348    608325.12147  20687974.1564   20687972.4264
        50.7504         42.5004
    529178.72847    420377.43245  22893938.2504   22893938.2934
        45.0004         31.7504
    545699.39648    436084.00246  20577409.4774   20577407.7624
        50.5004         40.0004
    712496.82346    548160.55742  24784563.1024   24784561.9964
        40.2504         17.7504
 12  3 16 13 24 41.0000000  0  7G08G02G29G05G15G26G07
    602552.33746    480878.11743  24676740.4304   24676742.1724
        39.5004         19.2504
    852828.47248    645765.59445  21734913.3754   21734910.0164
        48.2504         35.0004
    675028.14748    523256.04346  21226181.7734   21226180.2304
        50.0004         40.0004
    807505.66248    609315.48147  20688216.2584   20688213.6994
        50.5004         42.7504
    525635.28047    417616.31945  22893264.3204   22893263.7974
        44.7504         32.0004
    543522.98748    434388.10146  20576995.3834   20576993.8874
        50.7504         39.7504
    712633.25546    548266.87842  24784588.8054   24784587.7464
        40.0004         17.7504
 12  3 16 13 24 42.0000000  0  7G08G02G29G05G15G26G07
    600716.95946    479447.98743  24676390.5314   24676393.2074
        40.0004         18.5004
    855240.27148    647644.91045  21735372.2814   21735368.9694
        48.5004         34.7504
    674672.99248    522979.30046  21226114.4844   21226112.5984
        50.0004         40.0004
    808777.12848    610306.23047  20688458.1094   20688455.8524
        50.7504         42.5004
    522092.29747    414855.56545  22892589.5784   22892589.7974
        44.2504         31.7504
    541347.46548    432692.89346  20576581.5004   20576579.8204
        50.5004         40.0004
    712770.56046    548373.86943  24784614.4384   24784614.0474
        40.0004         18.2504
 12  3 16 13 24 43.0000000  0  7G08G02G29G05G15G26G07
    598882.04546    478018.21043  24676042.0864   24676043.6024
        40.0004         18.5004
    857652.42448    649524.50845  21735831.2344   21735828.0704
        48.7504         34.7504
    674318.50948    522703.07746  21226046.8834   21226044.8914
        50.0004         40.0004
    810048.94248    611297.25847  20688700.1954   20688697.6294
        50.5004         42.2504
    518549.59947    412095.02245  22891915.7974   22891915.7734
        44.0004         31.7504
    539172.63748    430998.22546  20576167.3754   20576165.9264
        50.7504         40.2504
    712908.42146    548481.29243  24784640.6954   24784640.6994
        40.0004         19.5004
 12  3 16 13 24 44.0000000  0  9G10G08G02G21G29G05G15G26G07
    825697.07256    614033.86653  24605557.7664   24605557.8554
        40.2504         22.7504
    597047.48546    476588.62943  24675693.7194   24675694.4774
        39.7504         19.0004
    860064.87948    651404.34145  21736290.4614   21736287.3244
        48.2504         34.7504
    595577.31955    467659.08852  25082335.2504   25082333.4964
        35.5004         16.7504
    673964.61948    522427.32046  21225979.5234   21225977.5904
        50.2504         40.0004
    811320.99448    612288.46647  20688941.9924   20688939.8054
        51.0004         42.0004
    515007.06947    409334.61645  22891241.5784   22891241.6994
        44.5004         33.0004
    536998.39748    429304.01546  20575754.0234   20575752.4574
        51.2504         40.0004
    713046.82546    548589.14443  24784667.3284   24784666.8954
        39.0004         20.5004
 12  3 16 13 24 45.0000000  0  9G10G08G02G21G29G05G15G26G07
    828999.06846    616606.84343  24606185.8054   24606186.3244
        39.7504         22.7504
    595208.40746    475155.58243  24675342.9774   24675344.5204
        40.7504         18.5004
    862472.80548    653280.63445  21736748.7274   21736745.2424
        48.5004         35.2504
    592490.63946    465253.87642  25081748.2894   25081745.6884
        36.2504         17.7504
    673606.49048    522148.26246  21225911.5394   21225909.5204
        50.0004         40.0004
    812588.47848    613276.11147  20689183.7034   20689181.5084
        51.0004         42.2504
    511459.89247    406570.58145  22890566.8444   22890566.8404
        44.7504         32.2504
    534819.95048    427606.51846  20575339.0474   20575337.6954
        51.5004         40.2504
    713180.94946    548693.67143  24784693.5084   24784692.3524
        38.2504         20.2504
 12  3 16 13 24 46.0000000  0  9G10G08G02G21G29G05G15G26G07
    832305.83346    619183.53643  24606815.7344   24606815.4344
        40.5004         22.5004
    593374.45746    473726.50943  24674994.1024   24674995.7774
        40.7504         18.5004
    864885.81247    655160.88945  21737207.7344   21737204.3204
        47.7504         35.7504
    589408.58845    462852.28842  25081161.2974   25081159.2774
        34.7504         17.2504
    673253.76648    521873.41146  21225844.2504   21225842.5594
        49.7504         40.0004
    813861.01648    614267.70647  20689425.4844   20689423.5124
        51.0004         42.5004
    507917.70447    403810.44245  22889892.7814   22889892.1294
        44.2504         32.7504
    532646.90648    425913.24646  20574925.8674   20574923.6884
        51.5004         40.2504
    713320.40146    548802.34843  24784719.5704   24784718.7624
        37.2504         19.7504
 12  3 16 13 24 47.0000000  0  9G10G08G02G21G29G05G15G26G07
    835612.72946    621760.33643  24607444.7344   24607445.0124
        41.5004         22.5004
    591541.07946    472297.88243  24674645.3914   24674646.5594
        41.7504         18.5004
    867299.33748    657041.56045  21737667.1174   21737664.1094
        48.0004         35.5004
    586326.65945    460450.79042  25080575.5944   25080572.9534
        35.0004         17.2504
    672901.83848    521599.17946  21225776.8134   21225775.3554
        50.0004         40.0004
    815134.02248    615259.64647  20689667.8524   20689665.4844
        51.5004         42.0004
    504375.94447    401050.63545  22889218.7034   22889218.4414
        43.7504         32.5004
    530474.68548    424220.60346  20574512.2274   20574510.5274
        51.5004         40.0004
    713460.58646    548911.57743  24784745.9614   24784745.4224
        38.2504         19.5004
 12  3 16 13 24 48.0000000  0  9G10G08G02G21G29G05G15G26G07
    838919.59146    624337.09843  24608073.8834   24608074.6254
        41.5004         22.7504
    589708.10846    470869.57343  24674296.9224   24674297.6764
        41.2504         18.5004
    869713.23748    658922.52446  21738126.6024   21738122.9614
        48.0004         36.2504
    583244.73145    458049.27842  25079988.9534   25079986.5784
        35.7504         16.7504
    672550.58948    521325.47946  21225710.2894   21225708.3284
        50.2504         40.2504
    816407.35948    616251.85747  20689910.1954   20689908.1604
        51.0004         42.0004
    500834.41747    398290.99845  22888544.7894   22888544.4694
        44.2504         32.2504
    528303.12848    422528.47846  20574098.9224   20574097.5554
        51.2504         40.0004
    713601.27946    549021.18643  24784773.0634   24784772.6884
        38.5004         19.0004
 12  3 16 13 24 49.0000000  0  9G10G08G02G21G29G05G15G26G07
    842226.23946    626913.71443  24608703.2584   24608703.6134
        41.0004         23.2504
    587875.30346    469441.41643  24673947.8054   24673948.8554
        40.7504         19.0004
    872127.25347    660803.56745  21738586.1724   21738582.3914
        47.5004         35.2504
    580162.48545    455647.54742  25079402.8914   25079399.5594
        35.7504         16.2504
    672199.76548    521052.10746  21225643.6804   21225641.7544
        50.7504         40.2504
    817680.78948    617244.13747  20690152.4224   20690150.3204
        50.7504         42.2504
    497292.94847    395531.41545  22887870.6254   22887870.9774
        44.2504         32.2504
    526132.03748    420836.72346  20573685.5864   20573683.8634
        51.0004         39.5004
    713742.43146    549131.14643  24784799.8984   24784798.9774
        38.5004         18.5004
 12  3 16 13 24 50.0000000  0  9G10G08G02G21G29G05G15G26G07
    845533.09246    629490.50043  24609332.2814   24609332.7234
        39.5004         22.5004
    586043.19346    468013.84543  24673598.5864   24673599.9734
        39.5004         18.5004
    874541.94148    662685.14145  21739045.3364   21739041.7504
        48.2504         35.5004
    577080.49745    453245.97342  25078815.7894   25078813.0394
        35.5004         17.7504
    671849.89448    520779.47946  21225576.7114   21225574.9384
        50.7504         40.5004
    818954.83248    618236.89947  20690394.8134   20690392.6484
        50.5004         42.2504
    493752.00347    392772.22045  22887196.7504   22887196.8554
        44.5004         32.2504
    523961.92048    419145.72346  20573272.9224   20573271.5434
        51.5004         39.5004
    713884.40046    549241.77943  24784827.2114   24784826.5274
        38.2504         18.2504
 12  3 16 13 24 51.0000000  0  9G10G08G02G21G29G05G15G26G07
    848840.25046    632067.52243  24609962.1564   24609962.1054
        39.0004         22.0004
    584211.75446    466586.77043  24673250.2664   24673251.2734
        39.5004         19.0004
    876957.21648    664567.17145  21739504.9534   21739501.6294
        48.0004         35.5004
    573998.77645    450844.61942  25078228.9064   25078226.6684
        35.5004         17.2504
    671500.93048    520507.55546  21225510.5784   21225508.9654
        50.7504         40.5004
    820229.44048    619230.10147  20690637.4144   20690635.0044
        50.5004         42.2504
    490211.57947    390013.44145  22886523.1954   22886523.1024
        44.7504         32.7504
    521792.72648    417455.44846  20572859.8984   20572858.3874
        51.5004         39.5004
    714027.23446    549353.09743  24784853.5704   24784853.3244
        39.5004         18.2504
 12  3 16 13 24 52.0000000  0  9G10G08G02G21G29G05G15G26G07
    852147.09546    634644.28043  24610591.4614   24610591.4844
        40.0004         21.7504
    582380.40746    465159.77343  24672902.1094   24672902.5634
        40.0004         18.2504
    879372.61248    666449.29245  21739964.5314   21739961.3134
        48.0004         35.2504
    570916.66045    448442.97142  25077641.6094   25077639.8554
        35.7504         17.7504
    671152.36948    520235.95346  21225444.6094   21225442.5434
        50.7504         40.5004
    821504.12548    620223.36247  20690879.9614   20690877.5744
        50.0004         42.2504
    486671.15447    387254.66745  22885849.0704   22885849.2774
        44.2504         32.5004
    519623.94648    415765.49046  20572447.4304   20572446.1254
        51.2504         39.7504
    714170.42646    549464.72243  24784880.6564   24784880.9494
        40.2504         18.5004
 12  3 16 13 24 53.0000000  0  9G10G08G02G21G29G05G15G26G07
    855453.75546    637220.88143  24611220.2504   24611220.6214
        40.5004         22.0004
    580549.30446    463732.93743  24672553.7734   24672554.6294
        40.5004         18.5004
    881788.13847    668331.51445  21740424.1884   21740420.8634
        47.5004         35.2504
    567834.34245    446041.17042  25077055.0944   25077052.9224
        35.2504         17.2504
    670804.25448    519964.69546  21225378.3444   21225376.3284
        51.0004         40.2504
    822778.90548    621216.69447  20691122.3834   20691120.1724
        50.0004         42.2504
    483130.75447    384495.93245  22885175.6884   22885174.9924
        44.0004         32.0004
    517455.62848    414075.88446  20572035.0234   20572033.1644
        51.5004         40.0004
    714314.00346    549576.60843  24784908.4924   24784907.9344
        41.7504         18.2504
 12  3 16 13 24 54.0000000  0  9G10G08G02G21G29G05G15G26G07
    858760.66946    639797.74043  24611849.9844   24611849.9304
        40.0004         22.5004
    578718.95146    462306.68243  24672204.9144   24672206.3364
        39.5004         18.5004
    884204.38347    670214.30345  21740884.0164   21740880.8634
        47.5004         35.2504
    564752.32545    443639.62242  25076469.2664   25076467.0084
        35.5004         17.2504
    670457.14848    519694.22546  21225312.3364   21225309.9694
        51.0004         40.5004
    824054.34948    622210.54147  20691365.0164   20691362.8954
        50.0004         42.2504
    479590.99147    381737.68145  22884501.6484   22884501.7544
        44.2504         32.2504
    515288.33448    412387.07846  20571622.3524   20571620.6684
        51.0004         39.5004
    714458.49446    549689.19343  24784935.5164   24784935.5004
        41.0004         18.2504
 12  3 16 13 24 55.0000000  0  9G10G08G02G21G29G05G15G26G07
    862067.20446    642374.22943  24612478.6804   24612479.2504
        40.5004         22.2504
    576888.55846    460880.39743  24671856.4384   24671857.7344
        40.0004         18.5004
    886620.54147    672097.02245  21741343.7734   21741340.5084
        47.7504         35.5004
    561669.79145    441237.66542  25075883.3914   25075880.1454
        35.2504         17.2504
    670110.26548    519423.92046  21225246.1804   21225244.0394
        51.0004         40.2504
    825329.66648    623204.30347  20691608.0004   20691605.5084
        50.0004         42.5004
    476050.98847    378979.24345  22883828.3914   22883828.3284
        44.5004         32.7504
    513121.26448    410698.45346  20571209.8364   20571208.5044
        51.5004         39.2504
    714603.14346    549801.91242  24784963.1094   24784963.1414
        40.2504         17.7504
 12  3 16 13 24 56.0000000  0  9G10G08G02G21G29G05G15G26G07
    865374.22146    644951.13043  24613108.0314   24613108.3754
        40.5004         22.5004
    575059.07846    459454.82043  24671508.4534   24671509.5434
        39.2504         19.0004
    889037.59247    673980.43445  21741803.6804   21741800.6914
        47.5004         34.7504
    558587.79245    438836.07742  25075296.7424   25075293.9654
        35.2504         17.7504
    669764.57148    519154.55146  21225180.2504   21225178.3284
        50.7504         40.5004
    826605.85548    624198.73147  20691850.9844   20691848.2234
        50.0004         42.5004
    472511.78647    376221.42545  22883154.6644   22883154.6764
        44.5004         32.2504
    510955.40948    409010.77546  20570797.7894   20570796.3054
        51.0004         39.5004
    714748.94146    549915.52343  24784990.6094   24784991.0434
        40.5004         18.2504
 12  3 16 13 24 57.0000000  0  9G10G08G02G21G29G05G15G26G07
    868680.99346    647527.82143  24613737.6414   24613737.6844
        40.0004         22.5004
    573229.79446    458029.39843  24671160.0784   24671161.2894
        39.0004         18.5004
    891454.78147    675863.95445  21742263.5704   21742260.3834
        47.7504         34.7504
    555505.49245    436434.29642  25074710.1024   25074707.5044
        35.5004         17.7504
    669419.29948    518885.50846  21225114.7814   21225112.8714
        50.5004         40.7504
    827882.10348    625193.21947  20692093.6174   20692090.7894
        50.2504         42.2504
    468972.63447    373463.65145  22882481.3914   22882481.1134
        44.5004         33.0004
    508790.00048    407323.45546  20570385.7274   20570384.3874
        50.7504         39.5004
    714895.05246    550029.37143  24785018.9144   24785018.7504
        40.7504         18.5004
 12  3 16 13 24 58.0000000  0  9G10G08G02G21G29G05G15G26G07
    871987.67746    650104.45743  24614366.6024   24614367.2424
        39.7504         22.2504
    571400.83046    456604.22943  24670811.8284   24670813.1174
        39.0004         18.5004
    893872.20447    677747.66845  21742724.0474   21742720.7074
        47.2504         35.2504
    552423.03645    434032.38542  25074122.8284   25074120.5704
        35.0004         17.7504
    669074.62048    518616.93246  21225049.0084   21225047.3954
        50.5004         40.5004
    829158.62348    626187.90547  20692336.6254   20692333.9844
        50.5004         42.2504
    465433.62747    370705.99045  22881807.8984   22881807.9264
        45.0004         32.2504
    506625.19648    405636.59446  20569973.6644   20569972.3984
        50.7504         39.7504
    715041.74046    550143.67143  24785047.1094   24785046.8054
        39.5004         18.2504
 12  3 16 13 24 59.0000000  0  9G10G08G02G21G29G05G15G26G07
    875294.60946    652681.27443  24614996.3444   24614995.9414
        40.0004         22.0004
    569572.49246    455179.58043  24670464.6094   24670465.8204
        39.0004         18.5004
    896290.29247    679631.89045  21743183.5164   21743180.4844
        47.5004         35.0004
    549340.85945    431630.68943  25073536.6954   25073534.3714
        35.2504         18.2504
    668730.85248    518349.06546  21224983.5394   21224981.4884
        50.5004         40.7504
    830435.69248    627183.03047  20692579.6414   20692576.9884
        50.2504         42.5004
    461895.15247    367948.74345  22881135.0234   22881134.2274
        45.2504         32.2504
    504461.31948    403950.44946  20569561.9384   20569560.4734
        50.7504         39.5004
    715189.26946    550258.66643  24785075.0004   24785074.5394
        38.0004         18.2504
 12  3 16 13 25  0.0000000  0  9G10G08G02G21G29G05G15G26G07
    878601.21646    655257.84543  24615625.2114   24615625.5784
        40.2504         22.0004
    567744.28946    453755.01943  24670116.7504   24670117.5474
        38.2504         19.0004
    898708.40247    681516.13745  21743644.1174   21743640.9574
        47.5004         35.2504
    546258.30445    429228.69042  25072950.6094   25072947.6024
        34.5004         17.7504
    668387.45848    518081.48346  21224918.1954   21224916.4844
        50.7504         41.0004
    831712.79048    628178.17247  20692822.5554   20692820.4844
        50.2504         42.5004
    458356.63347    365191.45545  22880461.8364   22880461.1374
        46.0004         32.0004
    502297.81548    402264.60246  20569150.4384   20569148.6454
        50.7504         39.2504
    715337.04746    550373.83143  24785103.7664   24785102.3524
        38.0004         18.2504
 12  3 16 13 25  1.0000000  0  9G10G08G02G21G29G05G15G26G07
    881907.79046    657834.39143  24616254.3594   24616254.7894
        41.2504         21.7504
    565916.49946    452330.77143  24669769.1954   24669770.0984
        38.5004         18.5004
    901126.89448    683400.68345  21744104.5234   21744101.0394
        48.0004         35.2504
    543175.71045    426826.66142  25072363.9454   25072360.9304
        34.7504         17.2504
    668044.70348    517814.40446  21224853.0474   21224851.2274
        51.0004         41.0004
    832990.19248    629173.55047  20693065.4224   20693063.4734
        50.5004         42.5004
    454818.35947    362434.36445  22879787.9224   22879787.9804
        45.7504         32.2504
    500134.96648    400579.26946  20568738.7194   20568737.0864
        50.7504         39.2504
    715485.40946    550489.42843  24785131.9064   24785130.7974
        38.2504         18.2504
 12  3 16 13 25  2.0000000  0  9G10G08G02G21G29G05G15G26G07
    885214.49146    660411.03443  24616883.3364   24616883.9494
        41.5004         22.0004
    564089.30546    450906.98043  24669421.8524   24669422.3914
        39.5004         18.5004
    903545.91648    685285.62645  21744564.8444   21744561.4884
        48.0004         35.7504
    540093.20445    424424.70642  25071776.7894   25071774.1804
        35.0004         17.7504
    667702.77948    517547.96446  21224787.9304   21224785.8634
        51.0004         41.0004
    834268.11148    630169.32547  20693309.0554   20693306.6024
        50.5004         42.5004
    451280.51347    359677.59245  22879114.2814   22879114.6414
        45.5004         32.5004
    497972.99548    398894.61846  20568327.4304   20568326.0354
        51.2504         39.5004
    715634.59946    550605.67243  24785160.2274   24785159.0744
        38.5004         18.2504
 12  3 16 13 25  3.0000000  0  9G10G08G02G21G29G05G15G26G07
    888521.25946    662987.74743  24617513.0784   24617513.3714
        41.7504         22.2504
    562262.53446    449483.50543  24669073.8834   24669074.5204
        39.7504         18.5004
    905965.30848    687170.85545  21745025.0474   21745021.6254
        48.0004         35.5004
    537010.70245    422022.77042  25071190.4144   25071188.0354
        35.0004         17.7504
    667361.53448    517282.06446  21224722.7664   21224721.0984
        51.0004         41.0004
    835546.36348    631165.36647  20693552.1954   20693549.6134
        51.0004         42.5004
    447742.94447    356921.03945  22878441.2814   22878441.1254
        45.5004         32.5004
    495811.69248    397210.48746  20567916.1024   20567914.6294
        51.5004         39.5004
    715784.36246    550722.36943  24785188.2114   24785187.8404
        39.2504         18.2504
 12  3 16 13 25  4.0000000  0  9G10G08G02G21G29G05G15G26G07
    891827.88647    665564.33143  24618142.4064   24618142.3984
        42.0004         22.7504
    560436.02846    448060.24143  24668725.8204   24668727.3054
        39.0004         18.5004
    908384.97548    689056.31045  21745485.8914   21745482.4614
        48.2504         35.5004
    533928.09045    419620.75342  25070603.9144   25070600.7424
        34.5004         17.7504
    667020.85748    517016.59746  21224658.0474   21224656.2934
        50.5004         41.0004
    836824.85048    632161.59147  20693795.5554   20693793.0474
        51.0004         42.5004
    444205.56747    354164.63845  22877768.3134   22877768.1374
        45.0004         31.7504
    493651.00648    395526.83246  20567504.9144   20567503.4804
        51.7504         39.5004
    715934.62646    550839.42943  24785216.6094   24785216.5744
        39.0004         18.2504
 12  3 16 13 25  5.0000000  0  9G10G08G02G21G29G05G15G26G07
    895134.49547    668140.89443  24618771.6174   24618771.3634
        42.0004         22.7504
    558609.94846    446637.30843  24668378.6644   24668379.9454
        39.5004         19.0004
    910805.02447    690942.05745  21745945.9924   21745942.8444
        47.5004         35.5004
    530845.42845    417218.66742  25070017.3834   25070014.3054
        34.7504         17.7504
    666680.87848    516751.67946  21224593.3524   21224591.3134
        50.2504         41.0004
    838103.68048    633158.07247  20694038.4304   20694036.1914
        51.0004         42.5004
    440668.41747    351408.41245  22877095.0704   22877095.0274
        45.0004         32.2504
    491491.01248    393843.71946  20567093.8524   20567092.1484
        51.5004         39.5004
    716085.51146    550957.00043  24785245.3284   24785245.1844
        38.7504         18.2504
 12  3 16 13 25  6.0000000  0  9G10G08G02G21G29G05G15G26G07
    898441.13446    670717.49643  24619400.3444   24619400.8634
        40.5004         22.7504
    556784.35646    445214.79643  24668031.0004   24668032.6024
        39.0004         18.5004
    913225.47147    692828.11545  21746406.6174   21746403.5234
        47.5004         35.5004
    527762.75845    414816.57742  25069430.0164   25069428.0434
        34.5004         17.2504
    666341.57948    516487.28446  21224528.9304   21224526.9264
        50.2504         41.0004
    839382.85448    634154.83747  20694282.3524   20694279.8014
        51.0004         42.2504
    437131.59847    348652.45845  22876422.1094   22876421.6804
        45.2504         32.0004
    489331.70948    392161.14446  20566683.0474   20566681.4844
        51.5004         39.2504
    716237.02046    551075.04243  24785274.3674   24785274.0314
        38.5004         18.2504
 12  3 16 13 25  7.0000000  0  9G10G08G02G21G29G05G15G26G07
    901747.66546    673294.01243  24620029.6644   24620030.1374
        41.2504         22.7504
    554959.03946    443792.48743  24667683.3204   24667685.1174
        39.2504         19.2504
    915646.17147    694714.37746  21746867.4774   21746864.3834
        47.5004         36.0004
    524680.00845    412414.40142  25068843.3364   25068841.3244
        34.0004         17.2504
    666002.84548    516223.33146  21224464.4144   21224462.6054
        50.5004         41.2504
    840662.25748    635151.77147  20694525.5944   20694523.0314
        51.2504         42.0004
    433594.92247    345896.61145  22875748.8134   22875748.3714
        44.7504         32.0004
    487172.99848    390479.02746  20566271.9304   20566270.2854
        51.5004         39.7504
    716389.03246    551193.53442  24785303.3364   24785302.9494
        38.5004         17.7504
 12  3 16 13 25  8.0000000  0  9G10G08G02G21G29G05G15G26G07
    905054.33946    675870.63843  24620659.0084   24620658.9494
        41.7504         22.0004
    553134.27946    442370.62443  24667337.0554   24667338.0474
        40.5004         19.0004
    918067.36747    696601.02645  21747328.0474   21747324.9224
        47.7504         35.2504
    521597.20945    410012.23342  25068257.3754   25068254.7384
        34.5004         17.2504
    665664.89748    515959.99946  21224400.4384   21224398.7234
        50.7504         41.2504
    841942.10248    636149.05247  20694769.3054   20694766.6454
        51.5004         42.2504
    430058.63847    343141.07645  22875076.2584   22875076.1024
        44.5004         31.7504
    485015.09348    388797.54246  20565861.3834   20565859.8524
        51.7504         39.7504
    716541.79946    551312.55042  24785331.5554   24785332.4774
        38.5004         17.7504
 12  3 16 13 25  9.0000000  0  9G10G08G02G21G29G05G15G26G07
    908360.96546    678447.21843  24621287.7734   24621288.3674
        41.7504         22.7504
    551309.93646    440949.04443  24666989.7274   24666990.8754
        40.5004         18.5004
    920488.96247    698487.98545  21747788.7664   21747785.8364
        47.7504         35.2504
    518514.51545    407610.15342  25067670.9844   25067668.0434
        33.7504         17.7504
    665327.65248    515697.20846  21224335.7584   21224334.0904
        51.0004         41.0004
    843222.31048    637146.62147  20695012.6094   20695010.1564
        51.0004         42.2504
    426522.64347    340385.75345  22874403.7194   22874402.9694
        44.5004         31.7504
    482857.92648    387116.64246  20565451.3444   20565449.3134
        51.2504         39.7504
    716695.14846    551432.04442  24785361.0554   24785361.7034
        38.0004         17.7504
 12  3 16 13 25 10.0000000  0  9G10G08G02G21G29G05G15G26G07
    911667.53947    681023.76443  24621917.3364   24621917.3754
        42.0004         22.7504
    549485.94246    439527.74243  24666642.4064   24666643.7734
        40.0004         18.5004
    922910.81348    700375.14445  21748249.4144   21748246.7034
        48.2504         35.0004
    515431.61145    405207.91442  25067082.2664   25067080.4534
        33.5004         17.2504
    664990.97848    515434.86746  21224272.0394   21224269.8094
        51.0004         40.7504
    844502.74348    638144.35847  20695256.3054   20695254.2704
        50.7504         42.7504
    422986.82547    337630.57645  22873730.3444   22873729.9774
        45.0004         32.0004
    480701.33048    385436.18046  20565040.8524   20565039.3134
        51.0004         39.7504
    716849.04946    551551.95342  24785389.8054   24785390.9884
        37.0004         17.7504
 12  3 16 13 25 11.0000000  0  9G10G08G02G21G29G05G15G26G07
    914973.91746    683600.14443  24622546.1174   24622546.8164
        41.7504         22.5004
    547662.16446    438106.61343  24666295.7194   24666296.5164
        39.2504         19.0004
    925332.86347    702262.44945  21748710.4774   21748707.2154
        47.7504         35.5004
    512348.48945    402805.47342  25066497.3284   25066495.2304
        33.0004         16.7504
    664654.76248    515172.87146  21224207.7584   21224206.1954
        50.5004         40.7504
    845783.30448    639142.19047  20695499.8834   20695497.9534
        50.5004         42.5004
    419451.06647    334875.44045  22873057.4064   22873057.6254
        44.2504         32.0004
    478545.22348    383756.09046  20564630.3834   20564628.8094
        51.0004         39.7504
    717003.28946    551672.11842  24785418.8984   24785420.3954
        38.2504         17.7504
 12  3 16 13 25 12.0000000  0  9G10G08G02G21G29G05G15G26G07
    918280.70246    686176.85243  24623175.7344   24623175.9344
        41.2504         22.5004
    545839.23046    436686.13043  24665947.9774   24665950.0704
        39.2504         19.2504
    927755.71847    704150.38145  21749171.6644   21749168.6294
        47.5004         35.2504
    509265.77445    400403.35742  25065908.9534   25065907.0634
        33.5004         17.2504
    664319.67248    514911.75946  21224144.3914   21224142.3324
        50.5004         41.0004
    847064.64848    640140.64547  20695743.5554   20695741.8014
        50.2504         42.5004
    415916.02347    332120.86745  22872385.1254   22872385.1334
        44.7504         32.2504
    476390.26248    382076.90046  20564220.2504   20564218.2234
        50.7504         39.2504
    717158.62146    551793.17043  24785448.6954   24785449.6764
        38.7504         18.5004
 12  3 16 13 25 13.0000000  0  9G10G08G02G21G29G05G15G26G07
    921587.04147    688753.22843  24623805.3054   24623805.5474
        42.0004         22.7504
    544016.26346    435265.62743  24665601.8914   24665602.8674
        39.2504         19.2504
    930178.51447    706038.27646  21749632.5394   21749629.5394
        47.7504         36.0004
    506182.60845    398000.87742  25065324.2344   25065321.8164
        33.2504         17.2504
    663984.80748    514650.83446  21224080.6644   21224078.4344
        51.0004         40.7504
    848345.87348    641139.00147  20695987.4144   20695985.3634
        50.5004         42.7504
    412380.79047    329366.15245  22871712.6254   22871712.4844
        44.5004         32.0004
    474235.54948    380397.90446  20563810.3284   20563808.5744
        51.0004         39.2504
    717314.08546    551914.29543  24785478.3054   24785479.3404
        39.5004         18.5004
 12  3 16 13 25 14.0000000  0  9G10G08G02G21G29G05G15G26G07
    924893.68046    691329.83243  24624433.1414   24624434.7424
        41.2504         22.2504
    542194.06246    433845.74543  24665254.7504   24665256.3914
        39.2504         19.2504
    932602.00047    707926.70745  21750093.6094   21750091.0474
        47.5004         35.2504
    503099.76745    395598.63642  25064737.1954   25064735.2344
        32.5004         17.2504
    663650.96148    514390.69446  21224017.1564   21224015.2504
        51.0004         40.7504
    849627.77448    642137.89347  20696231.6024   20696229.2034
        50.7504         42.5004
    408846.17947    326611.92345  22871039.4534   22871039.7664
        44.7504         32.0004
    472081.81348    378719.66746  20563400.5164   20563398.6374
        50.7504         39.2504
    717470.50846    552036.20343  24785508.3914   24785509.0944
        39.0004         18.5004
 12  3 16 13 25 15.0000000  0  9G10G08G02G21G29G05G15G26G07
    928200.10046    693906.26743  24625063.6884   24625064.0984
        40.5004         22.2504
    540372.02146    432425.98543  24664907.9534   24664909.4454
        39.0004         19.5004
    935025.59247    709815.21645  21750555.1884   21750551.9414
        47.2504         35.5004
    500016.65945    393196.23142  25064150.8834   25064148.5984
        32.0004         17.2504
    663317.52948    514130.87546  21223953.2664   21223951.7774
        51.0004         40.7504
    850909.76048    643136.84447  20696475.6564   20696473.2074
        50.7504         42.5004
    405311.59147    323857.69445  22870366.9774   22870366.9494
        44.5004         32.5004
    469928.57248    377041.82046  20562990.7194   20562989.0124
        50.5004         39.5004
    717627.28746    552158.36443  24785538.8054   24785539.1414
        38.5004         19.2504
 12  3 16 13 25 16.0000000  0  9G10G08G02G21G29G05G15G26G07
    931507.04946    696483.11643  24625692.9774   24625693.6374
        41.2504         22.5004
    538550.98446    431007.02143  24664561.5164   24664562.9024
        40.2504         19.0004
    937450.14647    711704.48845  21751016.3444   21751013.3914
        47.5004         35.2504
    496934.00545    390794.18242  25063562.1254   25063560.6374
        31.7504         17.2504
    662985.33748    513872.03346  21223890.4614   21223888.5864
        51.0004         40.5004
    852192.63848    644136.49447  20696719.6094   20696717.8134
        50.5004         42.5004
    401777.83247    321104.12145  22869694.3834   22869694.2734
        44.7504         32.5004
    467776.55548    375364.93146  20562581.0004   20562579.5984
        50.7504         40.0004
    717785.26346    552281.43643  24785568.9064   24785568.8874
        39.5004         19.5004
 12  3 16 13 25 17.0000000  0  9G10G08G02G21G29G05G15G26G07
    934813.06546    699059.23343  24626321.7814   24626321.8524
        40.7504         22.5004
    536729.35246    429587.58243  24664215.9844   24664215.9734
        40.2504         19.0004
    939874.08047    713593.26445  21751477.5784   21751474.1254
        47.5004         35.5004
    493850.38545    388391.37642  25062977.3914   25062974.9414
        32.0004         17.7504
    662652.82948    513612.93446  21223826.9534   21223825.1604
        50.5004         40.5004
    853474.86148    645135.62947  20696963.8984   20696961.4304
        50.7504         42.5004
    398243.36347    318349.99545  22869021.7344   22869021.7664
        44.7504         32.2504
    465624.25048    373687.81646  20562171.5394   20562169.5554
        50.7504         39.5004
    717942.79446    552404.18543  24785598.0864   24785599.2234
        39.2504         19.2504
 12  3 16 13 25 18.0000000  0  9G10G08G02G21G29G05G15G26G07
    938119.31746    701635.53643  24626951.7034   24626951.6334
        39.7504         22.5004
    534908.45146    428168.67843  24663869.4224   24663870.0004
        41.2504         18.5004
    942298.68447    715482.55946  21751939.1804   21751935.6684
        47.7504         36.0004
    490767.02745    385988.75343  25062391.2274   25062388.4304
        32.2504         18.2504
    662321.30348    513354.60446  21223764.1564   21223762.0314
        50.5004         41.0004
    854757.70348    646135.24147  20697207.5004   20697205.1884
        50.5004         42.0004
    394709.46247    315596.30545  22868349.7344   22868349.5554
        45.0004         32.2504
    463472.92848    372011.45946  20561762.1254   20561760.8204
        50.7504         39.5004
    718101.21846    552527.64843  24785628.9774   24785629.4104
        37.5004         19.0004
 12  3 16 13 25 19.0000000  0  9G10G08G02G21G29G05G15G26G07
    941425.82846    704212.05243  24627580.5004   24627580.7384
        38.2504         22.0004
    533088.20046    426750.26843  24663522.0784   24663523.6644
        40.0004         18.5004
    944723.88548    717372.32545  21752400.6954   21752397.3284
        48.5004         35.5004
    487683.88545    383586.28943  25061804.8364   25061801.8634
        32.0004         18.2504
    661990.65748    513096.95246  21223700.8914   21223698.8094
        50.7504         41.0004
    856041.12348    647135.30847  20697451.9064   20697449.7194
        50.5004         42.5004
    391176.07047    312843.01245  22867677.3134   22867677.2384
        44.5004         32.5004
    461322.53948    370335.83446  20561352.8284   20561351.4804
        51.0004         39.5004
    718260.58446    552651.84043  24785658.9844   24785659.2584
        40.2504         19.2504
 12  3 16 13 25 20.0000000  0  9G10G08G02G21G29G05G15G26G07
    944732.27746    706788.50243  24628209.9694   24628209.8164
        41.0004         21.5004
    531268.33546    425332.16743  24663176.2504   24663177.4104
        41.5004         19.0004
    947149.37748    719262.33346  21752862.2664   21752858.5234
        49.2504         36.0004
    484600.61445    381183.73843  25061218.4384   25061215.0984
        32.2504         18.2504
    661660.62948    512839.79246  21223637.9774   21223636.3594
        51.0004         41.0004
    857324.79448    648135.56647  20697696.3134   20697694.1844
        51.0004         42.7504
    387642.86247    310089.86045  22867004.7274   22867004.5554
        44.5004         31.7504
    459172.76148    368660.67446  20560943.7664   20560942.1804
        51.0004         39.7504
    718420.41546    552776.37143  24785689.1174   24785689.5314
        41.7504         19.2504
 12  3 16 13 25 21.0000000  0  9G10G08G02G21G29G05G15G26G07
    948038.65246    709364.88343  24628838.6174   24628838.8364
        41.0004         21.5004
    529448.81146    423914.38043  24662829.4224   24662830.8554
        41.5004         19.0004
    949575.20548    721152.58245  21753323.7974   21753320.3324
        48.0004         35.7504
    481517.30245    378781.15442  25060630.8444   25060628.3554
        32.2504         17.7504
    661331.23048    512583.11846  21223575.2894   21223573.6334
        51.0004         41.0004
    858608.76348    649136.06147  20697940.6024   20697938.3284
        51.0004         42.5004
    384109.88147    307336.88245  22866332.6174   22866332.4144
        44.0004         32.2504
    457023.62748    366986.02746  20560534.8524   20560533.0744
        50.7504         40.0004
    718580.78246    552901.32243  24785720.5784   24785720.6454
        39.5004         19.0004
 12  3 16 13 25 22.0000000  0  9G10G08G02G21G29G05G15G26G07
    951344.76847    711941.07343  24629467.9064   24629467.8364
        42.0004         21.5004
    527629.46247    422496.71043  24662483.8284   24662484.6844
        42.5004         19.2504
    952001.13748    723042.92045  21753785.1414   21753781.7934
        48.7504         35.5004
    478433.68345    376378.34442  25060043.7894   25060041.0824
        32.0004         17.7504
    661002.22848    512326.75746  21223512.8204   21223511.4104
        51.0004         41.0004
    859892.78948    650136.60647  20698185.0004   20698182.8984
        51.0004         42.5004
    380576.92647    304583.93145  22865660.0314   22865659.9494
        44.0004         32.0004
    454874.91948    365311.70946  20560126.0004   20560124.2274
        51.0004         40.0004
    718741.54246    553026.57443  24785751.0704   24785751.2814
        41.2504         19.0004
 12  3 16 13 25 23.0000000  0  9G10G08G02G21G29G05G15G26G07
    954651.08947    714517.40443  24630096.9304   24630097.0234
        42.5004         22.0004
    525810.73647    421079.53643  24662136.5704   24662138.5434
        42.7504         20.0004
    954427.69648    724933.74245  21754247.2504   21754243.8954
        49.0004         35.5004
    475350.24645    373975.66242  25059455.1484   25059452.7974
        31.2504         17.2504
    660674.13548    512071.09546  21223450.5164   21223448.4844
        51.0004         41.0004
    861177.37548    651137.58447  20698429.7034   20698427.2734
        51.0004         42.5004
    377044.43847    301831.35045  22864987.9384   22864987.7304
        44.2504         31.7504
    452727.14148    363638.11346  20559717.1094   20559715.6564
        51.0004         40.0004
    718903.12446    553152.48643  24785781.9844   24785782.1414
        41.7504         19.7504
 12  3 16 13 25 24.0000000  0  9G10G08G02G21G29G05G15G26G07
    957957.36647    717093.70043  24630725.6414   24630726.0434
        42.0004         22.2504
    523992.35947    419662.62143  24661791.0784   24661792.6414
        44.0004         20.5004
    956854.54348    726824.78845  21754708.8524   21754705.4414
        49.0004         35.5004
    472266.72945    371572.93142  25058869.9924   25058867.8364
        32.5004         17.2504
    660346.66148    511815.92246  21223388.1484   21223386.4454
        51.0004         41.0004
    862462.24548    652138.77947  20698674.2274   20698671.8284
        50.7504         42.5004
    373512.17547    299078.94345  22864315.5704   22864315.9654
        44.2504         31.5004
    450580.00348    361965.02246  20559308.6334   20559307.2854
        51.0004         39.7504
    719065.27146    553278.82143  24785812.6334   24785812.8284
        40.5004         20.5004
 12  3 16 13 25 25.0000000  0  9G10G08G02G21G29G05G15G26G07
    961264.14047    719670.38143  24631355.4304   24631355.4264
        42.0004         22.7504
    522174.91947    418246.43543  24661445.2034   24661446.5234
        43.0004         21.0004
    959282.23548    728716.49345  21755170.8134   21755167.8324
        48.7504         35.7504
    469183.67545    369170.54142  25058283.9064   25058280.8674
        32.5004         16.7504
    660020.32248    511561.62646  21223326.2894   21223324.3134
        51.0004         40.7504
    863747.92248    653140.60147  20698918.8594   20698916.2274
        51.0004         42.5004
    369980.66847    296327.13245  22863644.1564   22863643.9344
        44.0004         31.7504
    448434.01948    360292.82446  20558900.3204   20558898.8164
        50.7504         39.5004
    719228.47947    553405.99143  24785843.0004   24785843.7274
        42.5004         21.0004
 12  3 16 13 25 26.0000000  0  9G10G08G02G21G29G05G15G26G07
    964570.16847    722246.51743  24631984.6254   24631984.5784
        42.0004         22.7504
    520357.16047    416829.99643  24661099.7344   24661100.9024
        43.2504         21.0004
    961709.60648    730607.94545  21755633.1884   21755629.6724
        48.5004         35.5004
    466099.88245    366767.59542  25057696.1334   25057693.9694
        32.0004         16.7504
    659693.94248    511307.31246  21223264.0004   21223262.1804
        51.0004         40.5004
    865033.20348    654142.11947  20699163.2734   20699161.1454
        50.7504         42.7504
    366448.70747    293574.96345  22862971.7114   22862971.7194
        44.5004         32.5004
    446288.02348    358620.62746  20558492.1094   20558490.0004
        50.7504         39.5004
    719391.61547    553533.11443  24785874.2344   24785874.5744
        43.0004         21.7504
 12  3 16 13 25 27.0000000  0  9G10G08G02G21G29G05G15G26G07
    967876.56447    724822.92543  24632613.6884   24632613.6764
        42.0004         23.0004
    518540.15447    415414.15743  24660753.9454   24660755.1804
        42.5004         21.0004
    964137.69848    732499.96245  21756095.1254   21756091.5634
        48.5004         35.7504
    463016.34045    364364.80342  25057110.4614   25057107.3324
        32.0004         17.2504
    659368.60448    511053.79846  21223202.1804   21223199.7584
        51.0004         40.5004
    866319.18548    655144.18747  20699408.0394   20699405.9494
        50.5004         42.5004
    362917.34547    290823.25645  22862299.7894   22862299.4574
        45.0004         32.5004
    444143.06748    356949.23046  20558083.8134   20558082.1564
        50.5004         39.5004
    719555.67147    553660.98343  24785904.9534   24785905.6684
        42.2504         22.0004
 12  3 16 13 25 28.0000000  0  9G10G08G02G21G29G05G15G26G07
    971182.84246    727399.24343  24633243.0944   24633242.8674
        41.7504         22.0004
    516723.51347    413998.58843  24660408.0704   24660409.3284
        43.0004         21.5004
    966566.09648    734392.21845  21756556.7584   21756553.5864
        48.5004         35.5004
    459932.83645    361962.06242  25056521.3134   25056518.5744
        30.7504         17.2504
    659043.86548    510800.75646  21223140.4694   21223138.1254
        50.5004         41.0004
    867605.41948    656146.44247  20699652.5394   20699650.5084
        50.7504         42.5004
    359386.19547    288071.70745  22861628.1174   22861627.6374
        45.0004         32.2504
    441998.73448    355278.31746  20557675.5474   20557673.7974
        50.7504         39.5004
    719720.27247    553789.26243  24785937.1954   24785936.6884
        43.0004         22.2504
 12  3 16 13 25 29.0000000  0  9G10G08G02G21G29G05G15G26G07
    974488.89846    729975.39643  24633872.3754   24633872.3014
        41.5004         22.0004
    514907.07747    412583.19443  24660062.3914   24660063.5204
        42.5004         21.7504
    968994.61748    736284.57346  21757019.2814   21757015.9064
        48.2504         36.0004
    456848.95145    359559.05943  25055933.6094   25055932.0744
        31.5004         18.2504
    658719.55848    510548.04946  21223078.2344   21223076.4804
        50.2504         41.0004
    868891.75348    657148.78247  20699897.3594   20699895.2664
        50.7504         42.5004
    355855.07647    285320.18845  22860955.9694   22860955.5904
        44.7504         32.2504
    439854.85648    353607.77046  20557267.6414   20557266.2074
        50.7504         39.5004
    719885.24347    553917.80543  24785968.2664   24785968.3404
        43.2504         22.5004
 12  3 16 13 25 30.0000000  0  9G10G08G02G21G29G05G15G26G07
    977795.20447    732551.73643  24634501.3674   24634501.3094
        42.0004         22.5004
    513091.31247    411168.32643  24659716.8674   24659717.8674
        42.5004         21.7504
    971423.79848    738177.44046  21757481.0704   21757477.7194
        48.0004         36.0004
    453765.30345    357156.22642  25055346.7424   25055345.6254
        31.7504         17.7504
    658396.19548    510296.07646  21223016.8134   21223014.9384
        50.0004         41.0004
    870178.67248    658151.57147  20700142.3594   20700140.1134
        50.2504         42.5004
    352324.49847    282569.07745  22860283.9534   22860283.4454
        45.0004         31.0004
    437711.95148    351937.97246  20556859.6954   20556858.3714
        50.5004         40.0004
    720051.10747    554047.03143  24786000.0554   24785999.5944
        43.0004         23.0004
 12  3 16 13 25 31.0000000  0  9G10G08G02G21G29G05G15G26G07
    981101.63647    735128.16943  24635130.0004   24635130.6094
        42.0004         22.5004
    511276.09147    409753.87643  24659371.6954   24659371.9804
        42.5004         21.7504
    973853.42948    740070.65545  21757943.6644   21757939.9774
        48.2504         35.5004
    450681.74645    354753.46042  25054761.2274   25054760.1254
        32.5004         17.7504
    658073.58848    510044.69346  21222955.5474   21222953.6094
        50.5004         41.0004
    871466.04548    659154.72347  20700387.4844   20700384.9844
        50.7504         42.2504
    348794.31247    279818.28045  22859612.2734   22859612.0124
        44.7504         31.2504
    435569.81648    350268.78446  20556452.6254   20556450.5704
        50.7504         39.7504
    720217.66747    554176.81943  24786031.8444   24786031.2774
        43.5004         22.5004
 12  3 16 13 25 32.0000000  0  9G10G08G02G21G29G05G15G26G07
    984407.69746    737704.32643  24635759.3834   24635759.9184
        41.7504         22.0004
    509460.90547    408339.45843  24659026.3834   24659026.9344
        42.0004         21.7504
    976283.09548    741963.90145  21758405.9774   21758402.6884
        48.2504         35.0004
    447597.82645    352350.42542  25054175.7194   25054173.3794
        32.2504         17.7504
    657751.33948    509793.58746  21222894.1174   21222891.8484
        50.7504         41.0004
    872753.39148    660157.84847  20700632.1644   20700630.2154
        51.0004         42.2504
    345264.02547    277067.41745  22858940.3594   22858940.0164
        44.7504         32.0004
    433428.03648    348599.86646  20556044.9144   20556043.3594
        51.2504         40.0004
    720384.47047    554306.77243  24786063.3204   24786063.2074
        43.5004         22.5004
 12  3 16 13 25 33.0000000  0  9G10G08G02G21G29G05G15G26G07
    987713.93946    740280.62343  24636389.0234   24636388.9224
        41.5004         22.5004
    507646.33447    406925.52943  24658681.8754   24658681.7704
        42.2504         22.0004
    978713.31748    743857.57845  21758868.4144   21758865.1094
        48.5004         35.5004
    444514.11045    349947.54742  25053588.5084   25053586.3014
        32.2504         17.7504
    657429.93248    509543.14246  21222833.2424   21222831.1414
        50.5004         41.2504
    874041.25348    661161.38047  20700877.3674   20700875.0084
        51.0004         42.5004
    341734.20047    274316.90545  22858268.6254   22858268.2194
        45.0004         31.7504
    431287.13648    346931.62846  20555637.5234   20555635.8714
        51.0004         39.7504
    720552.07847    554437.36343  24786095.5864   24786095.1524
        43.0004         22.2504
 12  3 16 13 25 34.0000000  0  9G10G08G02G21G29G05G15G26G07
    991019.89046    742856.69643  24637018.3364   24637017.6684
        41.2504         22.5004
    505831.90647    405511.69943  24658335.8834   24658336.5234
        42.7504         22.0004
    981143.61647    745751.31445  21759330.9144   21759327.9344
        47.7504         35.7504
    441430.00345    347544.36942  25053001.5084   25052999.1724
        32.7504         17.7504
    657108.91048    509292.99146  21222772.1254   21222770.2544
        50.5004         41.5004
    875329.15448    662164.94047  20701122.8204   20701120.5004
        51.0004         42.2504
    338204.38547    271566.40745  22857596.8594   22857596.7154
        44.5004         31.5004
    429146.63048    345263.69246  20555229.8914   20555228.3524
        51.2504         39.5004
    720719.99447    554568.20443  24786127.0314   24786127.1764
        42.7504         22.7504
 12  3 16 13 25 35.0000000  0  9G10G08G02G21G29G05G15G26G07
    994326.17846    745433.01943  24637647.3054   24637647.3554
        40.7504         22.5004
    504018.26047    404098.48743  24657991.0944   24657991.2974
        43.0004         22.2504
    983574.64648    747645.62245  21759793.9304   21759790.5594
        48.0004         35.5004
    438346.25645    345141.43042  25052413.6334   25052410.8914
        31.7504         17.7504
    656788.91348    509043.64346  21222711.2274   21222709.0084
        50.7504         41.0004
    876617.73048    663169.02247  20701367.7114   20701365.8164
        51.0004         42.2504
    334675.15747    268816.35545  22856925.3054   22856924.9924
        44.5004         31.7504
    427007.17148    343596.58646  20554822.9224   20554821.0434
        51.2504         40.0004
    720888.86047    554699.80543  24786159.2504   24786158.7894
        42.5004         23.7504
 12  3 16 13 25 36.0000000  0  9G10G08G02G21G29G05G15G26G07
    997632.40346    748009.29743  24638276.0554   24638276.2424
        41.5004         22.7504
    502204.94147    402685.50243  24657645.2814   24657646.2584
        43.0004         22.0004
    986005.96848    749540.15745  21760256.2974   21760252.8164
        48.2504         35.5004
    435262.34345    342738.37142  25051828.0164   25051826.1374
        32.0004         17.7504
    656469.50448    508794.75246  21222650.5864   21222648.5354
        50.7504         41.0004
    877906.57648    664173.31547  20701612.8054   20701611.2854
        51.0004         42.5004
    331146.15447    266066.48445  22856253.7194   22856253.4144
        44.5004         31.5004
    424868.34148    341929.96446  20554415.9694   20554414.0594
        51.0004         40.0004
    721058.27947    554831.82843  24786191.5394   24786191.1134
        42.7504         23.7504
 12  3 16 13 25 37.0000000  0  9G10G08G02G21G29G05G15G26G07
   1000938.42146    750585.40343  24638905.4924   24638905.4884
        40.7504         22.7504
    500391.84947    401272.69743  24657300.6174   24657301.0904
        42.7504         21.5004
    988437.44348    751434.80945  21760719.3204   21760715.9384
        48.5004         34.7504
    432178.29445    340335.20042  25051238.8674   25051237.2154
        31.2504         17.2504
    656150.56548    508546.23346  21222589.9224   21222587.7664
        50.7504         41.0004
    879195.55548    665177.71747  20701858.1414   20701856.1024
        51.0004         42.2504
    327617.21147    263316.65645  22855582.3524   22855581.7274
        44.5004         32.0004
    422729.98748    340263.71046  20554009.1804   20554007.3674
        51.0004         40.0004
    721228.09847    554964.16044  24786224.4304   24786223.6994
        43.0004         24.5004
 12  3 16 13 25 38.0000000  0  9G10G08G02G21G29G05G15G26G07
   1004244.24946    753161.36643  24639534.4454   24639534.3874
        41.5004         22.5004
    498579.02447    399860.11343  24656955.0634   24656956.2034
        42.5004         21.7504
    990869.14248    753329.63945  21761181.9224   21761178.6054
        48.5004         35.0004
    429093.98145    337931.85442  25050652.5164   25050650.4884
        31.7504         17.7504
    655832.15848    508298.11746  21222529.0864   21222526.8204
        50.7504         41.0004
    880484.70748    666182.24647  20702103.4694   20702101.6994
        51.0004         42.5004
    324088.39447    260566.93445  22854910.9924   22854910.1134
        44.2504         31.5004
    420592.15448    338597.87246  20553602.6804   20553600.6524
        51.0004         40.0004
    721398.35847    555096.82643  24786256.6724   24786256.2274
        42.5004         22.7504
 12  3 16 13 25 39.0000000  0  9G10G08G02G21G29G05G15G26G07
   1007550.64746    755737.78743  24640164.0864   24640163.9774
        41.5004         22.5004
    496767.18347    398448.28343  24656610.2664   24656611.4694
        43.0004         21.7504
    993301.77048    755225.19345  21761644.6644   21761641.4104
        48.5004         35.0004
    426010.22245    335528.91542  25050065.9694   25050063.3834
        30.5004         17.7504
    655514.96548    508050.95946  21222468.7114   21222466.6484
        51.0004         40.5004
    881774.72948    667187.46047  20702349.1024   20702347.0124
        50.7504         42.2504
    320560.38147    257817.83545  22854239.7584   22854239.0354
        44.5004         32.0004
    418455.59048    336933.01546  20553195.4694   20553193.7504
        50.7504         40.0004
    721569.77947    555230.39543  24786288.3284   24786288.7504
        43.0004         21.5004
 12  3 16 13 25 40.0000000  0  9G10G08G02G21G29G05G15G26G07
   1010856.61547    758313.84843  24640793.2034   24640793.1454
        42.0004         22.5004
    494955.33447    397036.44943  24656265.7664   24656266.2774
        43.5004         21.5004
    995734.33948    757120.70345  21762107.5314   21762104.2704
        48.7504         35.2504
    422926.03845    333125.64742  25049478.1884   25049476.5204
        30.7504         17.7504
    655198.01548    507803.98146  21222408.5164   21222406.5824
        51.2504         40.7504
    883064.67048    668192.61147  20702594.6094   20702593.0314
        51.0004         42.7504
    317032.23147    255068.63445  22853568.0314   22853567.4534
        44.2504         32.5004
    416319.29648    335268.37246  20552789.1804   20552787.3794
        50.7504         40.0004
    721741.41147    555364.11243  24786321.7584   24786320.8754
        42.2504         22.0004
 12  3 16 13 25 41.0000000  0  9G10G08G02G21G29G05G15G26G07
   1014162.84347    760890.11843  24641421.5164   24641422.3874
        42.7504         22.7504
    493144.16747    395625.15343  24655920.9774   24655921.1954
        43.2504         21.5004
    998167.56748    759016.72345  21762570.5554   21762567.4104
        48.5004         35.2504
    419842.03045    330722.53142  25048892.6254   25048889.6564
        30.2504         17.7504
    654882.02348    507557.75146  21222348.3984   21222346.3054
        51.5004         40.7504
    884355.22148    669198.22547  20702840.0944   20702838.4654
        51.0004         42.7504
    313504.64647    252319.86945  22852896.8134   22852896.5634
        43.7504         32.5004
    414183.94948    333604.47046  20552382.5634   20552380.9304
        51.2504         40.0004
    721913.87347    555498.49943  24786353.7734   24786353.7854
        42.0004         21.7504
 12  3 16 13 25 42.0000000  0  9G10G08G02G21G29G05G15G26G07
   1017468.85147    763466.23643  24642051.3674   24642051.2464
        42.2504         22.7504
    491333.22647    394214.04043  24655576.5704   24655576.9414
        43.5004         21.7504
   1000600.93448    760912.84545  21763033.6804   21763030.6174
        48.5004         35.2504
    416757.79245    328319.23542  25048304.8284   25048303.0434
        31.0004         17.7504
    654566.48448    507311.87646  21222288.1254   21222286.2854
        51.0004         40.7504
    885645.87048    670203.92847  20703085.9144   20703083.7194
        51.0004         42.7504
    309977.09947    249571.13145  22852225.4144   22852225.0124
        43.5004         32.0004
    412049.08648    331940.93646  20551976.6414   20551974.5824
        51.0004         40.0004
    722086.73647    555633.20643  24786386.9224   24786386.8054
        42.5004         22.2504
 12  3 16 13 25 43.0000000  0  9G10G08G02G21G29G05G15G26G07
   1020774.79947    766042.29843  24642680.2584   24642680.6484
        42.0004         22.7504
    489522.62247    392803.16843  24655231.9384   24655232.1214
        43.5004         22.0004
   1003034.61248    762809.21245  21763496.6724   21763493.4844
        48.5004         35.0004
    413673.49345    325915.87042  25047717.9064   25047716.1684
        30.7504         17.7504
    654251.54848    507066.47746  21222228.6484   21222226.3404
        50.7504         41.0004
    886936.78248    671209.83447  20703331.2194   20703329.5664
        50.7504         42.7504
    306449.75747    246822.54845  22851554.3524   22851553.8984
        43.7504         32.2504
    409914.85348    330277.89946  20551570.4304   20551568.8984
        51.2504         40.0004
    722260.12547    555768.31943  24786420.6484   24786419.5664
        42.5004         22.5004
 12  3 16 13 25 44.0000000  0  9G10G08G02G21G29G05G15G26G07
   1024080.85347    768618.45243  24643309.3674   24643309.6914
        42.2504         22.5004
    487712.55447    391392.73643  24654887.4304   24654887.6254
        44.0004         21.7504
   1005468.78748    764705.96745  21763959.6094   21763956.6684
        48.7504         35.2504
    410589.27744    323512.60642  25047131.3834   25047129.1484
        28.7504         17.2504
    653937.41448    506821.69346  21222168.6094   21222166.4414
        51.2504         41.0004
    888228.14448    672216.09347  20703576.8444   20703575.0044
        51.0004         42.7504
    302922.81447    244074.28045  22850883.0234   22850882.7464
        44.0004         32.2504
    407781.44548    328615.50646  20551164.3364   20551162.3484
        51.0004         40.0004
    722434.25247    555903.98843  24786453.5944   24786452.9224
        43.2504         22.7504
 12  3 16 13 25 45.0000000  0  9G10G08G02G21G29G05G15G26G07
   1027386.83747    771194.53843  24643938.2274   24643938.7504
        42.0004         22.7504
    485902.86347    389982.61143  24654543.1484   24654543.2544
        44.0004         22.0004
   1007903.27248    766602.97145  21764423.3594   21764419.9734
        48.5004         35.0004
    407504.90344    321109.21142  25046545.0784   25046542.6334
        29.0004         16.7504
    653623.87948    506577.37646  21222108.9144   21222106.9414
        51.2504         41.0004
    889519.78948    673222.56647  20703822.8594   20703821.2504
        50.7504         43.0004
    299396.07647    241326.17845  22850211.9534   22850211.5944
        44.0004         31.5004
    405648.65248    326953.59146  20550758.6414   20550756.9144
        51.2504         40.0004
    722608.95547    556040.12143  24786486.9614   24786485.9694
        44.0004         22.7504
 12  3 16 13 25 46.0000000  0  9G10G08G02G21G29G05G15G26G07
   1030692.76347    773770.57943  24644567.5944   24644567.8984
        42.5004         22.5004
    484093.53447    388572.72943  24654198.4064   24654198.7774
        44.0004         21.5004
   1010338.07248    768500.21845  21764886.7814   21764883.2074
        48.0004         35.5004
    404420.53144    318705.77542  25045956.7664   25045955.3324
        29.7504         16.7504
    653310.99248    506333.56846  21222049.5164   21222047.0784
        51.2504         41.0004
    890811.71148    674229.25447  20704068.6414   20704066.9614
        50.5004         42.7504
    295869.58347    238578.26945  22849540.8204   22849540.2934
        44.2504         32.0004
    403516.51148    325292.18246  20550352.9614   20550351.0314
        51.5004         40.0004
    722784.19347    556176.67643  24786520.1334   24786519.2854
        43.5004         23.2504
 12  3 16 13 25 47.0000000  0  9G10G08G02G21G29G05G15G26G07
   1033998.87847    776346.76443  24645196.6024   24645196.8134
        42.2504         22.5004
    482284.80447    387163.33643  24653854.1724   24653854.9884
        43.7504         21.7504
   1012773.44848    770397.90345  21765350.0004   21765346.7304
        48.7504         35.2504
    401336.31745    316302.48342  25045370.1414   25045368.4224
        30.5004         16.2504
    652998.94148    506090.41046  21221989.9304   21221987.6844
        51.2504         41.0004
    892104.15348    675236.35347  20704314.9384   20704312.9454
        50.7504         42.5004
    292343.52547    235830.68845  22848869.9454   22848869.6604
        45.0004         31.7504
    401385.25348    323631.45746  20549947.5314   20549945.7814
        51.2504         40.2504
    722960.22547    556313.84243  24786553.9924   24786552.6724
        43.7504         23.0004
 12  3 16 13 25 48.0000000  0  9G10G08G02G21G29G05G15G26G07
   1037304.65347    778922.69343  24645825.4064   24645826.3594
        42.0004         22.7504
    480476.18047    385754.02243  24653510.1024   24653510.7384
        43.5004         21.5004
   1015208.82548    772295.59745  21765813.4694   21765810.2234
        48.5004         35.5004
    398251.73645    313898.90842  25044783.7664   25044781.2934
        31.2504         16.2504
    652687.23648    505847.52546  21221931.0864   21221928.6644
        51.0004         40.7504
    893396.59248    676243.45047  20704560.7344   20704558.8524
        50.7504         42.2504
    288817.39747    233083.05445  22848198.8054   22848198.4494
        45.0004         32.0004
    399254.34848    321971.01446  20549541.7584   20549539.8524
        51.0004         40.2504
    723136.51147    556451.20743  24786586.8674   24786586.1414
        43.2504         23.5004
 12  3 16 13 25 49.0000000  0  9G10G08G02G21G29G05G15G26G07
   1040610.67146    781498.81143  24646454.7814   24646455.2544
        41.2504         22.5004
    478668.25747    384345.24143  24653166.1954   24653166.6644
        43.0004         21.0004
   1017644.88648    774193.82945  21766276.8204   21766274.0044
        48.5004         35.5004
    395167.37145    311495.49842  25044198.2974   25044196.1844
        32.0004         16.2504
    652376.49148    505605.38246  21221871.7734   21221869.5394
        51.0004         41.0004
    894689.66148    677251.03747  20704806.6884   20704804.7544
        50.5004         42.0004
    285291.85247    230335.87945  22847527.8754   22847527.6484
        45.0004         31.5004
    397124.43648    320311.33946  20549136.6414   20549134.3524
        51.0004         40.2504
    723313.70947    556589.28344  24786621.2664   24786620.4304
        43.2504         24.2504
 12  3 16 13 25 50.0000000  0  9G10G08G02G21G29G05G15G26G07
   1043916.50846    784074.78043  24647083.3594   24647084.4924
        41.7504         22.5004
    476860.50447    382936.60143  24652822.4304   24652822.5944
        42.5004         21.5004
   1020081.06348    776092.14945  21766740.6804   21766737.5824
        48.0004         35.2504
    392082.75545    309091.91342  25043611.7344   25043608.9844
        32.7504         16.7504
    652066.18048    505363.58946  21221812.6484   21221810.6764
        51.0004         41.0004
    895982.81048    678258.68247  20705052.8284   20705051.1214
        50.5004         42.2504
    281766.34147    227588.73845  22846856.9144   22846856.8674
        44.2504         31.5004
    394994.95648    318652.00346  20548731.2194   20548729.4494
        51.2504         40.2504
    723491.25747    556727.63044  24786654.9454   24786654.0474
        43.0004         24.2504
 12  3 16 13 25 51.0000000  0  9G10G08G02G21G29G05G15G26G07
   1047222.44747    786650.84143  24647712.7734   24647713.5634
        42.0004         22.5004
    475053.35947    381528.43843  24652478.2584   24652478.6454
        42.5004         21.5004
   1022517.80548    777990.90945  21767204.2894   21767201.2344
        48.2504         35.2504
    388998.22845    306688.39442  25043024.1174   25043021.9574
        33.5004         16.7504
    651756.71548    505122.44546  21221753.7734   21221751.5664
        51.2504         41.0004
    897276.45548    679266.71447  20705299.1804   20705297.2074
        50.5004         42.2504
    278241.26347    224841.92345  22846186.1334   22846186.3204
        44.0004         32.2504
    392866.36348    316993.35546  20548326.2814   20548324.4964
        51.0004         40.2504
    723669.60147    556866.60443  24786689.1484   24786688.0744
        43.5004         23.7504
 12  3 16 13 25 52.0000000  0  9G10G08G02G21G29G05G15G26G07
   1050528.25447    789226.81343  24648341.9384   24648342.1334
        42.0004         22.2504
    473246.46747    380120.46443  24652134.8754   24652135.0004
        42.5004         22.2504
   1024954.72248    779889.80245  21767668.0004   21767664.9774
        48.0004         35.5004
    385913.57845    304284.77642  25042437.7194   25042435.2974
        34.0004         16.7504
    651447.73748    504881.67946  21221694.8524   21221692.5824
        51.0004         41.0004
    898570.27048    680274.88547  20705545.0004   20705543.0944
        51.0004         42.2504
    274716.28947    222095.19545  22845515.2584   22845515.2344
        43.5004         32.0004
    390738.25548    315335.08946  20547921.4064   20547919.5904
        51.0004         40.5004
    723848.36147    557005.88843  24786723.0164   24786722.3754
        43.0004         23.2504
 12  3 16 13 25 53.0000000  0  9G10G08G02G21G29G05G15G26G07
   1053834.15346    791802.82243  24648970.6564   24648971.8134
        41.7504         22.2504
    471440.14747    378712.95043  24651791.6334   24651791.6684
        43.0004         22.0004
   1027392.17148    781789.10945  21768131.7504   21768128.8834
        48.0004         35.0004
    382828.97245    301881.18442  25041850.8054   25041847.9574
        33.7504         16.7504
    651139.58548    504641.55946  21221636.3134   21221634.1724
        50.7504         41.0004
    899864.54448    681283.40747  20705791.4064   20705789.7384
        50.7504         42.5004
    271191.74247    219348.79845  22844844.8444   22844844.7304
        44.2504         31.7504
    388610.98548    313677.48146  20547516.6724   20547514.5824
        50.7504         40.5004
    724027.87647    557145.76144  24786757.5004   24786756.4494
        43.0004         25.0004
 12  3 16 13 25 54.0000000  0  9G10G08G02G21G29G05G15G26G07
   1057139.71546    794378.58143  24649599.7504   24649600.8554
        41.2504         22.2504
    469633.84847    377305.45543  24651447.9064   24651447.8204
        43.5004         22.2504
   1029829.60848    783688.40345  21768595.6724   21768592.6764
        48.5004         35.0004
    379743.97945    299477.28742  25041263.5004   25041261.2544
        34.7504         16.7504
    650831.72848    504401.67346  21221577.6884   21221575.9454
        51.0004         40.7504
    901158.78148    682291.90847  20706037.9304   20706035.9384
        50.5004         42.2504
    267667.07647    216602.31145  22844173.7114   22844174.1804
        44.7504         31.5004
    386484.04648    312020.12646  20547111.6724   20547109.5904
        51.2504         40.5004
    724207.63347    557285.84044  24786791.1724   24786790.8324
        43.2504         24.2504
 12  3 16 13 25 55.0000000  0  9G10G08G02G21G29G05G15G26G07
   1060445.73446    796954.69143  24650229.1564   24650229.9884
        41.0004         22.0004
    467828.51547    375898.70543  24651103.5084   24651103.8484
        43.0004         22.2504
   1032267.92348    785588.39245  21769059.6884   21769056.2194
        48.0004         35.0004
    376659.47845    297073.79142  25040676.9224   25040674.1484
        34.2504         16.2504
    650525.03148    504162.68946  21221519.1414   21221517.0784
        51.0004         40.7504
    902453.85048    683301.04947  20706284.2424   20706282.2774
        50.5004         42.5004
    264143.20447    213856.44045  22843503.3674   22843503.2934
        44.2504         31.5004
    384358.32248    310363.72046  20546707.2664   20546705.3714
        51.5004         40.5004
    724388.46847    557426.76244  24786825.0704   24786824.8634
        43.7504         24.0004
 12  3 16 13 25 56.0000000  0  9G10G08G02G21G29G05G15G26G07
   1063751.29346    799530.45343  24650858.1954   24650858.5864
        41.5004         21.7504
    466023.12147    374491.91143  24650759.9844   24650760.0904
        43.0004         22.5004
   1034706.13148    787488.29045  21769523.7734   21769520.3324
        48.0004         35.2504
    373574.45945    294669.88842  25040089.5634   25040087.4494
        34.5004         16.2504
    650218.55148    503923.86846  21221460.8284   21221458.8204
        51.0004         40.7504
    903748.76948    684310.07947  20706530.6094   20706528.6294
        51.0004         42.5004
    260619.14647    211110.42745  22842832.7734   22842832.5944
        44.5004         31.7504
    382232.79948    308707.46546  20546303.0784   20546301.0044
        51.5004         40.2504
    724569.45647    557567.80144  24786860.1804   24786858.8984
        44.0004         24.5004
 12  3 16 13 25 57.0000000  0  9G10G08G02G21G29G05G15G26G07
   1067057.07246    802106.39543  24651487.0634   24651488.3554
        41.5004         22.0004
    464218.33347    373085.57543  24650417.1644   24650416.7274
        42.5004         22.7504
   1037144.93347    789388.65345  21769987.9614   21769984.8834
        47.7504         35.2504
    370489.62845    292266.11542  25039501.4144   25039498.4964
        34.0004         16.7504
    649912.96248    503685.74346  21221402.4614   21221400.4884
        51.0004         40.5004
    905044.25048    685319.54447  20706776.7814   20706774.9224
        50.2504         42.5004
    257095.52947    208364.75545  22842162.1254   22842162.2344
        44.7504         32.2504
    380108.19548    307051.93446  20545898.5314   20545896.3914
        51.0004         40.0004
    724751.27847    557709.47643  24786894.4924   24786893.7424
        44.0004         23.0004
 12  3 16 13 25 58.0000000  0  9G10G08G02G21G29G05G15G26G07
   1070362.88546    804682.34343  24652115.8984   24652117.2544
        41.5004         22.0004
    462414.05147    371679.65643  24650073.1414   24650073.5434
        42.5004         22.5004
   1039584.14048    791289.33245  21770451.7344   21770448.5864
        48.0004         34.7504
    367404.83945    289862.37542  25038915.8284   25038913.3054
        33.5004         16.7504
    649608.08748    503448.18746  21221344.8364   21221342.4964
        51.0004         40.7504
    906340.10648    686329.29747  20707023.3674   20707021.6564
        50.5004         42.5004
    253572.28747    205619.37145  22841491.8054   22841491.1454
        44.5004         31.7504
    377984.33948    305396.98746  20545494.2344   20545492.3524
        51.5004         40.2504
    724933.73147    557851.65143  24786929.1094   24786928.4024
        44.5004         23.0004
 12  3 16 13 25 59.0000000  0  9G10G08G02G21G29G05G15G26G07
   1073668.28546    807257.97743  24652744.5704   24652746.1564
        41.2504         21.7504
    460609.76047    370273.70443  24649730.4614   24649730.5354
        42.0004         22.2504
   1042023.33847    793190.00545  21770915.8364   21770912.8674
        47.5004         35.2504
    364319.58745    287458.29042  25038327.9844   25038326.2194
        33.5004         16.7504
    649303.49548    503210.83646  21221286.5944   21221284.3674
        50.7504         40.5004
    907635.88948    687339.00547  20707270.1094   20707268.4844
        50.2504         42.5004
    250048.91447    202873.89145  22840821.5004   22840821.2704
        44.5004         31.2504
    375860.76648    303742.25346  20545090.2114   20545088.4384
        51.0004         40.2504
    725116.42047    557994.00743  24786963.8834   24786963.5944
        44.5004         23.0004
 12  3 16 13 26  0.0000000  0  9G10G08G02G21G29G05G15G26G07
   1076974.22346    809833.99743  24653374.1334   24653375.1994
        41.0004         22.0004
    458806.42247    368868.50443  24649386.9924   24649387.1484
        42.2504         22.5004
   1044463.39047    795091.33745  21771380.0164   21771377.4104
        47.5004         35.2504
    361234.81845    285054.58742  25037740.9844   25037739.4924
        33.7504         16.7504
    649000.06348    502974.39146  21221229.2424   21221226.8094
        50.5004         40.7504
    908932.49648    688349.34947  20707516.9064   20707515.0944
        50.5004         42.5004
    246526.29447    200128.99345  22840151.4534   22840150.6334
        45.0004         32.2504
    373738.41248    302088.46446  20544686.1564   20544684.0704
        51.2504         40.0004
    725300.20347    558137.19944  24786998.9614   24786998.1374
        44.7504         24.5004
 12  3 16 13 26  1.0000000  0  9G10G08G02G21G29G05G15G26G07
   1080279.90846    812409.89543  24654003.7274   24654004.0434
        41.0004         21.5004
    457003.32747    367463.49943  24649043.7584   24649044.1844
        42.5004         22.5004
   1046903.63247    796992.82445  21771844.1954   21771842.0824
        47.2504         35.5004
    358149.91645    282650.76942  25037154.2814   25037152.3634
        33.2504         16.7504
    648697.11748    502738.33946  21221171.5704   21221169.4534
        50.5004         40.5004
    910229.25448    689359.80147  20707763.6334   20707761.6024
        50.5004         42.5004
    243003.76647    197384.16745  22839480.7274   22839480.6684
        45.2504         32.0004
    371616.55248    300435.07246  20544282.4224   20544280.5314
        51.2504         40.2504
    725484.41747    558280.74044  24787034.1334   24787033.2894
        44.0004         24.5004
 12  3 16 13 26  2.0000000  0  9G10G08G02G21G29G05G15G26G07
   1083585.40246    814985.60443  24654632.2974   24654633.1764
        40.7504         21.7504
    455200.39847    366058.63843  24648700.4144   24648701.2194
        42.5004         22.5004
   1049344.02747    798894.44045  21772309.1804   21772306.2704
        47.2504         35.5004
    355064.65945    280246.67042  25036566.9614   25036565.5394
        33.5004         16.7504
    648394.62948    502502.63446  21221113.5474   21221111.6094
        50.5004         40.5004
    911526.10248    690370.33447  20708010.4144   20708008.6484
        50.7504         42.5004
    239481.29047    194639.38445  22838810.4454   22838809.8524
        45.2504         31.7504
    369495.15448    298782.03146  20543878.9144   20543876.5864
        51.5004         40.2504
    725669.00047    558424.57444  24787068.5864   24787068.3324
        43.7504         24.2504
 12  3 16 13 26  3.0000000  0  9G10G08G02G21G29G05G15G26G07
   1086891.07046    817561.44343  24655261.8674   24655262.4654
        40.5004         21.5004
    453398.10647    364654.27043  24648357.7894   24648358.5004
        42.7504         22.5004
   1051784.99747    800796.48645  21772773.6334   21772770.7664
        47.5004         35.5004
    351979.64745    277842.77842  25035979.7274   25035978.4304
        33.5004         16.7504
    648093.01648    502267.60946  21221056.0314   21221054.3674
        50.2504         40.5004
    912823.50548    691381.29547  20708257.2504   20708255.4734
        51.2504         42.2504
    235959.28247    191894.96545  22838140.3834   22838139.8754
        45.0004         31.2504
    367374.65848    297129.69846  20543475.1884   20543473.1374
        51.0004         40.5004
    725854.39147    558569.04244  24787104.5944   24787104.1094
        43.7504         25.0004
 12  3 16 13 26  4.0000000  0  9G10G08G02G21G29G05G15G26G07
   1090196.76646    820137.29443  24655890.8674   24655891.4344
        40.7504         21.5004
    451596.23847    363250.22243  24648014.7974   24648015.3554
        43.5004         22.5004
   1054226.32147    802698.80945  21773238.4144   21773235.3794
        47.2504         35.5004
    348894.53845    275438.79342  25035392.6644   25035391.0164
        34.2504         16.2504
    647792.09048    502033.11646  21220999.1564   21220997.1134
        50.2504         40.5004
    914121.22848    692392.50547  20708504.5394   20708502.5664
        51.5004         42.5004
    232437.55647    189150.76145  22837470.0634   22837469.8204
        45.0004         31.2504
    365254.84948    295477.89646  20543071.9224   20543069.6644
        51.5004         40.2504
    726040.39547    558713.97544  24787139.9304   24787139.6724
        43.7504         24.7504
 12  3 16 13 26  5.0000000  0  9G10G08G02G21G29G05G15G26G07
   1093502.45046    822713.13843  24656519.8984   24656520.3284
        41.2504         21.7504
    449794.83547    361846.52643  24647672.2194   24647672.5554
        43.2504         22.5004
   1056668.08347    804601.48145  21773702.8984   21773699.8364
        47.2504         35.5004
    345809.53045    273034.89442  25034806.2974   25034804.5554
        33.0004         16.2504
    647491.86348    501799.17446  21220941.7814   21220939.2774
        50.5004         40.5004
    915419.32548    693404.01247  20708751.3524   20708749.6954
        51.0004         42.5004
    228916.16547    186406.81945  22836799.8284   22836799.1804
        44.7504         31.7504
    363135.76648    293826.66946  20542668.7814   20542666.7114
        51.5004         40.2504
    726227.05047    558859.42044  24787175.1884   24787174.9694
        43.7504         25.2504
 12  3 16 13 26  6.0000000  0  9G10G08G02G21G29G05G15G26G07
   1096807.86746    825288.79243  24657148.7194   24657149.6914
        40.7504         21.7504
    447993.56847    360442.95343  24647329.2734   24647329.5904
        43.0004         22.5004
   1059109.91747    806504.20945  21774168.1094   21774164.4804
        47.7504         35.5004
    342724.11845    270630.66542  25034218.6724   25034216.9144
        33.5004         16.2504
    647192.03448    501565.53546  21220884.7974   21220882.9454
        50.5004         40.5004
    916717.45748    694415.54147  20708998.5784   20708996.4804
        50.5004         42.7504
    225394.74947    183662.86745  22836130.2504   22836129.4064
        44.7504         31.7504
    361017.11648    292175.77546  20542265.4144   20542263.5204
        51.2504         40.2504
    726414.01847    559005.10944  24787210.9844   24787210.6484
        43.7504         24.0004
 12  3 16 13 26  7.0000000  0  9G10G08G02G21G29G05G15G26G07
   1100113.55146    827864.65643  24657777.6024   24657778.3014
        41.2504         21.7504
    446192.99447    359039.92243  24646986.1724   24646987.1254
        43.5004         22.5004
   1061552.37148    808407.41745  21774632.9614   21774629.0434
        48.0004         35.5004
    339638.93145    268226.64242  25033631.3524   25033628.6564
        33.5004         16.2504
    646893.12348    501332.61846  21220828.1254   21220825.9804
        50.5004         40.5004
    918016.16848    695427.52647  20709245.2664   20709243.4804
        51.0004         42.7504
    221873.84247    180919.30545  22835459.7734   22835459.0004
        45.0004         31.7504
    358899.40148    290525.60846  20541862.4304   20541860.6024
        51.0004         40.0004
    726601.84547    559151.47244  24787246.3674   24787246.3404
        43.7504         24.5004
 12  3 16 13 26  8.0000000  0  9G10G08G02G21G29G05G15G26G07
   1103419.03646    830440.34143  24658406.8284   24658407.1214
        41.0004         22.2504
    444392.66247    357637.06843  24646643.6334   24646644.0704
        43.2504         22.7504
   1063995.02448    810310.77745  21775097.3284   21775093.8674
        48.2504         35.2504
    336553.63445    265822.49942  25033044.8594   25033042.7034
        33.2504         16.2504
    646594.72948    501100.10746  21220771.1564   21220769.3444
        50.7504         40.7504
    919315.04048    696439.62947  20709492.8054   20709490.6214
        51.2504         42.5004
    218353.06147    178175.84145  22834790.2974   22834789.3164
        44.7504         32.0004
    356782.21848    288875.85946  20541459.9384   20541457.7934
        51.2504         40.0004
    726790.10847    559298.16144  24787282.6644   24787282.5474
        43.5004         24.5004
 12  3 16 13 26  9.0000000  0  9G10G08G02G21G29G05G15G26G07
   1106724.29546    833015.87943  24659036.0314   24659036.2814
        40.7504         22.5004
    442592.55747    356234.39143  24646301.7274   24646301.9574
        43.7504         22.7504
   1066437.84948    812214.28045  21775562.2894   21775559.1054
        48.5004         35.2504
    333468.06545    263418.16942  25032457.5704   25032455.3014
        33.5004         16.2504
    646296.79248    500867.94546  21220714.5864   21220712.2074
        51.0004         40.5004
    920614.05648    697451.85447  20709739.8674   20709737.8404
        50.7504         42.5004
    214832.35147    175432.43445  22834120.0944   22834119.3674
        44.7504         32.2504
    354665.52348    287226.48246  20541056.5474   20541054.6954
        51.0004         39.7504
    726978.76847    559445.16444  24787318.2974   24787317.9534
        43.5004         24.2504
 12  3 16 13 26 10.0000000  0  9G10G08G02G21G29G05G15G26G07
   1110030.03946    835591.76643  24659664.7734   24659665.3094
        40.7504         22.7504
    440793.30547    354832.37543  24645959.2114   24645959.1134
        43.2504         22.7504
   1068881.51148    814118.42945  21776026.9534   21776024.1604
        48.5004         35.2504
    330382.90245    261014.17342  25031870.4224   25031868.8244
        33.0004         16.2504
    645999.99348    500636.67246  21220658.3594   21220655.5594
        50.7504         40.5004
    921913.86748    698464.68747  20709987.3674   20709985.0824
        50.7504         42.5004
    211312.37647    172689.60145  22833450.5554   22833449.6054
        45.0004         32.0004
    352549.97848    285578.00546  20540654.0554   20540652.2464
        50.7504         39.7504
    727168.52847    559593.02344  24787354.5704   24787354.1414
        44.0004         24.5004
 12  3 16 13 26 11.0000000  0  9G10G08G02G21G29G05G15G26G07
   1113335.55646    838167.49043  24660294.3134   24660294.5744
        40.7504         22.5004
    438994.28647    353430.54843  24645617.3674   24645616.9614
        42.7504         22.7504
   1071325.31748    816022.68845  21776492.0634   21776488.6454
        48.5004         35.5004
    327297.50545    258609.95642  25031283.1644   25031280.9924
        33.2504         16.2504
    645703.66248    500405.76346  21220601.5864   21220599.3984
        50.7504         40.5004
    923213.77448    699477.60247  20710234.6024   20710232.6884
        51.2504         42.5004
    207792.44347    169946.79445  22832780.4224   22832779.6994
        44.5004         31.7504
    350434.92048    283929.90946  20540252.0164   20540249.6054
        51.0004         39.5004
    727358.63847    559741.16944  24787391.2344   24787390.6844
        43.7504         25.0004
 12  3 16 13 26 12.0000000  0  9G10G08G02G21G29G05G15G26G07
   1116640.94046    840743.11843  24660922.9534   24660923.1604
        41.0004         22.5004
    437195.56447    352028.93343  24645274.3444   24645275.0474
        42.7504         22.7504
   1073769.36548    817927.14845  21776957.2814   21776954.1564
        48.2504         35.5004
    324211.93545    256205.59542  25030694.9064   25030692.3714
        34.2504         16.2504
    645407.87348    500175.28146  21220545.6174   21220543.4224
        51.0004         40.5004
    924513.89648    700490.68347  20710482.1254   20710480.1254
        51.2504         43.0004
    204272.67847    167204.12845  22832110.5944   22832109.7424
        44.0004         32.0004
    348320.43248    282282.25946  20539849.2734   20539847.6174
        51.2504         40.0004
    727549.26047    559889.70644  24787427.0234   24787427.1174
        43.5004         25.2504
 12  3 16 13 26 13.0000000  0  9G10G08G02G21G29G05G15G26G07
   1119946.50746    843318.89743  24661552.2974   24661552.4614
        41.5004         22.7504
    435397.49047    350627.84443  24644932.2974   24644933.1454
        42.7504         22.7504
   1076214.02548    819832.07045  21777422.3594   21777419.4964
        48.5004         35.2504
    321126.63145    253801.45942  25030108.9224   25030106.6174
        34.5004         16.7504
    645112.96748    499945.48146  21220489.2274   21220487.0274
        51.0004         40.5004
    925814.56048    701504.19147  20710729.3054   20710727.8554
        51.5004         43.0004
    200753.40547    164461.83645  22831441.1954   22831440.1764
        44.2504         32.2504
    346206.86948    280635.33046  20539447.2344   20539445.2424
        51.2504         40.2504
    727740.67447    560038.86344  24787463.1564   24787463.7304
        44.0004         24.5004
 12  3 16 13 26 14.0000000  0  9G10G08G02G21G29G05G15G26G07
   1123251.72646    845894.37943  24662180.6334   24662181.5824
        41.7504         22.5004
    433599.47447    349226.79943  24644590.0394   24644590.7774
        43.0004         22.0004
   1078658.67048    821736.98645  21777887.2814   21777884.0824
        48.7504         35.2504
    318040.90845    251396.97642  25029522.0314   25029519.3244
        34.5004         16.7504
    644818.36948    499715.93146  21220433.3364   21220431.2974
        51.2504         40.5004
    927115.18948    702517.66647  20710976.9454   20710975.0274
        51.5004         43.0004
    197234.04547    161719.48245  22830771.1334   22830770.8364
        44.0004         32.2504
    344093.61948    278988.63646  20539045.1094   20539043.0904
        51.2504         40.0004
    727932.35047    560188.21644  24787499.9614   24787500.1644
        44.5004         24.2504
 12  3 16 13 26 15.0000000  0  9G10G08G02G21G29G05G15G26G07
   1126557.12046    848470.00243  24662810.0084   24662810.5744
        40.7504         22.0004
    431802.07547    347826.20743  24644247.9774   24644248.5164
        43.0004         22.2504
   1081103.87648    823642.34045  21778352.6024   21778349.6564
        48.5004         35.2504
    314955.28645    248992.59142  25028935.0554   25028932.0864
        34.5004         17.2504
    644524.65348    499487.05846  21220377.1414   21220375.0554
        51.0004         40.5004
    928416.32548    703531.53947  20711224.5554   20711222.4344
        51.0004         43.2504
    193715.14947    158977.48445  22830101.3834   22830100.9144
        44.2504         32.0004
    341981.28248    277342.65746  20538642.6804   20538640.8794
        51.0004         39.7504
    728124.82947    560338.19144  24787536.5784   24787537.0554
        44.0004         25.5004
 12  3 16 13 26 16.0000000  0  9G10G08G02G21G29G05G15G26G07
   1129862.54246    851045.65043  24663438.7504   24663439.5704
        40.7504         21.7504
    430005.09447    346425.96743  24643906.1644   24643906.5394
        43.2504         22.0004
   1083549.46648    825547.99545  21778818.2664   21778815.1884
        48.2504         35.0004
    311869.66445    246588.21942  25028348.2894   25028344.8754
        34.2504         17.2504
    644231.61448    499258.71746  21220321.4384   21220320.0634
        51.0004         40.2504
    929717.81348    704545.68647  20711472.3914   20711470.1414
        50.7504         43.5004
    190196.53247    156235.70145  22829431.6174   22829431.5784
        44.5004         32.5004
    339869.60548    275697.19446  20538241.1954   20538239.2894
        51.0004         39.7504
    728317.92247    560488.63944  24787573.4144   24787573.7424
        44.2504         24.2504
 12  3 16 13 26 17.0000000  0  9G10G08G02G21G29G05G15G26G07
   1133167.88046    853621.24143  24664067.5314   24664068.4024
        40.5004         21.5004
    428208.50947    345026.04243  24643564.6954   24643564.8674
        43.2504         22.0004
   1085995.38948    827453.90645  21779283.6094   21779280.3634
        48.5004         35.0004
    308784.00245    244183.81742  25027761.6414   25027758.0984
        35.2504         17.7504
    643939.18948    499030.84746  21220265.7344   21220263.8754
        50.5004         40.5004
    931019.58848    705560.05047  20711720.0164   20711718.2384
        50.7504         43.5004
    186678.15447    153494.10845  22828762.5164   22828761.9184
        44.7504         31.7504
    337758.59948    274052.25446  20537839.4454   20537837.9304
        51.0004         40.0004
    728511.59647    560639.56144  24787609.9454   24787610.8714
        44.2504         24.0004
 12  3 16 13 26 18.0000000  0  9G10G08G02G21G29G05G15G26G07
   1136473.29246    856196.89943  24664696.8444   24664697.4224
        41.0004         21.2504
    426412.37747    343626.46543  24643221.8754   24643222.7814
        43.7504         22.2504
   1088441.71548    829360.13045  21779749.4304   21779746.1914
        48.5004         35.0004
    305698.35845    241779.42842  25027174.0084   25027170.8714
        35.5004         17.7504
    643647.50348    498803.55946  21220210.0474   21220208.7384
        50.7504         40.2504
    932321.71448    706574.69647  20711967.8674   20711966.0634
        50.7504         43.5004
    183160.09647    150752.76545  22828093.0084   22828092.3794
        44.5004         31.5004
    335648.34648    272407.90746  20537437.7504   20537436.2624
        51.5004         39.7504
    728705.89047    560790.94944  24787647.1254   24787647.5864
        43.7504         25.5004
 12  3 16 13 26 19.0000000  0  9G10G08G02G21G29G05G15G26G07
   1139778.18946    858772.12343  24665326.0864   24665326.5474
        41.2504         21.5004
    424616.17747    342226.84143  24642880.4924   24642881.1374
        43.5004         22.0004
   1090887.93248    831266.27245  21780214.6484   21780211.8324
        48.5004         35.0004
    302612.15445    239374.60942  25026587.0864   25026583.5514
        35.0004         17.2504
    643355.98648    498576.40046  21220155.3284   21220153.2384
        50.5004         40.5004
    933623.70248    707589.22947  20712215.4614   20712213.5084
        50.5004         42.7504
    179641.81847    148011.24745  22827423.4844   22827423.2154
        44.5004         31.7504
    333538.27848    270763.69346  20537036.6334   20537034.8094
        51.5004         40.0004
    728900.32647    560942.45444  24787683.9774   24787684.9344
        43.5004         25.7504
 12  3 16 13 26 20.0000000  0  9G10G08G02G21G29G05G15G26G07
   1143083.83946    861347.95143  24665954.8204   24665956.0434
        41.0004         21.5004
    422821.15447    340828.13443  24642538.5784   24642539.4064
        44.0004         22.0004
   1093335.25747    833173.26845  21780680.5234   21780677.2034
        47.7504         34.7504
    299526.73245    236970.37442  25025999.5704   25025996.0004
        35.5004         16.7504
    643065.88848    498350.34846  21220099.5704   21220097.9614
        50.5004         40.7504
    934926.75348    708604.59247  20712463.3204   20712461.6254
        50.7504         42.5004
    176124.54147    145270.51245  22826754.1644   22826753.6454
        43.7504         32.0004
    331429.65748    269120.61546  20536635.3754   20536633.2274
        51.5004         40.0004
    729096.06547    561094.98144  24787721.0634   24787722.1524
        43.5004         25.2504
 12  3 16 13 26 21.0000000  0  9G10G08G02G21G29G05G15G26G07
   1146389.05246    863923.42543  24666583.8204   24666584.4144
        41.7504         21.2504
    421026.14047    339429.40843  24642197.1884   24642197.9694
        43.2504         21.7504
   1095782.56048    835080.25745  21781146.1954   21781142.8594
        48.0004         35.0004
    296440.80945    234565.75442  25025411.7584   25025408.8914
        35.0004         17.2504
    642776.07448    498124.51746  21220044.8204   21220042.9064
        50.5004         40.5004
    936229.72048    709619.88547  20712711.3834   20712709.2624
        51.2504         42.2504
    172607.14447    142529.69245  22826084.6024   22826084.6844
        43.7504         32.0004
    329321.33048    267477.75646  20536233.9844   20536232.0664
        51.7504         40.0004
    729292.04347    561247.69744  24787758.5084   24787759.2504
        43.7504         24.5004
 12  3 16 13 26 22.0000000  0  9G10G08G02G21G29G05G15G26G07
   1149694.36046    866498.98843  24667213.3134   24667213.3014
        40.7504         21.5004
    419231.69347    338031.13043  24641855.9304   24641856.3284
        43.0004         21.2504
   1098230.33748    836987.60945  21781611.8204   21781608.5904
        48.0004         35.0004
    293355.00746    232161.23842  25024823.8364   25024821.5434
        36.0004         16.7504
    642487.03448    497899.29046  21219989.9304   21219987.9184
        50.5004         40.5004
    937533.14548    710635.54247  20712959.4144   20712957.4734
        51.2504         42.5004
    169090.15847    139789.18445  22825415.6174   22825415.7114
        44.0004         31.5004
    327213.81348    265835.53746  20535833.3594   20535831.2074
        52.0004         40.0004
    729488.73747    561400.96244  24787796.0394   24787796.7504
        44.0004         25.7504
 12  3 16 13 26 23.0000000  0  9G10G08G02G21G29G05G15G26G07
   1152999.53746    869074.44443  24667842.5394   24667842.4654
        40.7504         20.7504
    417437.47647    336633.05143  24641514.6254   24641514.7464
        42.5004         21.0004
   1100678.31148    838895.11645  21782077.5704   21782074.3054
        48.0004         35.2504
    290268.99645    229756.53442  25024235.1644   25024232.7734
        35.0004         17.2504
    642198.49948    497674.46146  21219934.9454   21219932.9304
        50.7504         40.5004
    938836.72048    711651.31847  20713207.5084   20713205.5704
        51.2504         42.2504
    165573.26147    137048.75045  22824746.0634   22824746.1054
        44.2504         31.5004
    325106.81848    264193.72746  20535432.3284   20535430.2814
        52.2504         40.2504
    729685.87147    561554.56744  24787833.6884   24787833.9414
        43.5004         25.2504
 12  3 16 13 26 24.0000000  0  9G10G08G02G21G29G05G15G26G07
   1156304.80046    871649.97243  24668470.7194   24668471.4384
        41.2504         20.7504
    415643.83647    335235.41143  24641172.7894   24641173.4344
        43.0004         21.2504
   1103126.80748    840803.03945  21782543.5164   21782540.0664
        48.5004         35.0004
    287183.07545    227351.91042  25023649.5084   25023647.3714
        35.5004         16.7504
    641910.76948    497450.25946  21219880.1644   21219878.2344
        51.0004         40.5004
    940140.76448    712667.45247  20713455.9304   20713453.8054
        51.2504         42.2504
    162056.76147    134308.61845  22824076.8914   22824077.3244
        44.5004         32.0004
    323000.66248    262552.56846  20535031.3364   20535029.3834
        52.2504         40.0004
    729883.73947    561708.74744  24787871.1414   24787871.8674
        43.5004         24.5004
 12  3 16 13 26 25.0000000  0  9G10G08G02G21G29G05G15G26G07
   1159610.21546    874225.61243  24669100.2664   24669100.0314
        40.7504         20.7504
    413850.73847    333838.19143  24640831.0634   24640832.0164
        43.0004         21.5004
   1105575.78548    842711.33445  21783009.9454   21783006.4264
        48.2504         35.5004
    284097.26345    224947.39342  25023063.4534   25023060.5124
        35.7504         17.2504
    641623.84048    497226.67946  21219825.5554   21219823.6294
        50.5004         40.5004
    941445.26448    713683.95147  20713703.6884   20713701.8954
        51.2504         42.2504
    158540.69947    131568.83545  22823407.7894   22823408.1524
        44.5004         31.7504
    320895.33048    260912.05046  20534630.9304   20534628.4804
        52.2504         40.0004
    730082.34947    561863.50744  24787909.4454   24787909.8054
        44.0004         25.5004
 12  3 16 13 26 26.0000000  0  9G10G08G02G21G29G05G15G26G07
   1162915.19646    876800.92043  24669728.7034   24669729.1414
        40.7504         20.7504
    412057.65347    332440.98743  24640489.9694   24640490.7424
        43.0004         21.5004
   1108024.70348    844619.57945  21783475.9694   21783472.7034
        48.2504         35.2504
    281011.02545    222542.54842  25022476.0784   25022473.0554
        35.5004         16.7504
    641337.15348    497003.28746  21219770.8444   21219768.8954
        50.5004         40.5004
    942749.66448    714700.36447  20713952.2974   20713950.2074
        51.2504         42.2504
    155024.45347    128828.91545  22822738.3914   22822738.7424
        44.5004         32.2504
    318790.27248    259271.74046  20534229.9694   20534228.1054
        51.7504         40.0004
    730281.13447    562018.39344  24787946.4924   24787947.2034
        43.2504         24.0004
 12  3 16 13 26 27.0000000  0  9G10G08G02G21G29G05G15G26G07
   1166220.34746    879376.36643  24670357.9064   24670357.9654
        41.2504         20.7504
    410265.19347    331044.27343  24640149.4774   24640149.7304
        43.2504         21.2504
   1110474.20148    846528.28445  21783941.5394   21783938.9064
        48.0004         35.5004
    277924.93346    220137.80742  25021888.4924   25021885.4024
        36.0004         16.2504
    641051.35048    496780.58546  21219716.5004   21219714.4104
        50.5004         40.5004
    944054.56848    715717.17847  20714200.6484   20714198.7274
        51.0004         42.0004
    151508.69747    126089.37045  22822069.8284   22822069.4964
        45.0004         31.7504
    316686.09048    257632.12446  20533829.5864   20533827.7664
        51.5004         40.2504
    730480.74147    562173.94144  24787984.9924   24787985.0594
        43.5004         24.2504
 12  3 16 13 26 28.0000000  0  9G10G08G02G21G29G05G15G26G07
   1169525.49246    881951.80443  24670986.9694   24670986.8134
        41.0004         21.0004
    408473.12747    329647.86243  24639808.8834   24639808.6484
        43.0004         21.0004
   1112924.06947    848437.26845  21784408.0084   21784404.7154
        47.5004         35.0004
    274838.82846    217733.03342  25021301.4924   25021298.5164
        36.2504         16.2504
    640766.20648    496558.39746  21219662.4144   21219660.0944
        50.2504         40.5004
    945359.82648    716734.25947  20714448.8134   20714447.2074
        51.0004         42.0004
    147993.21347    123350.03345  22821400.6414   22821400.4774
        44.5004         32.0004
    314582.61048    255993.04546  20533429.0944   20533427.4844
        51.2504         40.0004
    730680.92947    562329.93744  24788023.3674   24788023.1374
        43.7504         25.7504
 12  3 16 13 26 29.0000000  0  9G10G08G02G21G29G05G15G26G07
   1172830.46146    884527.10843  24671615.7504   24671615.5594
        41.2504         21.0004
    406681.34947    328251.66643  24639467.4304   24639467.5904
        43.0004         20.7504
   1115374.12047    850346.40045  21784874.2194   21784871.1094
        47.7504         34.7504
    271752.49546    215328.08342  25020713.7344   25020710.8954
        36.2504         16.2504
    640481.56048    496336.59546  21219608.1094   21219606.3284
        50.5004         40.7504
    946665.22848    717751.45447  20714697.1334   20714695.2584
        51.0004         42.0004
    144477.82247    120610.77445  22820731.8284   22820731.9884
        45.0004         32.0004
    312479.65248    254354.38446  20533029.1414   20533027.2344
        51.5004         40.2504
    730881.55447    562486.26444  24788061.2114   24788061.4654
        44.2504         25.5004
 12  3 16 13 26 30.0000000  0  9G10G08G02G21G29G05G15G26G07
   1176135.74446    887102.66543  24672244.5084   24672244.5474
        41.0004         21.0004
    404890.27347    326856.03943  24639127.0704   24639126.6804
        43.0004         20.5004
   1117824.86847    852256.07845  21785340.0474   21785337.0984
        47.5004         35.5004
    268666.46646    212923.41742  25020126.2814   25020123.8054
        36.0004         17.2504
    640197.91848    496115.57846  21219554.1484   21219552.1454
        50.5004         40.7504
    947971.26548    718769.14447  20714945.6414   20714944.0164
        50.7504         42.5004
    140963.02647    117871.97245  22820063.0864   22820062.8794
        45.0004         32.5004
    310377.72848    252716.51946  20532629.1024   20532627.0354
        51.2504         40.5004
    731083.10247    562643.30544  24788099.8594   24788100.0664
        44.5004         25.5004
 12  3 16 13 26 31.0000000  0  9G10G08G02G21G29G05G15G26G07
   1179440.66146    889677.90943  24672873.3284   24672873.1994
        41.2504         20.7504
    403099.29847    325460.47443  24638786.0004   24638785.9264
        42.7504         20.7504
   1120275.63947    854165.76045  21785806.6024   21785803.8324
        47.5004         35.5004
    265580.04246    210518.41542  25019539.0314   25019536.5664
        36.5004         17.2504
    639914.60348    495894.81046  21219499.7584   21219498.1954
        51.0004         40.5004
    949277.29148    719786.82547  20715194.0164   20715192.4924
        51.0004         42.5004
    137448.15747    115133.11445  22819394.2114   22819393.5904
        44.2504         32.2504
    308276.14348    251078.91946  20532229.0704   20532227.7504
        51.5004         40.2504
    731284.90947    562800.56444  24788137.8594   24788138.4184
        44.0004         25.5004
 12  3 16 13 26 32.0000000  0  9G10G08G02G21G29G05G15G26G07
   1182745.78246    892253.31543  24673502.7034   24673502.2114
        41.0004         20.7504
    401308.99747    324065.43043  24638445.5554   24638445.0944
        43.0004         20.5004
   1122727.01447    856075.92745  21786273.3364   21786270.2464
        47.5004         35.0004
    262493.88646    208113.60542  25018951.3594   25018949.0744
        36.5004         17.7504
    639632.18148    495674.73846  21219446.2194   21219444.6644
        51.0004         40.5004
    950583.89248    720804.95747  20715442.9694   20715441.0204
        50.7504         42.5004
    133933.81347    112394.67145  22818725.5704   22818724.9654
        44.5004         32.2504
    306175.47548    249442.03946  20531829.3444   20531827.7424
        51.7504         40.5004
    731487.55747    562958.46244  24788176.4774   24788176.6054
        43.7504         25.0004
 12  3 16 13 26 33.0000000  0  9G10G08G02G21G29G05G15G26G07
   1186051.06246    894828.86043  24674131.3284   24674131.1684
        40.2504         20.5004
    399519.21447    322670.79543  24638104.8834   24638104.4414
        42.5004         20.5004
   1125178.86447    857986.45245  21786740.0004   21786736.6844
        47.5004         35.0004
    259407.79446    205708.83843  25018362.8984   25018360.5634
        36.5004         18.2504
    639350.54648    495455.28346  21219392.8444   21219390.8284
        50.7504         40.5004
    951890.91848    721823.41647  20715691.9774   20715690.1134
        50.5004         42.5004
    130419.85047    109656.52545  22818056.7664   22818056.2974
        45.0004         32.5004
    304075.61048    247805.78346  20531429.9454   20531428.1914
        51.7504         40.5004
    731690.93847    563116.94044  24788215.1724   24788215.7194
        43.5004         25.5004
 12  3 16 13 26 34.0000000  0  9G10G08G02G21G29G05G15G26G07
   1189355.67646    897403.88743  24674759.8674   24674759.6054
        41.0004         20.0004
    397729.24246    321275.99043  24637763.9924   24637763.7704
        41.7504         20.7504
   1127630.49047    859896.79945  21787206.8754   21787203.4344
        47.5004         35.2504
    256321.03746    203303.57543  25017777.2344   25017774.4844
        36.0004         18.2504
    639068.98048    495235.88046  21219339.2504   21219337.6994
        51.0004         40.5004
    953197.66548    722841.66147  20715940.2274   20715938.2974
        51.0004         42.5004
    126905.56547    106918.12145  22817388.0394   22817387.5234
        45.2504         32.5004
    301975.84148    246169.59446  20531030.3834   20531028.7034
        51.5004         40.5004
    731894.28647    563275.38844  24788253.5704   24788254.0084
        43.5004         25.5004
 12  3 16 13 26 35.0000000  0  9G10G08G02G21G29G05G15G26G07
   1192660.85146    899979.35543  24675388.9224   24675388.8014
        40.5004         20.2504
    395940.24047    319881.95743  24637423.8444   24637423.2584
        42.5004         20.2504
   1130083.02448    861807.86445  21787673.8134   21787669.9964
        48.0004         34.7504
    253234.72345    200898.69943  25017189.8284   25017187.6884
        35.7504         18.2504
    638788.61948    495017.41446  21219286.0554   21219283.8954
        51.0004         40.5004
    954505.28448    723860.58647  20716189.3754   20716187.4804
        50.7504         42.5004
    123392.08747    104180.34645  22816719.4224   22816718.7074
        45.2504         32.2504
    299877.31548    244534.38546  20530630.6094   20530629.0554
        51.7504         40.2504
    732098.78847    563434.74344  24788292.4144   24788292.9884
        43.5004         25.0004
 12  3 16 13 26 36.0000000  0  9G10G08G02G21G29G05G15G26G07
   1195966.64546    902555.29243  24676017.6334   24676017.7584
        40.5004         20.7504
    394152.30347    318488.78143  24637083.6644   24637082.5204
        42.5004         20.0004
   1132536.54148    863719.69245  21788140.6254   21788136.7344
        48.2504         34.7504
    250149.13046    198494.34343  25016601.2814   25016600.3754
        36.0004         18.2504
    638509.57348    494799.98046  21219232.9774   21219230.9924
        51.0004         40.5004
    955813.86048    724880.25847  20716438.3054   20716436.3714
        51.0004         42.5004
    119879.52547    101443.29545  22816051.0944   22816050.3284
        45.7504         32.2504
    297780.09348    242900.18646  20530231.8754   20530230.2344
        51.2504         40.2504
    732304.53247    563595.06644  24788332.0704   24788332.1484
        43.2504         24.5004
 12  3 16 13 26 37.0000000  0  9G10G08G02G21G29G05G15G26G07
   1199270.79446    905129.96143  24676647.0314   24676646.5984
        40.7504         21.0004
    392363.15947    317094.65243  24636743.5784   24636742.1994
        43.0004         20.0004
   1134988.81448    865630.56045  21788607.0084   21788603.6644
        48.5004         34.5004
    247061.82546    196088.64042  25016014.0004   25016012.9614
        36.0004         17.7504
    638229.57348    494581.79746  21219179.4534   21219177.5664
        51.5004         40.7504
    957121.14548    725898.91547  20716687.2664   20716685.4454
        51.0004         42.5004
    116365.59647     98705.16345  22815382.5164   22815381.7034
        45.2504         32.5004
    295681.97248    241265.28446  20529832.7344   20529830.8404
        51.2504         40.5004
    732509.27447    563754.60644  24788370.7114   24788371.1884
        42.5004         24.5004
 12  3 16 13 26 38.0000000  0  9G10G08G02G21G29G05G15G26G07
   1202576.16546    907705.57343  24677275.6414   24677275.7464
        40.5004         21.0004
    390575.62747    315701.78343  24636403.4454   24636402.2504
        43.2504         20.0004
   1137442.66648    867542.64845  21789073.8054   21789070.3914
        48.5004         34.7504
    243975.68846    193683.83843  25015426.7974   25015425.7274
        36.5004         18.5004
    637951.44848    494365.07246  21219126.8204   21219124.8984
        51.2504         41.0004
    958429.95748    726918.77247  20716935.9614   20716934.1294
        50.5004         42.5004
    112853.16947     95968.20845  22814714.0554   22814713.7974
        45.0004         31.7504
    293585.74548    239631.85646  20529433.5864   20529431.8874
        51.5004         40.2504
    732715.82047    563915.54644  24788409.7194   24788410.5864
        43.0004         25.0004
 12  3 16 13 26 39.0000000  0  9G10G08G02G21G29G05G15G26G07
   1205881.00046    910280.75943  24677904.8054   24677904.6524
        39.2504         21.0004
    388788.06747    314308.87243  24636063.1414   24636062.2194
        42.5004         20.2504
   1139896.39948    869454.64345  21789540.6724   21789537.3094
        48.5004         35.0004
    240889.04246    191278.64943  25014840.2664   25014838.5354
        36.5004         19.0004
    637673.51648    494148.50846  21219073.8284   21219071.7734
        51.0004         40.7504
    959738.60448    727938.49747  20717185.1254   20717183.0704
        50.5004         42.2504
    109340.52347     93231.08945  22814045.6724   22814044.8794
        45.2504         32.5004
    291489.73148    237998.60046  20529034.7504   20529033.2194
        51.5004         40.5004
    732922.47547    564076.56844  24788449.2814   24788449.8594
        42.7504         24.7504
 12  3 16 13 26 40.0000000  0  9G10G08G02G21G29G05G15G26G07
   1209185.98846    912856.06843  24678534.3754   24678534.0204
        39.7504         20.7504
    387001.05047    312916.39543  24635722.9064   24635722.2854
        43.0004         20.2504
   1142350.62948    871367.03045  21790007.5704   21790004.6254
        48.5004         35.0004
    237802.50246    188873.58643  25014252.9304   25014250.9384
        36.7504         18.2504
    637396.38648    493932.55546  21219020.8054   21219019.1054
        51.0004         40.5004
    961047.70548    728958.56847  20717434.3674   20717432.4024
        50.7504         42.5004
    105828.27647     90494.27245  22813377.1484   22813376.2624
        45.0004         32.5004
    289394.55048    236365.99446  20528635.9144   20528634.4104
        51.2504         40.0004
    733129.84547    564238.14944  24788488.4534   24788489.2074
        43.0004         25.2504
 12  3 16 13 26 41.0000000  0  9G10G08G02G21G29G05G15G26G07
   1212491.00346    915431.40643  24679162.1724   24679162.5634
        39.2504         20.2504
    385214.49147    311524.26443  24635383.2584   24635382.1024
        43.0004         20.0004
   1144805.25748    873279.72745  21790475.3134   21790471.4884
        48.7504         34.7504
    234715.98646    186468.50243  25013665.7894   25013663.5274
        37.0004         18.2504
    637119.97548    493717.17046  21218967.9614   21218966.1994
        50.7504         40.2504
    962357.18948    729978.94547  20717683.5864   20717681.5704
        50.2504         43.0004
    102316.36147     87757.71545  22812708.6884   22812708.1804
        44.7504         32.2504
    287300.09248    234733.94546  20528237.5944   20528235.8554
        51.2504         40.5004
    733337.90347    564400.26444  24788528.2114   24788528.7154
        43.0004         25.5004
 12  3 16 13 26 42.0000000  0  9G10G08G02G21G29G05G15G26G07
   1215795.71246    918006.49643  24679791.6644   24679791.2854
        39.2504         20.0004
    383428.04247    310132.20543  24635042.8754   24635042.3134
        42.7504         20.0004
   1147259.95748    875192.48145  21790941.9144   21790938.7934
        48.2504         34.7504
    231629.13946    184063.13943  25013078.6804   25013076.2854
        37.5004         18.5004
    636843.91448    493502.05246  21218915.8914   21218913.8364
        51.0004         40.5004
    963666.67148    730999.32047  20717932.6174   20717930.8594
        50.2504         42.7504
     98804.40147     85021.11445  22812040.1564   22812039.8164
        44.5004         32.5004
    285205.99948    233102.18346  20527839.1884   20527836.8524
        51.0004         40.5004
    733546.20847    564562.58144  24788567.4144   24788568.1054
        43.0004         25.5004
 12  3 16 13 26 43.0000000  0  9G10G08G02G21G29G05G15G26G07
   1219100.48546    920581.64543  24680420.4064   24680420.4384
        39.2504         20.5004
    381642.12447    308740.59543  24634702.9224   24634702.6804
        43.0004         20.0004
   1149715.11848    877105.59145  21791409.1334   21791405.9964
        48.0004         35.0004
    228542.32746    181657.83443  25012491.5554   25012488.8244
        37.5004         19.0004
    636568.62048    493287.53646  21218863.5474   21218861.3404
        51.2504         40.5004
    964976.58948    732020.03047  20718181.8284   20718179.7664
        50.5004         42.5004
     95292.80747     82284.80945  22811372.3594   22811371.8134
        44.0004         32.5004
    283112.74548    231471.07446  20527440.7664   20527438.6294
        51.5004         40.0004
    733755.25947    564725.47544  24788607.6884   24788608.5204
        43.5004         24.5004
 12  3 16 13 26 44.0000000  0  9G10G08G02G21G29G05G15G26G07
   1222405.47246    923156.96543  24681048.9924   24681049.5004
        39.5004         20.0004
    379856.88347    307349.51343  24634363.2034   24634362.4414
        43.0004         20.2504
   1152170.88147    879019.16945  21791876.1334   21791873.4494
        47.5004         34.7504
    225455.77746    179252.72443  25011902.5784   25011899.5744
        36.7504         19.0004
    636294.23148    493073.72446  21218811.4694   21218809.5204
        51.0004         40.5004
    966287.05148    733041.17547  20718431.1884   20718429.4384
        51.0004         42.7504
     91781.75747     79548.92645  22810704.3054   22810703.5864
        44.2504         32.2504
    281020.38748    229840.66746  20527042.9384   20527040.6914
        51.5004         40.2504
    733965.10847    564888.99144  24788647.7344   24788648.3634
        44.0004         24.5004
 12  3 16 13 26 45.0000000  0  9G10G08G02G21G29G05G15G26G07
   1225710.11946    925732.01143  24681677.6884   24681678.3754
        39.5004         20.0004
    378071.69947    305958.48843  24634023.6174   24634023.1994
        42.5004         20.5004
   1154626.67347    880932.76945  21792343.9534   21792340.7344
        47.5004         34.7504
    222368.79946    176847.28143  25011315.8984   25011313.6724
        36.7504         19.0004
    636020.19548    492860.18746  21218759.1484   21218757.4024
        50.7504         40.5004
    967597.52348    734062.32247  20718680.2424   20718678.4774
        50.7504         42.5004
     88270.62347     76812.98245  22810035.6644   22810035.7034
        44.2504         32.5004
    278928.40548    228210.54846  20526644.6174   20526642.4924
        51.5004         40.0004
    734175.25947    565052.73944  24788687.8364   24788688.1644
        44.0004         24.5004
 12  3 16 13 26 46.0000000  0  9G10G08G02G21G29G05G15G26G07
   1229014.97046    928307.21843  24682306.6254   24682307.2624
        38.5004         19.5004
    376287.13547    304567.91843  24633684.0474   24633683.4064
        42.5004         20.2504
   1157083.03247    882846.80845  21792811.2424   21792808.1564
        47.2504         35.0004
    219282.01746    174442.00843  25010728.8674   25010726.5554
        37.0004         19.0004
    635747.01448    492647.32046  21218706.9774   21218705.0314
        50.7504         40.5004
    968908.51448    735083.87347  20718929.8054   20718928.2974
        50.5004         42.5004
     84759.95847     74077.40045  22809367.6414   22809367.4104
        43.7504         32.7504
    276837.30248    226581.12646  20526246.8204   20526244.7034
        51.7504         40.2504
    734386.19247    565217.09444  24788727.4304   24788728.2234
        43.7504         24.7504
 12  3 16 13 26 47.0000000  0  9G10G08G02G21G29G05G15G26G07
   1232319.74346    930882.37043  24682935.4694   24682935.8404
        39.2504         20.2504
    374502.92347    303177.61543  24633343.8524   24633343.7734
        42.7504         20.5004
   1159539.64847    884761.06145  21793278.7194   21793275.5274
        47.5004         34.5004
    216195.07446    172036.58943  25010141.6564   25010139.2034
        38.0004         19.5004
    635474.39948    492434.89246  21218655.3754   21218653.3054
        51.0004         40.5004
    970219.72448    736105.59447  20719179.6724   20719177.9574
        51.0004         42.5004
     81249.46047     71341.95045  22808699.7504   22808699.5004
        44.0004         32.2504
    274746.80148    224952.16046  20525848.7344   20525846.9804
        51.5004         40.2504
    734597.67147    565381.88244  24788767.9064   24788768.7424
        44.2504         25.2504
 12  3 16 13 26 48.0000000  0  9G10G08G02G21G29G05G15G26G07
   1235624.58246    933457.55843  24683564.6094   24683564.9654
        38.7504         20.5004
    372719.25747    301787.74543  24633004.4844   24633004.3874
        43.0004         20.5004
   1161996.79547    886675.71445  21793745.9304   21793743.0634
        47.5004         34.7504
    213108.27646    169631.29343  25009554.3054   25009552.0124
        38.2504         19.5004
    635202.59348    492223.10046  21218603.4534   21218601.2664
        50.5004         40.5004
    971531.39148    737127.67347  20719428.9614   20719427.0204
        51.0004         42.5004
     77739.39247     68606.84545  22808031.8674   22808031.4384
        44.2504         32.0004
    272657.11248    223323.83646  20525451.5084   20525449.6954
        51.7504         40.2504
    734809.86147    565547.23444  24788808.2894   24788808.8984
        44.0004         25.5004
 12  3 16 13 26 49.0000000  0 10G10G08G02G21G29G05G15G26G04G07
   1238929.47846    936032.80043  24684193.4064   24684193.5824
        39.0004         20.2504
    370936.07847    300398.26443  24632665.1414   24632665.1334
        42.5004         20.2504
   1164454.34347    888590.68645  21794213.9694   21794210.7154
        47.7504         35.0004
    210021.53746    167226.01443  25008966.7894   25008964.3014
        38.0004         19.2504
    634931.51648    492011.86946  21218551.9844   21218550.2424
        50.5004         40.7504
    972843.43948    738150.05547  20719679.0314   20719677.0394
        51.0004         42.2504
     74229.63247     65871.96945  22807364.0944   22807363.7664
        44.0004         31.5004
    270568.21848    221696.12846  20525053.7734   20525051.9534
        51.5004         40.2504
    876209.83115                  25357346.281
        35.750
    735022.73747    565713.10844  24788848.6954   24788849.4414
        44.0004         24.5004
 12  3 16 13 26 50.0000000  0 10G10G08G02G21G29G05G15G26G04G07
   1242232.92146    938606.92243  24684821.9924   24684822.4224
        39.2504         20.0004
    369151.88447    299008.01043  24632325.7114   24632325.2624
        42.5004         20.5004
   1166910.82548    890504.81645  21794681.1414   21794678.3984
        48.0004         35.0004
    206933.22446    164819.58143  25008379.6884   25008376.5164
        37.7504         19.2504
    634659.69648    491800.06446  21218500.3984   21218498.1804
        51.0004         41.0004
    974154.38948    739171.57647  20719928.3284   20719926.5084
        51.0004         42.2504
     70718.73447     63136.20445  22806696.0084   22806695.4614
        44.0004         32.2504
    268478.53948    220067.81246  20524656.0164   20524654.3594
        51.7504         40.0004
    879519.617 5                  25357976.484
        35.250
    735234.76547    565878.32744  24788889.1484   24788889.6994
        43.7504         25.7504
 12  3 16 13 26 51.0000000  0 10G10G08G02G21G29G05G15G26G04G07
   1245538.01846    941182.31743  24685451.4384   24685451.4224
        39.2504         19.7504
    367369.74747    297619.29943  24631987.3054   24631986.1454
        42.5004         20.2504
   1169369.28648    892420.50345  21795149.2734   21795146.3364
        48.5004         34.7504
    203846.58346    162414.40243  25007792.2734   25007789.4614
        37.5004         19.5004
    634390.13048    491590.01046  21218449.0474   21218447.1024
        50.7504         40.7504
    975467.28748    740194.61547  20720178.0474   20720175.9734
        50.7504         42.2504
     67209.71047     60401.89945  22806028.1174   22806027.6334
        44.5004         32.5004
    266391.19548    218441.30446  20524258.7584   20524256.6954
        51.0004         40.0004
    882831.102 6                  25358607.313
        36.500
    735449.00747    566045.26544  24788929.7584   24788930.6954
        44.0004         25.7504
 12  3 16 13 26 52.0000000  0 10G10G08G02G21G29G05G15G26G04G07
   1248842.97346    943757.59743  24686080.7734   24686080.5944
        38.2504         19.5004
    365587.93647    296230.88443  24631648.0554   24631647.2584
        42.7504         19.7504
   1171828.04548    894336.41245  21795617.0394   21795614.2934
        48.5004         34.5004
    200759.83846    160009.14243  25007204.8284   25007202.0354
        37.0004         19.2504
    634121.22148    491380.47746  21218397.5554   21218395.9344
        50.7504         40.7504
    976780.43048    741217.84047  20720428.0784   20720426.1134
        50.5004         42.0004
     63700.91447     57667.77645  22805360.2894   22805360.2464
        44.5004         32.0004
    264304.48548    216815.30646  20523861.6094   20523859.6724
        51.0004         40.2504
    886142.631 6                  25359236.453
        36.250
    735663.81347    566212.63944  24788970.9534   24788971.6724
        43.2504         25.7504
 12  3 16 13 26 53.0000000  0 10G10G08G02G21G29G05G15G26G04G07
   1252147.25046    946332.35843  24686709.5164   24686708.9804
        38.5004         20.0004
    363805.84147    294842.24243  24631308.5634   24631308.1414
        43.0004         19.5004
   1174286.44748    896252.05345  21796084.8754   21796081.9804
        48.7504         35.5004
    197672.25646    157603.23243  25006616.7504   25006614.5984
        36.7504         19.2504
    633852.19348    491170.84046  21218346.3364   21218344.7664
        50.7504         40.5004
    978093.16748    742240.75047  20720677.7504   20720675.9844
        50.5004         42.0004
     60191.64047     54933.27945  22804692.7814   22804692.3164
        44.7504         32.0004
    262217.71948    215189.25546  20523464.5784   20523462.7274
        51.0004         40.0004
    889453.400 6                  25359867.938
        37.000
    735878.44547    566379.87644  24789011.5634   24789012.0864
        43.0004         25.7504
 12  3 16 13 26 54.0000000  0 10G10G08G02G21G29G05G15G26G04G07
   1255451.83346    948907.36443  24687337.7734   24687337.4024
        39.0004         20.0004
    362024.55147    293454.22843  24630969.4454   24630969.1684
        43.0004         19.7504
   1176745.58048    898168.25445  21796552.5864   21796549.9384
        48.2504         35.0004
    194585.08746    155197.64843  25006029.7504   25006027.3444
        36.0004         19.2504
    633584.24748    490962.05246  21218295.1564   21218293.4024
        50.0004         40.5004
    979406.61248    743264.20947  20720927.6804   20720925.8244
        50.2504         42.0004
     56683.04247     52199.30945  22804024.7504   22804024.5664
        44.5004         32.0004
    260132.02248    213564.03046  20523067.5474   20523065.8954
        51.0004         40.0004
    892764.705 6                  25360498.602
        36.500
    736094.09347    566547.91344  24789052.4774   24789053.1954
        42.7504         25.2504
 12  3 16 13 26 55.0000000  0 10G10G08G02G21G29G05G15G26G04G07
   1258756.54746    951482.45643  24687966.7974   24687966.6804
        40.0004         20.0004
    360243.76147    292066.60143  24630630.8134   24630630.7704
        43.2504         20.2504
   1179205.21648    900084.85345  21797021.0234   21797017.9414
        48.2504         35.2504
    191497.98846    152792.11343  25005442.0634   25005439.4494
        36.5004         19.2504
    633317.05848    490753.85446  21218244.5164   21218242.2854
        50.2504         40.5004
    980720.49148    744288.01147  20721177.9694   20721176.1454
        50.5004         42.0004
     53174.83047     49465.64945  22803357.4774   22803356.8984
        44.7504         32.5004
    258047.16248    211939.46446  20522670.7114   20522669.4184
        51.0004         40.0004
    896076.196 6                  25361128.648
        37.000
    736310.44847    566716.50043  24789093.4534   24789094.5594
        43.0004         23.0004
 12  3 16 13 26 56.0000000  0 10G10G08G02G21G29G05G15G26G04G07
   1262061.17746    954057.49443  24688595.5084   24688595.4884
        40.0004         20.2504
    358463.37547    290679.29143  24630292.2734   24630291.8054
        42.5004         20.2504
   1181665.12347    902001.66445  21797489.0314   21797486.1914
        47.7504         34.7504
    188410.80646    150386.51943  25004855.0004   25004852.1174
        37.0004         19.2504
    633050.49348    490546.13046  21218193.6174   21218191.7464
        50.2504         40.5004
    982034.62448    745312.01447  20721428.1644   20721425.9574
        51.2504         42.5004
     49666.82347     46732.12845  22802689.9614   22802689.3954
        44.2504         32.5004
    255962.90948    210315.37346  20522274.1174   20522272.6134
        51.0004         40.2504
    899387.644 6                  25361758.555
        38.000
    736527.32447    566885.48744  24789135.6884   24789135.8094
        42.5004         25.7504
 12  3 16 13 26 57.0000000  0 10G10G08G02G21G29G05G15G26G04G07
   1265365.46546    956632.26143  24689224.1954   24689224.2814
        40.2504         20.2504
    356683.05347    289292.01543  24629952.9534   24629952.8834
        43.0004         20.0004
   1184125.07147    903918.50245  21797957.3054   21797954.4184
        47.7504         35.5004
    185323.22246    147980.61043  25004267.1724   25004264.7504
        37.2504         19.7504
    632784.26148    490338.67446  21218143.3444   21218141.1804
        50.5004         40.7504
    983348.73648    746335.99647  20721678.0164   20721676.0704
        51.0004         42.5004
     46158.74347     43998.56745  22802022.3754   22802021.7814
        44.7504         32.2504
    253879.01648    208691.55846  20521877.6094   20521875.8484
        51.0004         40.2504
    902698.954 6                  25362388.633
        37.750
    736744.47047    567054.68044  24789176.2734   24789176.7624
        43.0004         24.7504
 12  3 16 13 26 58.0000000  0 10G10G08G02G21G29G05G15G26G04G07
   1268670.07746    959207.27143  24689852.6954   24689853.0664
        40.2504         20.0004
    354903.49647    287905.37543  24629614.0084   24629614.0234
        43.0004         20.7504
   1186585.74548    905835.90545  21798425.1414   21798422.5594
        48.0004         35.0004
    182236.01746    145574.97443  25003679.0084   25003677.3634
        37.7504         19.7504
    632519.02048    490131.99246  21218092.8914   21218091.0004
        50.7504         40.7504
    984663.51548    747360.49347  20721928.4614   20721926.0314
        50.7504         42.5004
     42651.28847     41265.48645  22801354.8984   22801354.4064
        44.2504         32.5004
    251796.16648    207068.55546  20521481.5004   20521479.4654
        51.0004         40.2504
    906010.655 6                  25363018.938
        37.750
    736962.58147    567224.63844  24789217.7734   24789218.5314
        42.5004         24.5004
 12  3 16 13 26 59.0000000  0 10G10G08G02G21G29G05G15G26G04G07
   1271974.62746    961782.25543  24690481.7504   24690481.7384
        40.2504         20.2504
    353124.33547    286519.05443  24629275.8834   24629275.7624
        43.5004         21.0004
   1189046.72048    907753.54945  21798893.7894   21798890.6294
        48.0004         35.2504
    179148.68046    143169.23943  25003091.3364   25003089.3164
        37.7504         19.0004
    632254.42548    489925.81546  21218042.6884   21218040.2034
        50.5004         40.5004
    985978.55748    748385.20347  20722178.4924   20722176.1914
        50.5004         42.0004
     39144.08347     38532.60345  22800688.0704   22800687.1214
        44.0004         32.5004
    249713.98548    205446.07446  20521085.2344   20521083.6414
        51.0004         40.2504
    909322.307 6                  25363649.156
        37.750
    737181.24447    567395.02443  24789259.6174   24789259.8954
        42.5004         23.7504
 12  3 16 13 27  0.0000000  0 10G10G08G02G21G29G05G15G26G04G07
   1275279.03246    964357.11143  24691110.9384   24691110.8164
        40.0004         19.7504
    351345.40047    285132.86043  24628937.4774   24628937.4384
        43.5004         20.7504
   1191507.86848    909671.32045  21799362.1804   21799359.1804
        48.2504         35.5004
    176061.15146    140763.37743  25002504.5474   25002502.0394
        38.2504         19.2504
    631990.31448    489720.01246  21217992.3754   21217990.2504
        50.5004         40.7504
    987293.74448    749410.01747  20722428.9064   20722427.0664
        50.5004         42.2504
     35636.95347     35799.77245  22800020.2034   22800019.7464
        44.5004         32.5004
    247632.30048    203823.98546  20520688.8914   20520687.5044
        51.2504         40.2504
    912633.857 6                  25364279.156
        38.000
    737400.31747    567565.72144  24789302.1094   24789301.5904
        42.5004         25.2504
 12  3 16 13 27  1.0000000  0 10G10G08G02G21G29G05G15G26G04G07
   1278583.63946    966932.11443  24691739.0234   24691739.4104
        39.5004         19.7504
    349567.17947    283747.22643  24628599.1884   24628599.0274
        43.0004         21.0004
   1193969.69747    911589.63145  21799830.3284   21799827.7274
        47.5004         35.2504
    172973.85546    138357.70043  25001916.9844   25001914.9534
        38.2504         19.2504
    631727.15948    489514.96346  21217942.4454   21217940.3244
        51.0004         40.5004
    988609.55448    750435.32447  20722679.2114   20722677.1094
        50.5004         42.2504
     32130.40347     33067.39545  22799353.0004   22799352.3484
        43.5004         32.2504
    245551.59448    202202.65546  20520292.6954   20520291.4884
        51.2504         40.0004
    915945.827 6                  25364909.688
        38.250
    737620.29547    567737.12944  24789342.7894   24789343.5474
        42.5004         25.0004
 12  3 16 13 27  2.0000000  0 10G10G08G02G21G29G05G15G26G04G07
   1281888.13946    969507.04343  24692367.8984   24692368.8714
        39.5004         19.2504
    347789.29947    282361.86143  24628260.3674   24628260.6994
        43.0004         20.5004
   1196431.76747    913508.12645  21800299.0394   21800296.2504
        47.2504         35.2504
    169886.39046    135951.90243  25001329.0944   25001327.0234
        38.5004         19.2504
    631464.54148    489310.32546  21217892.3594   21217890.2034
        50.7504         40.7504
    989925.56148    751460.78847  20722929.1484   20722927.6414
        50.5004         42.5004
     28623.98047     30335.12445  22798685.7974   22798685.3554
        43.7504         32.5004
    243471.46048    200581.77946  20519897.3134   20519895.7704
        51.2504         40.0004
    919257.776 6                  25365539.875
        37.500
    737840.73547    567908.91744  24789385.5084   24789385.4064
        42.7504         25.5004
 12  3 16 13 27  3.0000000  0 10G10G08G02G21G29G05G15G26G04G07
   1285192.55246    972081.92843  24692996.4844   24692997.0984
        39.2504         19.0004
    346011.73947    280976.75743  24627922.4064   24627922.0744
        43.5004         21.0004
   1198894.10647    915426.83645  21800767.6334   21800764.7074
        47.0004         34.7504
    166798.81546    133545.99743  25000741.9924   25000739.4104
        38.5004         19.0004
    631202.53648    489106.17146  21217842.6334   21217840.7664
        50.7504         40.7504
    991241.81048    752486.44347  20723180.0474   20723177.8444
        50.2504         42.5004
     25117.76447     27603.00545  22798018.0864   22798018.1484
        43.7504         32.2504
    241391.95148    198961.38646  20519501.6804   20519499.7544
        51.5004         40.0004
    922569.651 6                  25366169.492
        37.500
    738061.69947    568081.09944  24789427.5234   24789427.7194
        42.7504         24.0004
 12  3 16 13 27  4.0000000  0 10G10G08G02G21G29G05G15G26G04G07
   1288497.06446    974656.89043  24693626.4694   24693625.8954
        39.5004         19.2504
    344234.74647    279592.09043  24627584.3204   24627584.4104
        43.0004         21.0004
   1201356.95747    917345.93445  21801236.5164   21801233.7274
        47.2504         34.7504
    163711.41646    131140.23243  25000154.1884   25000152.2734
        38.2504         19.0004
    630941.33248    488902.63646  21217792.8204   21217790.4494
        51.0004         40.7504
    992558.53348    753512.45547  20723430.5474   20723428.7934
        50.7504         42.5004
     21611.98647     24871.23645  22797351.1254   22797351.1454
        43.7504         32.2504
    239313.27548    197341.63246  20519105.9774   20519103.8014
        51.5004         40.2504
    925881.807 6                  25366800.375
        37.000
    738283.42647    568253.88544  24789469.4224   24789469.3834
        43.0004         25.0004
 12  3 16 13 27  5.0000000  0 10G10G08G02G21G29G05G15G26G04G07
   1291801.32446    977231.67043  24694254.8524   24694254.7344
        40.0004         19.7504
    342457.95647    278207.58843  24627246.5084   24627246.2274
        43.5004         20.7504
   1203819.94547    919265.14345  21801705.5864   21801702.1644
        47.5004         34.7504
    160623.64546    128734.17243  24999567.0084   24999564.0904
        37.5004         19.7504
    630680.57748    488699.44346  21217743.1334   21217741.1484
        50.7504         40.5004
    993875.34448    754538.54347  20723680.8984   20723679.2664
        50.5004         42.5004
     18106.23547     22139.48845  22796683.8204   22796683.8714
        44.2504         32.2504
    237235.08248    195722.26346  20518710.8204   20518708.8714
        51.5004         40.0004
    929193.794 6                  25367429.734
        37.250
    738505.57347    568426.97744  24789512.2584   24789511.7814
        43.0004         25.2504
 12  3 16 13 27  6.0000000  0 10G10G08G02G21G29G05G15G26G04G07
   1295105.71446    979806.45343  24694884.1644   24694883.1524
        40.5004         19.7504
    340681.64147    276823.44143  24626908.9224   24626908.4964
        43.5004         20.7504
   1206283.35748    921184.67745  21802174.3674   21802170.8484
        48.0004         34.7504
    157535.94846    126328.16643  24998979.0394   24998976.7154
        37.7504         19.7504
    630420.54048    488496.82046  21217693.8444   21217691.2974
        51.0004         41.0004
    995192.54948    755564.93247  20723931.6414   20723929.7624
        50.5004         42.5004
     14600.82347     19407.99745  22796017.0634   22796017.1094
        45.0004         32.5004
    235157.62248    194103.46446  20518315.4304   20518313.3244
        51.0004         40.0004
    932505.957 6                  25368061.156
        37.000
    738728.31747    568600.54543  24789554.4774   24789554.3834
        43.5004         22.5004
 12  3 16 13 27  7.0000000  0 10G10G08G02G21G29G05G15G26G04G07
   1298410.19046    982381.36043  24695512.8754   24695512.4024
        40.7504         19.7504
    338905.87147    275439.72343  24626570.6254   24626570.9304
        44.0004         21.0004
   1208747.26648    923104.60345  21802642.9924   21802639.8484
        48.0004         34.7504
    154448.38846    123922.25243  24998392.1024   24998389.5084
        37.5004         19.7504
    630161.32048    488294.82846  21217643.9534   21217641.6454
        50.5004         40.7504
    996510.19348    756591.66647  20724182.5474   20724180.2504
        50.7504         42.5004
     11095.81747     16676.82245  22795350.0634   22795349.6024
        44.5004         32.2504
    233080.98848    192485.30446  20517919.8834   20517918.0864
        51.0004         40.0004
    935818.276 6                  25368691.406
        37.000
    738951.83947    568774.70943  24789597.1414   24789596.4614
        44.0004         23.0004
 12  3 16 13 27  8.0000000  0 10G10G08G02G21G29G05G15G26G04G07
   1301714.41346    984956.07843  24696141.5164   24696140.9224
        39.7504         19.5004
    337130.33547    274056.19043  24626232.2664   24626233.0984
        43.2504         21.5004
   1211211.29748    925024.62145  21803111.8364   21803108.5084
        48.5004         34.7504
    151360.54446    121516.15343  24997803.8984   24997801.7424
        37.2504         19.7504
    629902.54248    488093.18146  21217594.6954   21217593.1564
        50.5004         41.0004
    997827.94348    757618.48547  20724433.2894   20724431.5314
        50.7504         42.5004
      7590.86047     13945.68345  22794683.2194   22794682.7894
        44.5004         32.2504
    231004.84348    190867.52546  20517525.2034   20517523.6684
        51.2504         40.0004
    939130.440 6                  25369321.438
        37.000
    739175.71047    568949.15343  24789639.2274   24789639.2974
        43.7504         22.5004
 12  3 16 13 27  9.0000000  0 10G10G08G02G21G29G05G15G26G04G07
   1305018.82246    987530.94343  24696770.5864   24696770.0084
        40.2504         19.2504
    335355.40847    272673.14543  24625894.5944   24625895.0554
        43.2504         21.5004
   1213675.91048    926945.10045  21803580.6174   21803577.2464
        48.2504         35.2504
    148272.84846    119110.16343  24997216.8054   24997214.5744
        36.5004         19.7504
    629644.63148    487892.21146  21217545.7274   21217543.9614
        51.2504         41.0004
    999146.20348    758645.70247  20724684.0864   20724682.3014
        50.7504         42.5004
      4086.38647     11214.92445  22794016.1254   22794015.7234
        44.5004         32.2504
    228929.58448    189250.44146  20517129.9454   20517128.3874
        51.0004         40.0004
    942442.877 6                  25369951.805
        36.500
    739400.40447    569124.22543  24789682.0084   24789682.1374
        43.5004         22.5004
 12  3 16 13 27 10.0000000  0 10G10G08G02G21G29G05G15G26G04G07
   1308322.98746    990105.61043  24697399.5944   24697398.8554
        40.0004         19.0004
    333580.70547    271290.24943  24625556.3524   24625557.3444
        43.2504         21.5004
   1216140.67648    928865.69245  21804049.8914   21804046.4264
        48.2504         35.0004
    145184.92246    116703.99043  24996628.0784   24996626.5594
        37.0004         19.7504
    629387.17848    487691.60046  21217496.8524   21217494.5634
        51.0004         40.5004
   1000464.61048    759673.02947  20724934.8834   20724933.5044
        50.7504         42.7504
       581.96947      8484.21145  22793349.7504   22793348.5594
        45.0004         32.2504
    226854.82348    187633.74446  20516735.5084   20516733.6094
        51.0004         39.7504
    945755.167 6                  25370581.898
        37.500
    739625.45547    569299.58743  24789724.6484   24789724.7664
        43.5004         22.5004
 12  3 16 13 27 11.0000000  0 10G10G08G02G21G29G05G15G26G04G07
   1311627.45246    992680.53243  24698027.6094   24698027.3954
        40.5004         19.7504
    331806.68247    269907.87343  24625218.6644   24625219.6564
        43.2504         21.5004
   1218606.07948    930786.78645  21804519.0394   21804515.5554
        48.0004         35.0004
    142097.30146    114298.05643  24996041.5554   24996039.1174
        37.2504         19.5004
    629130.68248    487491.73246  21217448.0084   21217445.2194
        50.5004         40.0004
   1001783.58748    760700.80247  20725185.8914   20725183.8714
        50.7504         42.7504
     -2921.88747      5753.93745  22792682.5634   22792681.7934
        44.7504         32.2504
    224781.02648    186017.80646  20516340.3054   20516338.7544
        51.5004         39.7504
    949067.882 6                  25371211.945
        36.500
    739851.38947    569475.64543  24789768.0394   24789767.8834
        43.0004         22.7504
 12  3 16 13 27 12.0000000  0 10G10G08G02G21G29G05G15G26G04G07
   1314931.62146    995255.20943  24698656.2344   24698656.0434
        41.0004         19.7504
    330032.85047    268525.66343  24624881.7504   24624882.3914
        43.5004         21.0004
   1221071.59948    932707.97045  21804987.7194   21804984.9924
        48.2504         35.0004
    139009.35646    111891.84943  24995453.9064   24995451.3444
        37.0004         19.2504
    628874.60448    487292.19046  21217399.3524   21217396.8134
        51.0004         40.2504
   1003102.65448    761728.65147  20725437.1174   20725435.3054
        50.5004         43.0004
     -6425.71547      3023.68445  22792015.7194   22792015.0004
        44.2504         32.2504
    222707.66248    184402.18946  20515946.0784   20515944.2504
        51.5004         40.0004
    952380.360 6                  25371842.297
        36.500
    740077.69447    569651.97843  24789810.9454   24789810.9694
        43.2504         22.5004
 12  3 16 13 27 13.0000000  0 10G10G08G02G21G29G05G15G26G04G07
   1318235.90646    997829.98543  24699285.2894   24699284.8094
        39.5004         20.0004
    328259.51747    267143.85343  24624543.9844   24624544.4964
        42.5004         21.0004
   1223537.54448    934629.48445  21805456.9844   21805453.8134
        48.0004         35.0004
    135921.45746    109485.67943  24994866.0164   24994863.8874
        37.0004         19.5004
    628619.24848    487093.20846  21217350.7424   21217348.7664
        50.7504         40.5004
   1004422.10348    762756.78247  20725688.0704   20725686.0864
        50.7504         42.7504
     -9929.22047       293.68245  22791349.1884   22791348.3204
        44.5004         32.0004
    220635.08348    182787.19946  20515552.1484   20515550.1294
        51.7504         40.0004
    955692.989 6                  25372471.781
        37.250
    740304.65447    569828.83543  24789854.3284   24789854.2704
        43.2504         22.2504
 12  3 16 13 27 14.0000000  0 10G10G08G02G21G29G05G15G26G04G07
   1321540.25646   1000404.80343  24699914.6174   24699914.0984
        39.7504         20.2504
    326486.71847    265762.44843  24624206.3594   24624207.5004
        42.2504         20.7504
   1226003.98348    936551.38045  21805926.5474   21805923.3444
        48.5004         35.5004
    132833.63546    107079.58743  24994278.2664   24994276.2774
        36.7504         19.0004
    628364.70348    486894.85746  21217302.0554   21217300.2544
        50.7504         40.2504
   1005741.98348    763785.26047  20725939.4614   20725937.6334
        51.0004         42.5004
    -13432.28847     -2435.98545  22790682.8914   22790681.4734
        44.2504         32.7504
    218563.30448    181172.82946  20515157.4304   20515155.6994
        51.7504         40.0004
    959005.799 6                  25373103.008
        36.500
    740532.31247    570006.23943  24789897.6724   24789897.5904
        43.5004         22.7504
 12  3 16 13 27 15.0000000  0 10G10G08G02G21G29G05G15G26G04G07
   1324844.39546   1002979.43643  24700542.5554   24700543.0664
        39.5004         20.5004
    324714.16947    264381.25643  24623869.3674   24623870.7194
        42.2504         20.2504
   1228470.61448    938473.43545  21806395.8284   21806392.8484
        48.5004         35.7504
    129745.64046    104673.35243  24993691.3134   24993688.3134
        37.0004         19.0004
    628110.64548    486696.89246  21217254.0084   21217251.7304
        50.0004         40.2504
   1007062.02848    764813.86547  20726190.3834   20726188.4884
        50.5004         42.7504
    -16935.29947     -5165.59945  22790015.6954   22790015.0744
        44.5004         32.7504
    216492.05948    179558.86746  20514763.3444   20514761.5274
        51.7504         40.0004
    962318.590 6                  25373733.023
        36.750
    740760.44247    570183.98943  24789941.2974   24789941.0004
        44.0004         22.7504
 12  3 16 13 27 16.0000000  0 10G10G08G02G21G29G05G15G26G04G07
   1328148.48146   1005554.03043  24701171.0634   24701171.4454
        39.5004         20.0004
    322941.99347    263000.33843  24623531.8284   24623533.1214
        42.5004         20.5004
   1230937.52448    940395.70045  21806865.2664   21806862.5784
        48.5004         35.5004
    126657.46946    102267.00143  24993103.7344   24993101.2664
        36.5004         19.0004
    627857.16148    486499.36946  21217206.0634   21217203.6414
        50.5004         40.0004
   1008382.30248    765842.64747  20726441.3754   20726439.6684
        50.7504         42.7504
    -20438.09547     -7895.04845  22789349.6414   22789348.4774
        44.7504         32.5004
    214421.38748    177945.36346  20514369.4694   20514367.1884
        51.5004         40.0004
    965631.298 6                  25374363.906
        36.750
    740989.06447    570362.12143  24789984.4844   24789984.9694
        44.2504         22.5004
 12  3 16 13 27 17.0000000  0 10G10G08G02G21G29G05G15G26G04G07
   1331452.75446   1008128.77943  24701800.2734   24701800.2074
        39.2504         20.0004
    321170.44947    261619.91143  24623194.8834   24623195.9534
        42.5004         20.2504
   1233405.05848    942318.44245  21807334.8594   21807332.0864
        48.2504         35.2504
    123569.51046     99860.79343  24992516.3054   24992513.7154
        36.5004         18.5004
    627604.63248    486302.59446  21217157.5234   21217155.4924
        50.7504         40.0004
   1009703.16048    766871.88847  20726692.9694   20726691.2114
        51.0004         43.0004
    -23940.35947    -10624.08445  22788683.3674   22788682.2344
        45.0004         33.0004
    212351.70248    176332.62046  20513975.5394   20513973.7114
        51.5004         40.2504
    968944.371 6                  25374995.203
        37.500
    741218.55847    570540.94143  24790027.7814   24790028.2424
        43.5004         22.2504
 12  3 16 13 27 18.0000000  0 10G10G08G02G21G29G05G15G26G04G07
   1334757.46146   1010703.87043  24702428.5864   24702429.0354
        40.0004         20.0004
    319399.74947    260240.16543  24622857.6804   24622858.7544
        42.7504         21.0004
   1235873.34048    944241.78245  21807804.4224   21807801.1294
        48.5004         35.5004
    120482.03046     97454.98143  24991927.3914   24991925.6374
        36.0004         18.5004
    627353.13648    486106.62646  21217109.7274   21217107.4184
        51.0004         39.7504
   1011024.73448    767901.69347  20726944.5314   20726942.8554
        50.7504         42.7504
    -27441.95747    -13352.59945  22788016.9304   22788015.8484
        44.2504         32.5004
    210283.10848    174720.73046  20513581.8364   20513580.2504
        51.5004         40.0004
    972257.907 6                  25375624.289
        36.750
    741449.01547    570720.52743  24790071.4774   24790071.9884
        43.7504         22.2504
 12  3 16 13 27 19.0000000  0 10G10G08G02G21G29G05G15G26G04G07
   1338060.86446   1013277.96143  24703057.2114   24703057.4574
        40.0004         20.2504
    317628.19947    258859.73743  24622521.0704   24622522.0784
        42.2504         21.2504
   1238340.71148    946164.40945  21808273.9064   21808271.0124
        48.0004         35.5004
    117393.15946     95048.08443  24991340.2114   24991338.0634
        36.2504         18.2504
    627101.04748    485910.19346  21217061.5864   21217059.7704
        50.5004         39.7504
   1012345.33648    768930.73047  20727195.8054   20727194.1414
        51.0004         43.0004
    -30944.57047    -16081.89945  22787350.4304   22787349.6024
        44.5004         32.7504
    208213.90548    173108.36746  20513188.0394   20513186.1914
        51.5004         40.2504
    975570.228 6                  25376256.148
        37.000
    741678.82447    570899.61043  24790115.1564   24790115.6454
        43.5004         22.2504
 12  3 16 13 27 20.0000000  0 10G10G08G02G21G29G05G15G26G04G07
   1341365.21246   1015852.78243  24703685.6884   24703686.5944
        39.5004         20.5004
    315858.05046    257480.39643  24622184.0314   24622185.1604
        41.0004         21.2504
   1240809.43048    948088.08845  21808743.7664   21808740.4184
        48.0004         35.5004
    114305.25646     92641.92343  24990753.0554   24990750.8444
        36.7504         18.2504
    626850.58548    485715.02546  21217014.1724   21217012.0594
        50.5004         40.2504
   1013667.25448    769960.79647  20727447.3984   20727445.3914
        50.7504         43.0004
    -34445.91847    -18810.21645  22786683.8674   22786683.4774
        44.7504         33.2504
    206146.40448    171497.32046  20512794.5944   20512793.0554
        51.2504         40.0004
    978883.665 6                  25376886.195
        37.500
    741910.21147    571079.91843  24790159.2894   24790159.7424
        43.7504         22.7504
 12  3 16 13 27 21.0000000  0 10G10G08G02G21G29G05G15G26G04G07
   1344669.27446   1018427.37143  24704315.0704   24704315.1334
        39.2504         20.7504
    314088.04946    256101.17343  24621847.2424   24621847.7384
        41.2504         20.7504
   1243278.24248    950011.83445  21809214.0164   21809210.6094
        48.2504         35.2504
    111217.06046     90235.52842  24990165.2734   24990162.8094
        36.7504         17.7504
    626600.54948    485520.19246  21216966.4534   21216964.1334
        50.7504         40.2504
   1014989.23048    770990.90947  20727699.0164   20727697.1684
        51.0004         42.5004
    -37947.25147    -21538.52945  22786017.8284   22786017.0514
        44.7504         32.5004
    204079.32948    169886.62046  20512401.2034   20512399.3284
        51.5004         40.2504
    982196.875 6                  25377516.992
        37.750
    742141.95247    571260.49643  24790203.9774   24790203.7034
        44.0004         22.2504
 12  3 16 13 27 22.0000000  0 10G10G08G02G21G29G05G15G26G04G07
   1347973.23646   1021001.85843  24704943.7734   24704943.9964
        39.2504         20.7504
    312318.38947    254722.20243  24621510.5394   24621511.4574
        42.0004         20.7504
   1245747.30547    951935.77745  21809683.8284   21809680.3554
        47.7504         35.2504
    108128.71746     87829.01143  24989577.6254   24989575.1334
        37.0004         18.2504
    626351.05048    485325.76846  21216919.0784   21216917.0474
        50.7504         40.0004
   1016311.39548    772021.16947  20727950.4534   20727948.7034
        50.7504         42.2504
    -41448.42647    -24266.71145  22785351.7114   22785350.9304
        44.5004         32.5004
    202012.82548    168276.35646  20512008.0474   20512006.3594
        51.0004         40.2504
    985510.048 6                  25378147.984
        37.750
    742374.14447    571441.42843  24790247.7504   24790247.9224
        44.0004         22.5004
 12  3 16 13 27 23.0000000  0 10G10G08G02G21G29G05G15G26G04G07
   1351277.22046   1023576.39443  24705572.4304   24705572.5664
        38.7504         20.7504
    310549.16646    253343.59343  24621174.1094   24621174.9224
        41.5004         20.7504
   1248216.76247    953860.02445  21810153.7034   21810150.3984
        47.7504         34.7504
    105040.34146     85422.47242  24988989.5084   24988987.7234
        36.7504         17.7504
    626102.27948    485131.92146  21216871.8914   21216870.0784
        50.5004         40.0004
   1017633.93348    773051.71247  20728202.0944   20728200.6724
        50.5004         42.2504
    -44949.26347    -26994.63645  22784685.3284   22784684.8874
        44.7504         32.5004
    199947.07448    166666.66946  20511614.8594   20511612.8594
        51.0004         40.2504
    988823.329 6                  25378778.250
        38.250
    742606.99547    571622.85843  24790292.5944   24790292.1804
        43.5004         22.5004
 12  3 16 13 27 24.0000000  0 10G10G08G02G21G29G05G15G26G04G07
   1354581.44546   1026151.12643  24706201.9224   24706201.8674
        39.0004         20.7504
    308780.62146    251965.52043  24620837.0394   24620838.1254
        41.0004         20.7504
   1250686.83847    955784.76445  21810623.4694   21810620.1134
        47.7504         35.2504
    101952.23846     83016.17643  24988401.8364   24988399.8014
        37.0004         18.2504
    625854.41848    484938.78946  21216824.3134   21216822.5664
        50.0004         40.0004
   1018957.04948    774082.71447  20728453.8134   20728451.9964
        50.5004         42.0004
    -48449.59347    -29722.16345  22784019.2814   22784018.8244
        44.5004         33.0004
    197882.25648    165057.72546  20511221.9844   20511220.0864
        51.0004         40.2504
    992136.962 6                  25379408.648
        38.250
    742840.69247    571804.95343  24790336.4534   24790336.7074
        43.0004         23.0004
 12  3 16 13 27 25.0000000  0 10G10G08G02G21G29G05G15G26G04G07
   1357885.24946   1028725.52143  24706830.3594   24706830.2974
        39.0004         20.5004
    307012.14746    250587.50143  24620500.8674   24620501.9024
        40.7504         20.2504
   1253156.91947    957709.49545  21811093.8914   21811090.1724
        47.2504         35.0004
     98863.71746     80609.53643  24987813.9304   24987812.4184
        36.7504         18.2504
    625606.85848    484745.88346  21216777.5164   21216775.2624
        50.5004         40.0004
   1020280.09848    775113.65647  20728705.8754   20728703.6484
        51.0004         42.0004
    -51950.00547    -32449.75645  22783352.9924   22783352.4694
        44.2504         32.7504
    195817.76248    163449.03446  20510828.9614   20510827.3524
        51.0004         40.5004
    995450.237 6                  25380038.773
        38.250
    743074.64447    571987.25043  24790380.8284   24790381.1254
        42.7504         23.0004
 12  3 16 13 27 26.0000000  0 10G10G08G02G21G29G05G15G26G04G07
   1361189.35346   1031300.15743  24707458.6954   24707458.7074
        39.2504         20.0004
    305244.37546    249210.01643  24620164.6644   24620165.5594
        41.5004         20.5004
   1255627.62047    959634.70545  21811564.0554   21811560.2704
        47.5004         35.0004
     95775.43046     78203.06243  24987227.2894   24987224.5274
        36.5004         18.2504
    625360.23948    484553.71146  21216730.7424   21216728.1724
        50.5004         40.0004
   1021603.76148    776145.08047  20728957.5164   20728955.7034
        50.7504         42.0004
    -55449.88247    -35176.93345  22782686.7344   22782686.7034
        45.0004         32.5004
    193754.24848    161841.09946  20510436.2194   20510434.8404
        50.5004         40.2504
    998763.845 6                  25380668.961
        38.500
    743309.44247    572170.19843  24790425.3834   24790425.5394
        42.7504         22.7504
 12  3 16 13 27 27.0000000  0 10G10G08G02G21G29G05G15G26G04G07
   1364493.37346   1033874.70543  24708088.1564   24708087.5044
        39.0004         20.2504
    303476.96546    247832.79743  24619828.2114   24619828.7114
        41.5004         21.2504
   1258098.65647    961560.19045  21812033.8984   21812030.5664
        47.0004         35.2504
     92687.07845     75796.55943  24986638.6174   24986636.5704
        35.0004         19.0004
    625114.27448    484362.04346  21216683.7274   21216681.6884
        50.5004         40.0004
   1022927.68748    777176.71447  20729209.5864   20729207.4804
        50.7504         42.0004
    -58949.49947    -37903.90145  22782021.0784   22782020.6994
        45.0004         33.2504
    191691.39648    160233.68546  20510043.7584   20510041.9144
        51.0004         40.2504
   1002077.588 6                  25381299.797
        39.000
    743544.81747    572353.61643  24790470.4924   24790470.3244
        42.7504         22.7504
 12  3 16 13 27 28.0000000  0 10G10G08G02G21G29G05G15G26G04G07
   1367797.11846   1036449.05043  24708716.4534   24708716.3364
        39.0004         20.2504
    301709.70647    246455.70543  24619491.7274   24619492.6604
        42.0004         20.7504
   1260569.79147    963485.74645  21812504.0394   21812500.9734
        46.7504         35.2504
     89598.41346     73389.79543  24986050.7114   24986048.9454
        36.0004         18.5004
    624868.66748    484170.66146  21216636.7894   21216635.1724
        50.0004         40.0004
   1024251.65048    778208.37647  20729461.5704   20729459.4734
        50.2504         42.2504
    -62449.14547    -40630.89645  22781354.9064   22781354.6954
        44.5004         33.0004
    189628.91448    158626.55746  20509651.2894   20509649.5744
        51.0004         40.0004
   1005391.095 6                  25381930.648
        38.250
    743780.53947    572537.29443  24790515.2814   24790515.6134
        42.7504         22.5004
 12  3 16 13 27 29.0000000  0 10G10G08G02G21G29G05G15G26G04G07
   1371101.07746   1039023.54143  24709345.7814   24709345.0394
        38.7504         20.2504
    299943.14547    245079.17643  24619155.6094   24619156.3594
        42.0004         21.2504
   1263041.49747    965411.74845  21812974.8834   21812971.5474
        47.2504         34.7504
     86509.96946     70983.21543  24985463.2584   24985461.4884
        36.5004         18.5004
    624623.98148    483980.00346  21216590.2734   21216588.6884
        49.7504         40.5004
   1025576.18048    779240.47147  20729713.4064   20729711.4024
        50.0004         42.2504
    -65948.27347    -43357.48445  22780689.0474   22780688.3444
        44.7504         33.0004
    187567.40848    157020.19646  20509258.9534   20509257.2894
        50.5004         40.0004
   1008704.890 6                  25382560.789
        38.750
    744017.06847    572721.59643  24790560.1094   24790560.2584
        42.5004         22.5004
 12  3 16 13 27 30.0000000  0 10G10G08G02G21G29G05G15G26G04G07
   1374405.23846   1041598.22343  24709973.6484   24709973.6684
        38.0004         20.0004
    298177.18047    243703.10043  24618819.6094   24618820.3444
        42.5004         21.0004
   1265513.79847    967338.21645  21813445.1024   21813441.5514
        47.0004         34.7504
     83421.68546     68576.77643  24984874.1484   24984871.8914
        36.0004         19.0004
    624380.16948    483790.01346  21216543.7424   21216542.2544
        49.7504         40.2504
   1026901.25848    780273.00547  20729965.6564   20729963.8094
        49.7504         42.2504
    -69446.92147    -46083.70545  22780023.4844   22780022.8054
        44.7504         33.0004
    185506.79948    155414.53046  20508866.8914   20508865.2624
        50.5004         40.2504
   1012019.015 6                  25383191.813
        39.250
    744254.42047    572906.53243  24790605.3754   24790605.6334
        42.7504         22.5004
 12  3 16 13 27 31.0000000  0 10G10G08G02G21G29G05G15G26G04G07
   1377708.82746   1044172.44443  24710602.3914   24710602.8364
        38.2504         19.7504
    296411.15547    242326.98843  24618483.4924   24618484.4384
        42.0004         21.0004
   1267985.92947    969264.55445  21813915.6094   21813912.5904
        47.5004         34.7504
     80332.84746     66169.89543  24984287.6254   24984285.8134
        36.7504         19.0004
    624136.50748    483600.15246  21216497.5784   21216495.6644
        50.0004         40.0004
   1028226.11648    781305.35947  20730217.5394   20730215.6454
        50.5004         42.2504
    -72945.80547    -48810.10145  22779357.4144   22779356.4964
        45.0004         32.0004
    183446.36748    153808.99746  20508474.7274   20508473.1684
        50.5004         40.2504
   1015332.655 6                  25383822.125
        39.250
    744491.84447    573091.54243  24790650.2114   24790650.6024
        42.5004         22.7504
 12  3 16 13 27 32.0000000  0 10G10G08G02G21G29G05G15G26G04G07
   1381012.89146   1046747.04043  24711230.7814   24711231.6094
        39.0004         19.5004
    294645.95747    240951.49843  24618148.0084   24618148.6214
        42.0004         20.7504
   1270458.85647    971191.50945  21814386.0784   21814382.8094
        47.7504         34.7504
     77244.44646     63763.36243  24983699.2664   24983698.1724
        37.0004         19.0004
    623893.95348    483411.15446  21216451.2664   21216449.4884
        50.5004         40.0004
   1029551.74648    782338.32247  20730470.1884   20730467.8284
        50.7504         42.2504
    -76443.98047    -51535.95145  22778691.5704   22778691.2504
        45.2504         32.5004
    181387.08348    152204.35446  20508083.0004   20508081.4884
        51.0004         40.2504
   1018646.820 6                  25384452.805
        39.250
    744730.29847    573277.35343  24790696.2344   24790696.3404
        43.0004         23.0004
 12  3 16 13 27 33.0000000  0 10G10G08G02G21G29G05G15G26G04G07
   1384316.48346   1049321.26643  24711859.5394   24711860.1764
        39.5004         19.5004
    292880.78647    239576.03543  24617812.1644   24617812.0984
        42.2504         21.0004
   1272931.72147    973118.40645  21814856.8914   21814853.8204
        47.5004         35.0004
     74155.54146     61356.42643  24983111.8834   24983110.2894
        37.0004         18.5004
    623651.63848    483222.33246  21216405.5634   21216403.2424
        50.2504         40.2504
   1030877.22848    783371.16047  20730722.2814   20730720.3444
        51.2504         42.2504
    -79942.32747    -54261.93745  22778025.7894   22778025.6454
        45.5004         32.5004
    179328.03348    150599.89946  20507690.9224   20507689.5664
        51.0004         40.2504
   1021960.611 6                  25385083.164
        39.500
    744968.92047    573463.29243  24790741.7974   24790741.7544
        42.7504         22.7504
 12  3 16 13 27 34.0000000  0 10G10G08G02G21G29G05G15G26G04G07
   1387620.63846   1051895.92443  24712488.0704   24712489.1254
        39.0004         19.5004
    291116.62947    238201.36243  24617476.1644   24617476.8244
        42.0004         20.7504
   1275405.53347    975046.06145  21815327.4924   21815324.2074
        47.5004         34.7504
     71067.21946     58949.94443  24982525.0864   24982522.4574
        37.0004         18.2504
    623410.57848    483034.48246  21216359.1724   21216357.4534
        50.5004         40.2504
   1032203.64548    784404.72947  20730974.4144   20730973.0354
        51.5004         42.5004
    -83439.78547    -56987.23245  22777360.6094   22777360.1844
        45.2504         33.0004
    177270.27448    148996.44846  20507299.5394   20507297.7194
        51.0004         40.2504
   1025275.052 6                  25385714.000
        39.500
    745208.72847    573650.15443  24790787.5704   24790787.2814
        43.0004         22.7504
 12  3 16 13 27 35.0000000  0 10G10G08G02G21G29G05G15G26G04G07
   1390924.31446   1054470.21843  24713116.9534   24713117.8094
        38.5004         19.5004
    289352.38346    236826.61643  24617139.8444   24617140.8324
        41.7504         20.7504
   1277879.22847    976973.61245  21815797.8134   21815794.9384
        47.5004         34.7504
     67978.34846     56543.01543  24981937.0864   24981934.7814
        37.5004         18.5004
    623169.70348    482846.78746  21216313.5634   21216311.3594
        50.5004         40.0004
   1033529.89548    785438.17947  20731227.1644   20731225.1524
        51.2504         42.5004
    -86937.45347    -59712.68545  22776694.8204   22776694.4414
        45.0004         32.5004
    175212.73548    147393.17546  20506908.1094   20506906.7194
        51.0004         40.2504
   1028589.157 6                  25386344.695
        39.000
    745448.66947    573837.11543  24790833.5554   24790832.9574
        43.2504         22.2504
 12  3 16 13 27 36.0000000  0 10G10G08G02G21G29G05G15G26G04G07
   1394228.01946   1057044.53443  24713745.5704   24713746.4144
        38.7504         19.0004
    287588.66547    235452.27543  24616804.5314   24616805.0984
        42.0004         20.5004
   1280353.39047    978901.52945  21816268.6024   21816265.9574
        47.7504         34.5004
     64889.56046     54136.17043  24981348.7664   24981346.8714
        38.0004         18.2504
    622929.57948    482659.68846  21216267.5314   21216265.8484
        50.0004         39.7504
   1034856.55748    786471.93547  20731479.4614   20731477.5904
        51.2504         42.5004
    -90434.76547    -62437.85445  22776029.3054   22776029.0314
        45.2504         32.2504
    173155.98248    145790.50946  20506516.5394   20506515.4064
        50.7504         40.5004
   1031903.421 6                  25386974.977
        39.000
    745689.27647    574024.59843  24790879.0164   24790878.7274
        42.5004         22.0004
 12  3 16 13 27 37.0000000  0 10G10G08G02G21G29G05G15G26G04G07
   1397531.71746   1059618.84343  24714374.5394   24714374.8204
        39.0004         19.2504
    285825.35446    234078.29543  24616469.3364   24616470.2504
        41.7504         20.2504
   1282827.87347    980829.69045  21816739.8524   21816737.0354
        47.5004         34.7504
     61800.72346     51729.26843  24980761.2504   24980759.1214
        36.5004         18.2504
    622690.10848    482473.08746  21216222.5784   21216220.2504
        50.2504         40.0004
   1036183.50448    787505.92047  20731732.0394   20731729.9844
        51.2504         42.2504
    -93931.82147    -65162.83445  22775363.7424   22775362.9844
        45.5004         32.5004
    171099.88248    144188.35346  20506125.3674   20506123.9734
        50.5004         40.5004
   1035217.685 6                  25387605.664
        39.000
    745930.49347    574212.56043  24790924.7034   24790924.7664
        42.7504         22.0004
 12  3 16 13 27 38.0000000  0 10G10G08G02G21G29G05G15G26G04G07
   1400835.57546   1062193.27943  24715003.2974   24715003.8874
        38.5004         19.7504
    284062.62647    232704.75843  24616133.6254   24616134.4494
        42.2504         20.7504
   1285302.87147    982758.26245  21817210.6024   21817207.8284
        47.5004         35.0004
     58711.97546     49322.43842  24980173.3674   24980171.3204
        36.0004         17.7504
    622451.45848    482287.12446  21216177.2734   21216174.6524
        50.2504         40.2504
   1037510.96048    788540.30147  20731984.3984   20731982.5864
        51.5004         42.5004
    -97428.42947    -67887.45745  22774698.3134   22774698.1454
        45.2504         32.5004
    169044.64648    142586.87146  20505734.2344   20505732.6414
        50.7504         40.5004
   1038532.195 6                  25388237.367
        39.250
    746172.46347    574401.11643  24790970.5864   24790970.9184
        42.7504         22.0004
 12  3 16 13 27 39.0000000  0 10G10G08G02G21G29G05G15G26G04G07
   1404139.38646   1064767.68643  24715631.5084   24715632.4534
        38.7504         19.7504
    282300.30747    231331.53143  24615798.3134   24615799.2624
        42.0004         20.2504
   1287778.22147    984687.10245  21817682.0394   21817678.9064
        47.5004         35.0004
     55623.24246     46915.66142  24979585.7274   24979583.6524
        36.7504         17.7504
    622213.46048    482101.67546  21216131.5864   21216129.7034
        50.5004         40.2504
   1038838.67748    789574.88447  20732237.2894   20732235.1564
        51.2504         42.5004
   -100924.77947    -70611.87945  22774033.0394   22774032.5634
        45.2504         31.7504
    166990.11248    140985.93346  20505343.2344   20505341.7814
        50.5004         40.7504
   1041846.752 6                  25388867.438
        39.750
    746414.99347    574590.10143  24791016.8984   24791017.1054
        42.7504         22.0004
 12  3 16 13 27 40.0000000  0 10G10G08G02G21G29G05G15G26G04G07
   1407442.97346   1067341.90943  24716260.4774   24716261.1214
        39.2504         19.7504
    280538.17647    229958.43843  24615462.8134   24615463.4414
        43.0004         20.2504
   1290253.71847    986616.06045  21818152.6564   21818149.9694
        47.7504         35.0004
     52534.18946     44508.63042  24978997.9844   24978995.8554
        37.2504         17.7504
    621975.91848    481916.57046  21216086.3444   21216084.8014
        50.5004         40.5004
   1040166.51448    790609.56847  20732489.9064   20732487.8914
        50.7504         42.2504
   -104421.07147    -73336.26145  22773367.6334   22773367.2154
        45.5004         32.5004
    164936.02348    139385.35246  20504952.6254   20504950.7854
        50.5004         40.5004
   1045161.187 6                  25389498.109
        39.750
    746657.93947    574779.41043  24791063.0394   24791063.3634
        42.7504         22.0004
 12  3 16 13 27 41.0000000  0 10G10G08G02G21G29G05G15G26G04G07
   1410746.70146   1069916.22743  24716889.1564   24716889.7544
        39.5004         19.5004
    278776.69147    228585.84943  24615127.8444   24615128.4614
        42.5004         21.2504
   1292729.73047    988545.41345  21818624.1174   21818621.2704
        47.7504         35.2504
     49445.32246     42101.71743  24978410.7504   24978407.4654
        37.5004         18.5004
    621739.21148    481732.12646  21216041.5234   21216039.6374
        50.0004         40.2504
   1041494.83548    791644.62047  20732742.5554   20732740.2774
        51.0004         42.2504
   -107916.92647    -76060.30045  22772702.7894   22772701.9064
        45.5004         33.0004
    162882.80848    137785.43846  20504561.6334   20504560.2234
        51.0004         40.7504
   1048475.844 6                  25390129.016
        39.750
    746901.63447    574969.30543  24791109.6484   24791109.5434
        42.5004         22.0004
 12  3 16 13 27 42.0000000  0 10G10G08G02G21G29G05G15G26G04G07
   1414050.25146   1072490.42343  24717517.3364   24717518.3834
        39.5004         19.7504
    277015.41047    227213.40843  24614792.4774   24614793.8794
        43.0004         20.7504
   1295205.96548    990474.95345  21819095.1484   21819092.1414
        48.0004         35.2504
     46356.19346     39694.60543  24977822.3834   24977820.2774
        36.7504         18.5004
    621503.00748    481548.07646  21215996.3914   21215994.4574
        50.0004         40.2504
   1042823.30748    792679.79247  20732995.6334   20732993.3324
        51.0004         42.5004
   -111412.66547    -78784.25645  22772037.2814   22772036.6914
        45.2504         32.5004
    160830.14048    136185.95846  20504171.0554   20504169.3484
        51.0004         40.7504
   1051790.383 6                  25390759.281
        39.500
    747145.76347    575159.52943  24791156.0864   24791156.2384
        42.5004         22.0004
 12  3 16 13 27 43.0000000  0 10G10G08G02G21G29G05G15G26G04G07
   1417354.04846   1075064.80243  24718146.2424   24718147.6684
        39.7504         19.5004
    275254.85847    225841.55243  24614457.6884   24614458.3914
        42.5004         20.5004
   1297682.80448    992404.95645  21819566.7894   21819563.7274
        48.0004         35.2504
     43267.38346     37287.72543  24977234.7274   24977232.0164
        37.2504         18.5004
    621267.73348    481364.74746  21215951.9774   21215949.7664
        50.2504         40.5004
   1044152.37348    793715.42947  20733248.1484   20733246.2934
        51.2504         42.5004
   -114907.86547    -81507.78445  22771372.0554   22771371.8634
        45.5004         32.2504
    158778.41648    134587.21546  20503780.7584   20503779.1174
        50.7504         40.5004
   1055105.320 6                  25391391.133
        39.500
    747390.74247    575350.41543  24791202.9144   24791203.2304
        42.5004         22.7504
 12  3 16 13 27 44.0000000  0 10G10G08G02G21G29G05G15G26G04G07
   1420657.40646   1077638.84743  24718774.5634   24718776.1684
        39.0004         19.5004
    273494.32947    224469.70643  24614122.3754   24614123.6054
        42.5004         20.7504
   1300159.64648    994334.96645  21820038.1254   21820035.3284
        48.2504         35.0004
     40178.12346     34880.51943  24976646.0004   24976644.1994
        37.0004         19.2504
    621032.74348    481181.63546  21215906.7814   21215905.0514
        50.5004         40.0004
   1045481.37148    794751.01247  20733501.3674   20733499.0984
        51.5004         42.5004
   -118403.15247    -84231.38445  22770707.2664   22770706.2034
        45.7504         32.5004
    156727.02748    132988.73246  20503390.2894   20503388.4614
        51.2504         40.5004
   1058419.896 6                  25392021.398
        39.250
    747635.97947    575541.51444  24791248.8754   24791249.7424
        43.0004         24.5004
 12  3 16 13 27 45.0000000  0 10G10G08G02G21G29G05G15G26G04G07
   1423961.15546   1080213.21943  24719403.8834   24719404.4064
        39.0004         19.5004
    271734.56647    223098.47243  24613787.5394   24613788.6954
        42.0004         21.2504
   1302637.17648    996265.50645  21820509.4224   21820506.3524
        48.0004         35.0004
     37089.20446     32473.57143  24976059.0704   24976056.6804
        37.5004         19.5004
    620798.76148    480999.30746  21215862.4534   21215860.6094
        50.2504         40.2504
   1046811.03848    795787.11147  20733754.4924   20733752.2304
        51.2504         42.5004
   -121897.82147    -86954.49745  22770042.1414   22770041.1054
        46.0004         32.7504
    154676.64748    131391.03446  20503000.2194   20502998.4264
        51.0004         40.5004
   1061735.000 6                  25392652.055
        38.500
    747882.14647    575733.31543  24791296.1414   24791296.7384
        42.7504         22.5004
 12  3 16 13 27 46.0000000  0 10G10G08G02G21G29G05G15G26G04G07
   1427264.61246   1082787.33243  24720032.7194   24720033.0514
        38.5004         19.2504
    269974.96847    221727.35443  24613452.9224   24613453.6414
        42.0004         21.0004
   1305114.78647    998196.10745  21820981.2974   21820977.8874
        47.7504         35.0004
     33999.90346     30066.32443  24975471.3754   24975469.0164
        38.2504         19.5004
    620565.15948    480817.27546  21215817.8834   21215816.1454
        50.7504         40.5004
   1048140.71448    796823.22447  20734007.3594   20734005.7234
        50.7504         42.5004
   -125392.53347    -89677.65045  22769377.0164   22769376.2344
        45.0004         33.2504
    152626.68948    129793.66246  20502610.3594   20502608.4844
        51.2504         40.2504
   1065049.783 6                  25393282.648
        38.750
    748128.61847    575925.35443  24791343.0004   24791343.3914
        42.7504         22.0004
 12  3 16 13 27 47.0000000  0 10G10G08G02G21G29G05G15G26G04G07
   1430568.18146   1085361.53743  24720661.2584   24720662.0554
        38.5004         19.5004
    268215.98147    220356.72643  24613117.8674   24613119.2034
        42.0004         20.7504
   1307592.95947   1000127.14745  21821452.4224   21821449.3404
        47.7504         35.2504
     30910.77246     27659.21243  24974883.2424   24974881.0314
        38.2504         19.7504
    620332.43048    480635.92946  21215773.3524   21215771.9224
        50.2504         40.5004
   1049470.92748    797859.75247  20734260.2424   20734258.1214
        50.5004         42.5004
   -128886.75047    -92400.41945  22768712.0864   22768710.9774
        45.0004         32.7504
    150577.64048    128196.99946  20502220.0004   20502218.5234
        51.0004         40.5004
   1068364.863 6                  25393913.703
        38.500
    748375.88247    576118.02743  24791389.8594   24791390.3364
        42.5004         22.0004
 12  3 16 13 27 48.0000000  0 10G10G08G02G21G29G05G15G26G04G07
   1433871.73346   1087935.66143  24721290.4694   24721291.2544
        38.5004         19.2504
    266457.27547    218986.30343  24612783.6094   24612784.1414
        42.0004         21.2504
   1310071.38648   1002058.38545  21821924.4064   21821920.6414
        48.5004         35.2504
     27821.53546     25251.99243  24974295.7424   24974293.1914
        37.5004         19.5004
    620100.25148    480455.00646  21215729.6724   21215727.5164
        50.5004         40.2504
   1050801.33848    798896.43147  20734513.7974   20734511.4614
        50.5004         42.5004
   -132380.80847    -95123.05245  22768047.2894   22768046.3954
        45.2504         32.5004
    148529.14548    126600.76346  20501830.2664   20501828.8444
        51.0004         40.0004
   1071679.880 6                  25394544.742
        38.500
    748623.64847    576311.09243  24791437.6024   24791437.5634
        42.7504         22.2504
 12  3 16 13 27 49.0000000  0 10G10G08G02G21G29G05G15G26G04G07
   1437175.23546   1090509.86143  24721918.3204   24721919.9144
        38.5004         19.2504
    264699.12047    217616.30443  24612449.2194   24612449.8874
        42.2504         21.0004
   1312550.23948   1003989.95245  21822395.8364   21822392.7504
        48.5004         35.2504
     24732.31046     22844.80543  24973707.9534   24973705.2074
        38.2504         20.0004
    619868.79248    480274.65546  21215685.6334   21215683.6524
        51.0004         40.2504
   1052132.13248    799933.42047  20734767.0084   20734764.8674
        51.0004         42.5004
   -135874.54547    -97845.44745  22767382.4144   22767381.8014
        45.5004         33.0004
    146481.41948    125005.13846  20501440.3444   20501438.8244
        51.0004         40.2504
   1074995.101 6                  25395175.281
        38.250
    748872.05547    576504.65543  24791484.8054   24791484.9104
        42.5004         22.5004
 12  3 16 13 27 50.0000000  0 10G10G08G02G21G29G05G15G26G04G07
   1440478.70546   1093083.99943  24722547.0704   24722548.1994
        39.2504         19.0004
    262941.35947    216246.60943  24612114.7194   24612115.0904
        42.5004         21.0004
   1315029.42848   1005921.78545  21822867.6334   21822864.7154
        48.2504         35.5004
     21643.02246     20437.57243  24973120.4224   24973117.4184
        38.5004         20.0004
    619638.00048    480094.81246  21215641.6484   21215639.6724
        50.7504         40.0004
   1053463.24348    800970.64347  20735020.3444   20735018.2814
        51.0004         42.5004
   -139367.97447   -100567.59945  22766717.7664   22766717.2114
        45.2504         33.0004
    144434.39348    123410.04946  20501051.1024   20501049.5314
        51.5004         40.5004
   1078310.344 6                  25395805.938
        37.750
    749121.04947    576698.68343  24791531.8444   24791532.1844
        42.5004         22.5004
 12  3 16 13 27 51.0000000  0 10G10G08G02G21G29G05G15G26G04G07
   1443781.77646   1095657.85243  24723175.5944   24723176.2974
        39.0004         19.0004
    261183.62847    214876.94343  24611780.0784   24611780.2114
        42.7504         21.2504
   1317508.61948   1007853.62345  21823339.5004   21823336.7464
        48.2504         35.5004
     18553.37746     18030.06243  24972532.7504   24972529.6484
        38.5004         20.0004
    619407.52348    479915.22446  21215597.7974   21215595.6524
        50.5004         40.5004
   1054794.29748    802007.82947  20735273.6174   20735271.4224
        51.0004         42.5004
   -142861.50647   -103289.83145  22766052.9844   22766052.0944
        45.2504         32.7504
    142387.67748    121815.20746  20500661.4534   20500660.0314
        51.2504         40.2504
   1081625.262 6                  25396436.719
        37.500
    749370.32547    576892.93143  24791579.3364   24791579.7774
        42.7504         22.5004
 12  3 16 13 27 52.0000000  0 10G10G08G02G21G29G05G15G26G04G07
   1447085.47746   1098232.11943  24723804.5554   24723805.4384
        39.0004         18.5004
    259426.91547    213508.08043  24611445.4064   24611446.0474
        42.5004         20.7504
   1319988.70348   1009786.15945  21823811.1094   21823808.1454
        48.5004         35.0004
     15464.21546     15622.92643  24971945.0784   24971941.3404
        37.2504         20.0004
    619178.25148    479736.57646  21215554.2504   21215552.2074
        50.2504         40.0004
   1056126.23748    803045.70947  20735526.8134   20735524.8954
        51.0004         42.7504
   -146354.22647   -106011.42845  22765388.4144   22765387.3094
        45.0004         32.7504
    140342.23048    120221.35646  20500271.9844   20500270.5354
        50.7504         40.0004
   1084940.870 6                  25397068.016
        37.000
    749620.68747    577088.02243  24791626.9614   24791627.3324
        42.7504         22.5004
 12  3 16 13 27 53.0000000  0 10G10G08G02G21G29G05G15G26G04G07
   1450388.84446   1100806.15243  24724432.8754   24724433.8404
        39.5004         18.2504
    257670.37547    212139.36343  24611111.8054   24611111.6334
        43.0004         21.2504
   1322468.94148   1011718.80945  21824283.4144   21824280.4694
        48.5004         35.2504
     12374.81946     13215.59243  24971356.1024   24971353.5394
        37.2504         20.5004
    618949.41048    479558.25346  21215510.6644   21215508.3674
        50.2504         40.0004
   1057458.24448    804083.63247  20735780.6804   20735778.6214
        51.0004         42.2504
   -149846.88447   -108732.97745  22764723.7974   22764722.8444
        45.0004         32.5004
    138297.24048    118627.85746  20499883.4064   20499881.6914
        50.7504         40.0004
   1088256.299 6                  25397698.930
        37.250
    749871.46347    577283.42943  24791674.9304   24791674.8754
        42.5004         22.5004
 12  3 16 13 27 54.0000000  0 10G10G08G02G21G29G05G15G26G04G07
   1453692.22446   1103380.22342  24725062.1644   24725062.8244
        39.2504         17.7504
    255914.25547    210770.96043  24610777.5234   24610778.0084
        43.0004         20.5004
   1324949.54048   1013651.74245  21824755.5554   21824752.5044
        48.0004         35.2504
      9285.36446     10808.23643  24970768.4384   24970765.8754
        37.2504         20.5004
    618721.25548    479380.47146  21215467.2584   21215464.9804
        51.0004         40.0004
   1058790.56648    805121.80447  20736034.3984   20736032.0204
        50.7504         42.0004
   -153339.26547   -111454.31045  22764059.5634   22764058.6254
        44.7504         32.5004
    136252.92948    117034.89246  20499494.3984   20499492.5634
        50.7504         40.0004
   1091571.786 6                  25398328.492
        37.000
    750122.82847    577479.30043  24791722.4844   24791722.7114
        43.0004         22.5004
 12  3 16 13 27 55.0000000  0 10G10G08G02G21G29G05G15G26G04G07
   1456995.61646   1105954.29443  24725689.7814   24725691.2544
        39.0004         19.0004
    254158.60747    209402.92943  24610443.3754   24610443.7424
        43.0004         20.5004
   1327430.50247   1015584.95845  21825227.5084   21825224.6024
        47.7504         35.0004
      6195.94246      8400.91643  24970180.2814   24970177.5984
        37.7504         20.5004
    618493.77148    479203.21446  21215423.8594   21215421.6134
        51.0004         39.7504
   1060123.25348    806160.26547  20736287.6094   20736285.3984
        50.7504         42.2504
   -156831.35947   -114175.41945  22763394.7344   22763394.0084
        44.5004         32.7504
    134209.36248    115442.50146  20499105.3754   20499103.8164
        50.7504         40.2504
   1094887.368 6                  25398960.914
        36.750
    750374.82047    577675.64843  24791771.2034   24791770.5744
        43.0004         22.5004
 12  3 16 13 27 56.0000000  0 10G10G08G02G21G29G05G15G26G04G07
   1460298.86746   1108528.25143  24726318.9454   24726319.4804
        39.2504         19.0004
    252403.26347    208035.14443  24610109.0554   24610109.9534
        42.7504         21.0004
   1329911.73748   1017518.38045  21825699.4304   21825696.7424
        48.0004         35.2504
      3106.37646      5993.46743  24969592.3284   24969589.8094
        38.2504         21.0004
    618266.85748    479026.39446  21215380.5944   21215378.4884
        50.7504         40.0004
   1061456.13348    807198.87547  20736541.3674   20736539.1374
        51.0004         42.2504
   -160323.25747   -116896.37645  22762730.0784   22762729.1954
        45.0004         32.7504
    132166.39448    113850.57246  20498716.8914   20498714.6954
        51.0004         40.2504
   1098202.889 6                  25399590.969
        37.000
    750627.29347    577872.38743  24791818.9384   24791818.9454
        43.0004         22.5004
 12  3 16 13 27 57.0000000  0 10G10G08G02G21G29G05G15G26G04G07
   1463602.01346   1111102.13543  24726947.1724   24726948.5514
        40.0004         19.0004
    250648.24147    206667.59443  24609774.8364   24609776.3674
        42.7504         21.2504
   1332393.21547   1019451.99045  21826171.5864   21826168.5514
        47.5004         35.0004
        16.62346      3585.84343  24969004.5084   24969001.6994
        38.2504         21.5004
    618040.51948    478850.02746  21215337.4694   21215335.4734
        50.0004         40.0004
   1062789.21748    808237.63847  20736795.0164   20736792.8244
        50.7504         42.5004
   -163815.00247   -119617.21945  22762065.5004   22762064.9304
        44.5004         32.7504
    130123.98548    112259.08446  20498327.9924   20498326.2504
        50.5004         40.5004
   1101518.398 6                  25400222.297
        36.000
    750880.25247    578069.50543  24791866.6564   24791866.9224
        43.0004         22.7504
 12  3 16 13 27 58.0000000  0 10G10G08G02G21G29G05G15G26G04G07
   1466905.59146   1113676.36543  24727575.3054   24727577.1374
        39.7504         19.0004
    248894.13947    205300.75843  24609441.5944   24609442.5984
        43.0004         21.2504
   1334875.51547   1021386.24845  21826644.0004   21826641.1214
        47.7504         35.0004
     -3072.64346      1178.63143  24968416.8674   24968414.0274
        38.5004         21.2504
    617815.29948    478674.53146  21215294.5394   21215292.9344
        50.0004         40.0004
   1064123.10748    809277.02847  20737048.8674   20737046.4454
        51.0004         42.5004
   -167305.99947   -122337.47445  22761400.6484   22761400.5554
        44.5004         33.0004
    128082.76948    110668.53346  20497939.4224   20497937.9144
        50.5004         40.2504
   1104834.476 6                  25400852.914
        36.000
    751134.29847    578267.46543  24791915.4144   24791915.4144
        43.2504         22.2504
 12  3 16 13 27 59.0000000  0 10G10G08G02G21G29G05G15G26G04G07
   1470208.91846   1116250.37743  24728203.7344   24728205.9104
        38.7504         18.5004
    247140.17647    203934.04643  24609107.3284   24609108.3874
        43.2504         21.5004
   1337357.94348   1023320.60345  21827116.7584   21827113.4384
        48.0004         35.2504
     -6162.20746     -1228.81843  24967828.8674   24967825.8874
        38.2504         21.0004
    617590.49648    478499.35846  21215251.8364   21215250.1884
        50.0004         40.0004
   1065457.04348    810316.45847  20737302.6254   20737300.5824
        50.5004         43.0004
   -170796.99747   -125057.72845  22760736.6644   22760736.6724
        44.2504         32.2504
    126041.97448    109078.29446  20497551.3134   20497549.3984
        50.7504         40.5004
   1108150.295 5                  25401483.906
        35.500
    751388.69147    578465.68443  24791963.6414   24791963.3324
        43.2504         22.5004
 12  3 16 13 28  0.0000000  0 10G10G08G02G21G29G05G15G26G04G07
   1473512.00246   1118824.21043  24728832.6414   24728834.0984
        38.2504         18.5004
    245386.45147    202567.50443  24608773.2974   24608775.2154
        43.5004         21.0004
   1339840.53948   1025255.08445  21827589.2114   21827585.7894
        48.0004         35.5004
     -9251.99146     -3636.45543  24967240.8134   24967238.0944
        38.0004         20.5004
    617366.16648    478324.55046  21215209.6564   21215207.3484
        50.0004         40.0004
   1066791.11948    811355.99747  20737556.7274   20737554.3524
        50.5004         42.7504
   -174287.87047   -127777.88045  22760072.8594   22760071.9024
        44.2504         32.2504
    124001.69148    107488.46646  20497162.9844   20497160.9264
        51.0004         40.5004
   1111466.071 5                  25402115.891
        35.750
    751643.48147    578664.22343  24792012.6564   24792011.8984
        43.0004         22.5004
 12  3 16 13 28  1.0000000  0 10G10G08G02G21G29G05G15G26G04G07
   1476814.87046   1121397.87643  24729460.9384   24729462.6174
        38.2504         19.2504
    243632.97247    201201.14243  24608440.2034   24608441.2464
        43.5004         21.0004
   1342323.29048   1027189.69945  21828061.6024   21828058.0044
        48.0004         35.0004
    -12342.03746     -6044.29743  24966653.2504   24966649.9734
        38.5004         20.5004
    617142.30048    478150.10646  21215166.5944   21215164.8594
        50.0004         40.0004
   1068125.29948    812395.61647  20737810.5394   20737808.4884
        50.5004         42.7504
   -177778.67847   -130497.99645  22759408.1174   22759408.0904
        44.2504         32.7504
    121961.91048    105899.03046  20496774.8754   20496773.1094
        50.7504         40.7504
   1114781.697 6                  25402747.070
        36.000
    751898.68147    578863.07643  24792060.5944   24792060.2114
        42.5004         22.5004
 12  3 16 13 28  2.0000000  0 10G10G08G02G21G29G05G15G26G04G07
   1480118.67646   1123972.27943  24730090.7734   24730091.4224
        39.0004         19.2504
    241880.84747    199835.85743  24608106.5394   24608108.0044
        43.0004         21.5004
   1344807.34648   1029125.32145  21828534.1024   21828531.0314
        48.5004         35.5004
    -15431.11846     -8451.38743  24966065.8134   24966062.0944
        39.2504         20.0004
    616920.04648    477976.91946  21215124.4614   21215122.5164
        50.5004         40.0004
   1069460.75348    813436.22947  20738064.8054   20738062.2194
        50.7504         42.7504
   -181268.28347   -133217.16445  22758744.2034   22758743.8954
        44.5004         32.2504
    119923.77048    104310.87046  20496386.9224   20496384.8014
        51.0004         40.7504
   1118098.389 6                  25403378.102
        36.250
    752155.41247    579063.13543  24792109.5164   24792109.1524
        42.5004         23.0004
 12  3 16 13 28  3.0000000  0 10G10G08G02G21G29G05G15G26G04G07
   1483421.61846   1126545.98043  24730719.0944   24730720.0514
        38.7504         19.0004
    240128.26947    198470.22643  24607773.4454   24607774.2894
        42.7504         22.0004
   1347290.84648   1031060.51445  21829006.7344   21829003.3054
        48.5004         35.0004
    -18521.16946    -10859.21643  24965476.5704   24965474.1524
        39.2504         20.0004
    616697.55048    477803.54246  21215082.1174   21215080.1454
        50.5004         39.7504
   1070795.60148    814476.36947  20738318.4614   20738316.2974
        50.7504         42.5004
   -184758.49447   -135936.80645  22758080.5084   22758079.3164
        44.5004         33.0004
    117885.40648    102722.53246  20495999.1094   20495997.4454
        51.0004         40.7504
   1121414.194 5                  25404008.844
        35.500
    752411.84647    579262.94243  24792158.3914   24792157.8594
        42.5004         22.7504
 12  3 16 13 28  4.0000000  0 10G10G08G02G21G29G05G15G26G04G07
   1486724.77746   1129119.86743  24731347.4304   24731348.5704
        39.0004         19.0004
    238376.38847    197105.12043  24607439.5004   24607440.7934
        43.0004         22.2504
   1349775.00548   1032996.22545  21829479.7894   21829476.2274
        48.0004         35.5004
    -21610.97546    -13266.86143  24964889.0704   24964885.5124
        39.7504         20.2504
    616476.04048    477630.94046  21215039.8204   21215037.9024
        50.7504         40.0004
   1072131.07248    815516.99747  20738572.4144   20738570.4024
        51.0004         42.5004
   -188248.14147   -138656.01445  22757416.0084   22757415.6954
        44.5004         33.0004
    115848.06048    101134.98146  20495611.1334   20495610.1094
        51.2504         40.7504
   1124730.353 6                  25404639.930
        36.250
    752669.18847    579463.45743  24792207.3364   24792206.9924
        43.0004         22.7504
 12  3 16 13 28  5.0000000  0 10G10G08G02G21G29G05G15G26G04G07
   1490027.93346   1131693.77243  24731976.2344   24731977.1884
        38.7504         19.0004
    236624.95447    195740.36543  24607105.8444   24607107.6094
        42.5004         22.5004
   1352259.54047   1034932.22445  21829952.0234   21829948.9494
        47.7504         35.0004
    -24700.76846    -15674.48043  24964301.3594   24964297.9264
        38.5004         20.7504
    616255.18948    477458.84946  21214998.0394   21214996.0084
        50.7504         40.2504
   1073466.86948    816557.87947  20738826.9304   20738824.6604
        50.7504         43.0004
   -191737.49747   -141374.98445  22756751.6804   22756751.8594
        45.0004         33.2504
    113811.39648     99547.97546  20495223.7894   20495222.3244
        51.2504         40.7504
   1128046.670 6                  25405270.516
        36.250
    752927.16447    579664.49043  24792256.0554   24792255.8914
        42.5004         22.5004
 12  3 16 13 28  6.0000000  0 10G10G08G02G21G29G05G15G26G04G07
   1493330.95746   1134267.57943  24732605.1414   24732605.7464
        38.0004         19.0004
    234873.87047    194375.88643  24606773.9924   24606774.5514
        42.2504         22.5004
   1354744.35147   1036868.44545  21830424.9144   21830422.1484
        47.2504         35.2504
    -27790.68046    -18082.19343  24963713.7734   24963709.7114
        37.7504         20.5004
    616034.92548    477287.21846  21214956.1024   21214953.6454
        50.7504         39.7504
   1074802.89548    817598.93947  20739080.9774   20739078.6954
        50.5004         42.7504
   -195226.66647   -144093.81045  22756088.1094   22756087.3794
        44.2504         33.2504
    111775.36348     97961.45746  20494836.5234   20494834.8404
        51.5004         40.7504
   1131362.918 6                  25405902.539
        36.250
    753185.63147    579865.88343  24792306.2034   24792305.1134
        42.7504         22.7504
 12  3 16 13 28  7.0000000  0 10G10G08G02G21G29G05G15G26G04G07
   1496634.15146   1136841.46843  24733233.7734   24733234.1884
        37.5004         19.0004
    233123.32347    193011.82543  24606440.6254   24606441.4384
        42.2504         22.5004
   1357229.65547   1038805.04445  21830897.7274   21830894.3874
        47.5004         35.2504
    -30880.53246    -20489.87443  24963124.7814   24963121.9654
        38.0004         20.2504
    615815.45248    477116.20046  21214914.1254   21214912.0124
        50.5004         40.0004
   1076139.35648    818640.34047  20739335.4384   20739333.2624
        50.5004         42.7504
   -198715.40947   -146812.31245  22755424.0164   22755423.5704
        44.5004         32.5004
    109740.14048     96375.57646  20494449.0864   20494447.2664
        51.2504         40.5004
   1134679.395 6                  25406532.656
        36.250
    753444.79147    580067.83444  24792354.8524   24792354.6684
        43.2504         24.0004
 12  3 16 13 28  8.0000000  0 10G10G08G02G21G29G05G15G26G04G07
   1499937.36146   1139415.40243  24733862.5084   24733863.0314
        38.0004         19.0004
    231373.27547    191648.14543  24606107.3914   24606108.1524
        42.2504         22.5004
   1359715.35447   1040741.95045  21831370.8364   21831367.7814
        47.7504         35.0004
    -33970.32646    -22897.50443  24962536.9694   24962533.8674
        38.0004         20.0004
    615596.72448    476945.75846  21214872.3364   21214870.6334
        50.5004         40.0004
   1077476.19848    819682.02747  20739590.0314   20739587.5594
        50.7504         42.5004
   -202203.84447   -149530.57145  22754760.8674   22754760.0044
        44.7504         32.7504
    107705.69348     94790.29446  20494061.6884   20494060.4184
        51.5004         40.5004
   1137996.000 5                  25407162.938
        34.250
    753704.65747    580270.32643  24792404.5864   24792403.5704
        43.2504         23.7504
 12  3 16 13 28  9.0000000  0 10G10G08G02G21G29G05G15G26G04G07
   1503240.05946   1141988.91543  24734490.0554   24734491.1914
        38.2504         19.0004
    229623.14047    190284.41243  24605774.3984   24605775.6214
        42.2504         22.7504
   1362200.93048   1042678.75645  21831843.9774   21831840.9884
        48.0004         35.0004
    -37060.62546    -25305.52643  24961948.4534   24961945.7034
        37.0004         19.5004
    615378.12948    476775.42346  21214831.0234   21214829.2424
        50.5004         40.0004
   1078812.85748    820723.58347  20739844.2504   20739841.7934
        50.5004         42.7504
   -205692.47947   -152248.99245  22754096.3204   22754095.6454
        45.0004         33.0004
    105671.42248     93205.14746  20493674.6334   20493673.2504
        51.5004         40.5004
   1141312.100 5                  25407794.398
        35.500
    753964.58547    580472.86243  24792453.9844   24792453.4264
        43.5004         23.7504
 12  3 16 13 28 10.0000000  0 10G10G08G02G21G29G05G15G26G04G07
   1506543.15446   1144562.74543  24735118.7114   24735119.9654
        38.5004         18.5004
    227873.87547    188921.33943  24605441.8594   24605442.7664
        42.0004         22.5004
   1364687.28748   1044616.17245  21832316.7734   21832313.9024
        48.2504         34.7504
    -40150.54246    -27713.25543  24961360.9614   24961358.1254
        37.2504         19.5004
    615160.64548    476605.96446  21214789.6334   21214787.5824
        50.0004         40.0004
   1080150.26448    821765.72247  20740098.6174   20740096.3204
        50.7504         43.0004
   -209180.40847   -154966.85345  22753432.8834   22753431.8984
        45.2504         33.0004
    103638.28548     91620.89146  20493287.9144   20493286.3484
        51.2504         40.2504
   1144628.773 6                  25408425.359
        36.000
    754225.56247    580676.22343  24792503.3984   24792502.8984
        43.5004         22.5004
 12  3 16 13 28 11.0000000  0 10G10G08G02G21G29G05G15G26G04G07
   1509846.00446   1147136.36643  24735747.6094   24735748.7114
        38.5004         18.5004
    226124.82747    187558.46043  24605108.6564   24605109.7384
        42.0004         22.5004
   1367173.81348   1046553.72745  21832790.2344   21832787.4774
        48.5004         35.0004
    -43240.74746    -30121.23643  24960773.0554   24960770.3284
        37.5004         19.5004
    614943.64748    476436.87346  21214747.9614   21214746.2074
        50.2504         39.7504
   1081487.78648    822807.94047  20740353.2894   20740351.3324
        50.7504         43.0004
   -212668.26147   -157684.65945  22752768.9384   22752768.5274
        45.2504         33.0004
    101605.65148     90037.01946  20492901.0554   20492899.5234
        51.7504         40.2504
   1147945.299 6                  25409056.664
        36.500
    754486.94747    580879.90243  24792553.1414   24792552.6884
        43.2504         23.0004
 12  3 16 13 28 12.0000000  0 10G10G08G02G21G29G05G15G26G04G07
   1513149.19146   1149710.28243  24736375.6564   24736377.3324
        38.0004         18.2504
    224376.51347    186196.13743  24604776.0314   24604777.1644
        42.0004         22.2504
   1369660.97248   1048491.76445  21833263.4844   21833260.9654
        48.2504         35.5004
    -46330.67846    -32528.96943  24960185.1644   24960182.2304
        37.7504         19.5004
    614727.61148    476268.52746  21214707.0394   21214705.3874
        50.2504         39.7504
   1082825.91848    823850.64547  20740607.5234   20740605.5514
        50.7504         43.2504
   -216155.55247   -160402.02845  22752105.5704   22752104.7504
        45.5004         33.0004
     99574.00548     88453.91146  20492514.4064   20492513.1564
        51.5004         40.5004
   1151262.208 6                  25409688.063
        36.750
    754749.24347    581084.29043  24792602.7664   24792602.4964
        43.5004         22.2504
 12  3 16 13 28 13.0000000  0 10G10G08G02G21G29G05G15G26G04G07
   1516452.17546   1152284.05043  24737004.9454   24737005.9844
        38.7504         18.2504
    222628.49346    184834.04143  24604443.7424   24604444.6914
        41.7504         22.5004
   1372148.38147   1050430.00845  21833736.9304   21833734.0474
        47.7504         35.0004
    -49420.79946    -34936.85743  24959597.6024   24959594.1054
        38.5004         19.5004
    614512.09048    476100.59246  21214666.1414   21214664.3634
        50.2504         39.7504
   1084164.22648    824893.48647  20740862.7344   20740860.2344
        50.5004         42.7504
   -219642.68547   -163119.26945  22751441.8594   22751440.9184
        45.5004         33.0004
     97542.93748     86871.26846  20492127.7734   20492126.1684
        51.0004         40.2504
   1154579.005 6                  25410319.977
        36.750
    755011.93847    581288.98043  24792653.0164   24792653.2304
        43.5004         22.5004
 12  3 16 13 28 14.0000000  0 10G10G08G02G21G29G05G15G26G04G07
   1519755.03646   1154857.71443  24737633.2814   24737634.0554
        38.0004         18.2504
    220880.74447    183472.17843  24604110.8204   24604112.3014
        42.0004         22.7504
   1374635.99647   1052368.41445  21834210.0164   21834207.4304
        47.5004         35.5004
    -52511.06046    -37344.85043  24959008.8834   24959006.0434
        38.2504         19.2504
    614297.11148    475933.07646  21214625.3444   21214623.0204
        50.0004         39.7504
   1085502.72348    825936.46747  20741117.5234   20741115.0704
        50.7504         42.5004
   -223129.66947   -165836.39845  22750778.2894   22750777.4654
        45.5004         32.2504
     95512.42348     85289.04546  20491741.2814   20491740.0434
        51.0004         40.5004
   1157895.815 6                  25410951.102
        37.500
    755275.13047    581494.06243  24792703.3134   24792703.2504
        43.5004         22.5004
 12  3 16 13 28 15.0000000  0 10G10G08G02G21G29G05G15G26G04G07
   1523058.06146   1157431.50643  24738261.3914   24738262.8094
        37.7504         18.2504
    219133.62847    182110.79443  24603778.5234   24603779.5204
        43.2504         22.5004
   1377124.15847   1054307.24145  21834683.6484   21834680.8094
        47.5004         35.0004
    -55601.17646    -39752.71443  24958420.4774   24958417.7854
        38.5004         19.2504
    614082.99148    475766.22346  21214584.6254   21214582.4534
        50.2504         39.7504
   1086841.72948    826979.85347  20741371.9224   20741369.9964
        50.5004         42.7504
   -226616.19547   -168553.17345  22750114.6254   22750114.0354
        45.2504         31.5004
     93482.78348     83707.51246  20491355.2894   20491353.8714
        51.0004         40.5004
   1161212.848 6                  25411581.719
        36.500
    755539.12447    581699.77543  24792752.8444   24792753.2114
        43.2504         22.7504
 12  3 16 13 28 16.0000000  0 10G10G08G02G21G29G05G15G26G04G07
   1526360.84646   1160005.10443  24738889.8834   24738891.0084
        38.0004         18.5004
    217386.73747    180749.58743  24603445.8054   24603446.8244
        43.0004         22.5004
   1379612.48248   1056246.19545  21835157.7664   21835154.5634
        48.0004         35.2504
    -58691.54346    -42160.79643  24957833.0314   24957830.1764
        38.7504         19.7504
    613869.31948    475599.73146  21214544.0314   21214541.9844
        50.5004         40.0004
   1088180.83048    828023.30647  20741626.7424   20741624.3754
        50.5004         42.7504
   -230102.66447   -171269.89945  22749451.1334   22749450.7344
        45.5004         31.7504
     91453.63448     82126.36046  20490969.1024   20490967.9494
        50.7504         40.5004
   1164529.719 6                  25412213.852
        37.250
    755803.46347    581905.74443  24792803.4614   24792803.4654
        42.7504         23.7504
 12  3 16 13 28 17.0000000  0 10G10G08G02G21G29G05G15G26G04G07
   1529663.53646   1162578.61943  24739517.7734   24739520.1054
        37.7504         18.2504
    215640.19547    179388.64843  24603113.5784   24603114.4144
        43.0004         22.2504
   1382101.12548   1058185.38945  21835630.7664   21835628.0984
        48.0004         35.5004
    -61781.96046    -44568.89943  24957244.7274   24957242.3954
        38.5004         19.5004
    613656.27048    475433.71846  21214503.1804   21214501.4774
        50.5004         39.7504
   1089520.20348    829066.97347  20741881.9454   20741879.7034
        50.5004         42.7504
   -233588.88947   -173986.43145  22748788.2344   22748787.2074
        45.5004         32.2504
     89425.12448     80545.69546  20490583.1644   20490581.8284
        50.5004         40.2504
   1167846.624 6                  25412844.414
        38.000
    756068.39547    582112.19343  24792853.9064   24792854.0784
        42.2504         22.7504
 12  3 16 13 28 18.0000000  0 10G10G08G02G21G29G05G15G26G04G07
   1532966.75846   1165152.53943  24740146.8674   24740148.3834
        38.0004         18.2504
    213894.56147    178028.40443  24602781.8364   24602782.4534
        43.5004         22.0004
   1384590.57348   1060125.21945  21836104.4614   21836101.5904
        48.0004         35.5004
    -64871.97746    -46976.71343  24956656.6484   24956653.9804
        38.5004         19.2504
    613444.35448    475268.59146  21214462.7974   21214461.0164
        51.0004         39.7504
   1090860.36248    830111.25247  20742136.9614   20742134.7734
        51.0004         42.7504
   -237074.37547   -176702.39545  22748124.8204   22748124.0274
        45.2504         32.2504
     87397.77548     78965.95046  20490197.3204   20490195.3874
        50.7504         40.2504
   1171164.068 6                  25413474.719
        37.750
    756334.38547    582319.46043  24792904.5704   24792904.5434
        42.5004         22.7504
 12  3 16 13 28 19.0000000  0 10G10G08G02G21G29G05G15G26G04G07
   1536269.44446   1167726.04843  24740775.0704   24740777.1914
        38.2504         18.2504
    212148.94247    176668.18143  24602449.7274   24602450.4494
        43.5004         22.5004
   1387079.96248   1062064.99745  21836578.3754   21836575.3874
        48.2504         34.7504
    -67962.42446    -49384.88543  24956067.9774   24956065.7504
        37.5004         19.2504
    613232.65348    475103.62646  21214422.7424   21214420.5394
        51.0004         39.7504
   1092200.40348    831155.43247  20742391.9144   20742390.0664
        50.7504         42.7504
   -240560.01447   -179418.47745  22747461.6174   22747460.7344
        45.7504         32.2504
     85370.69848     77386.40346  20489811.3054   20489809.9574
        50.2504         40.5004
   1174481.129 5                  25414104.781
        35.750
    756600.54447    582526.83943  24792954.9844   24792955.2464
        42.0004         22.7504
 12  3 16 13 28 20.0000000  0 10G10G08G02G21G29G05G15G26G04G07
   1539572.02146   1170299.50343  24741404.0704   24741405.5164
        38.2504         19.0004
    210403.61247    175308.18343  24602117.3204   24602118.1604
        43.7504         22.2504
   1389569.57348   1064004.94445  21837052.2974   21837049.3594
        48.0004         34.7504
    -71053.05046    -51793.17243  24955479.6174   24955477.6994
        37.2504         19.5004
    613021.50348    474939.09346  21214382.4614   21214380.7624
        50.7504         39.5004
   1093540.62548    832199.76647  20742646.9694   20742644.5594
        51.0004         42.7504
   -244045.50047   -182134.43245  22746798.3984   22746797.4964
        45.7504         32.2504
     83344.18948     75807.30746  20489425.8914   20489424.6214
        50.2504         40.2504
   1177798.155 5                  25414737.938
        35.750
    756867.15546    582734.59843  24793005.9774   24793005.8014
        41.5004         22.5004
 12  3 16 13 28 21.0000000  0 10G10G08G02G21G29G05G15G26G04G07
   1542874.94746   1172873.23943  24742033.1174   24742034.0164
        38.0004         19.2504
    208659.06447    173948.79743  24601785.3914   24601786.2734
        43.5004         22.7504
   1392059.89748   1065945.45745  21837525.9844   21837523.3594
        48.5004         35.0004
    -74143.36046    -54201.17943  24954892.0234   24954889.8954
        37.0004         19.5004
    612811.39748    474775.37546  21214342.2974   21214340.9924
        50.7504         39.7504
   1094881.54248    833244.63847  20742901.7894   20742899.9304
        51.0004         42.7504
   -247530.35647   -184849.91245  22746135.4304   22746134.5864
        46.0004         33.0004
     81318.77048     74229.05846  20489040.7194   20489039.1254
        50.5004         40.5004
   1181115.612 5                  25415368.555
        35.750
    757134.74046    582943.10743  24793056.9454   24793056.6024
        40.7504         22.5004
 12  3 16 13 28 22.0000000  0 10G10G08G02G21G29G05G15G26G04G07
   1546177.72646   1175446.83743  24742661.2734   24742662.8014
        37.5004         19.0004
    206914.83247    172589.64943  24601452.9774   24601453.6054
        43.2504         22.5004
   1394550.47448   1067886.16145  21838000.1484   21837997.0274
        48.7504         35.0004
    -77233.77246    -56609.27643  24954303.3524   24954301.8284
        36.2504         19.5004
    612601.82048    474612.07046  21214302.4694   21214300.7974
        50.5004         39.7504
   1096222.64948    834289.65547  20743157.5474   20743154.9654
        51.0004         42.5004
   -251015.03047   -187565.23645  22745471.7584   22745471.1094
        45.5004         33.0004
     79293.89248     72651.23446  20488655.2814   20488653.8324
        50.5004         40.5004
   1184433.036 5                  25416000.742
        35.750
    757402.81646    583152.00643  24793107.9454   24793107.3834
        41.2504         22.7504
 12  3 16 13 28 23.0000000  0 10G10G08G02G21G29G05G15G26G04G07
   1549480.54546   1178020.44643  24743289.6484   24743290.6844
        37.5004         19.0004
    205171.08747    171230.89043  24601121.8444   24601122.2344
        43.0004         22.5004
   1397041.48348   1069827.21145  21838474.0944   21838471.2194
        48.7504         35.5004
    -80324.17746    -59017.38643  24953716.1724   24953713.4884
        36.7504         19.5004
    612393.00548    474449.35546  21214262.5314   21214260.8594
        50.2504         40.0004
   1097564.13248    835334.96347  20743412.8524   20743410.2154
        51.0004         42.5004
   -254499.38047   -190280.31545  22744809.0944   22744808.1994
        45.7504         32.7504
     77269.80448     71074.01846  20488270.1804   20488269.0004
        50.2504         40.5004
   1187750.659 6                  25416631.547
        36.000
    757671.54146    583361.40043  24793159.0474   24793158.6804
        41.0004         22.7504
 12  3 16 13 28 24.0000000  0 10G10G08G02G21G29G05G15G26G04G07
   1552783.20546   1180593.92743  24743917.6724   24743919.7344
        37.5004         18.2504
    203427.61847    169872.35543  24600790.2584   24600790.0204
        42.7504         22.7504
   1399532.67048   1071768.39445  21838948.0864   21838945.0084
        48.7504         35.5004
    -83414.78646    -61425.64443  24953127.4694   24953125.3094
        37.0004         19.5004
    612184.67348    474287.01846  21214223.0864   21214221.3524
        50.5004         40.0004
   1098905.76848    836380.38847  20743667.8054   20743665.2734
        51.2504         42.7504
   -257983.60047   -192995.28845  22744146.1414   22744145.1294
        46.0004         32.5004
     75246.23748     69497.21746  20487884.9304   20487883.5634
        50.7504         40.5004
   1191068.116 6                  25417263.039
        36.000
    757940.70846    583571.13843  24793210.5864   24793209.3484
        41.7504         22.0004
 12  3 16 13 28 25.0000000  0 10G10G08G02G21G29G05G15G26G04G07
   1556085.95146   1183167.47243  24744547.0474   24744547.8444
        38.0004         18.2504
    201684.70347    168514.23143  24600459.1254   24600459.3134
        43.0004         22.5004
   1402024.35848   1073709.96745  21839422.2734   21839419.3984
        48.0004         35.0004
    -86505.24446    -63833.80343  24952539.7344   24952537.6094
        36.7504         19.5004
    611977.13348    474125.29746  21214183.8834   21214181.7774
        50.5004         40.0004
   1100247.87748    837426.19547  20743923.5314   20743921.0474
        51.2504         42.7504
   -261467.41747   -195709.94645  22743482.7344   22743482.1174
        45.5004         32.0004
     73223.49448     67921.05146  20487500.2034   20487498.7194
        51.0004         40.5004
   1194385.765 6                  25417894.375
        36.250
    758210.61046    583781.44843  24793261.5474   24793261.0864
        41.5004         22.5004
 12  3 16 13 28 26.0000000  0 10G10G08G02G21G29G05G15G26G04G07
   1559388.60346   1185740.92442  24745175.4774   24745176.3794
        38.0004         17.7504
    199942.07547    167156.32843  24600126.8674   24600127.1254
        43.5004         22.7504
   1404516.27248   1075651.71245  21839896.3134   21839893.3834
        48.0004         35.2504
    -89595.92346    -66242.12843  24951951.9774   24951949.5354
        36.5004         19.5004
    611770.14548    473964.00346  21214144.3284   21214142.7774
        50.7504         40.0004
   1101590.13248    838472.10047  20744178.5704   20744176.5634
        51.0004         42.5004
   -264951.07747   -198424.47945  22742820.0704   22742819.4384
        45.7504         32.2504
     71201.33448     66345.34246  20487115.2274   20487113.9534
        50.5004         40.5004
   1197703.348 6                  25418526.992
        37.000
    758480.96646    583992.12743  24793313.3914   24793312.5434
        41.7504         22.7504
 12  3 16 13 28 27.0000000  0 10G10G08G02G21G29G05G15G26G04G07
   1562691.25046   1188314.48043  24745803.3054   24745804.7034
        37.5004         18.2504
    198200.00547    165798.87643  24599795.7274   24599795.3954
        43.7504         22.7504
   1407008.67247   1077593.84245  21840370.6804   21840367.8794
        47.7504         35.0004
    -92686.48046    -68650.35743  24951363.5944   24951360.9534
        36.2504         19.5004
    611563.93548    473803.31746  21214105.4774   21214102.7894
        51.0004         40.0004
   1102932.82548    839518.35947  20744434.0784   20744431.7814
        51.0004         42.7504
   -268434.36147   -201138.73245  22742157.3054   22742156.5274
        45.5004         32.2504
     69179.97248     64770.25346  20486730.7274   20486729.3094
        50.5004         40.0004
   1201021.166 6                  25419157.641
        36.250
    758752.03347    584203.34743  24793364.2504   24793364.3674
        42.0004         22.7504
 12  3 16 13 28 28.0000000  0 10G10G08G02G21G29G05G15G26G04G07
   1565993.60546   1190887.74343  24746432.3594   24746433.2114
        37.7504         18.5004
    196458.01247    164441.47043  24599463.5234   24599463.7344
        44.0004         22.5004
   1409501.08248   1079535.97545  21840845.1564   21840842.1374
        48.0004         35.5004
    -95777.41146    -71058.87743  24950775.5084   24950772.7934
        37.0004         19.5004
    611358.06348    473642.89546  21214066.1804   21214064.2934
        51.0004         40.0004
   1104275.51948    840564.61347  20744689.5944   20744687.1914
        51.0004         42.7504
   -271917.67447   -203853.00145  22741494.1954   22741493.5864
        45.0004         31.5004
     67158.98248     63195.45746  20486346.1804   20486344.5234
        50.5004         40.2504
   1204338.665 6                  25419787.758
        36.750
    759023.36447    584414.74543  24793416.3524   24793415.7734
        42.0004         22.7504
 12  3 16 13 28 29.0000000  0 10G10G08G02G21G29G05G15G26G04G07
   1569296.55846   1193461.45043  24747060.6564   24747061.7424
        37.0004         18.5004
    194717.05447    163084.87343  24599132.2114   24599132.5314
        42.7504         22.5004
   1411994.45248   1081478.85945  21841319.3754   21841316.4924
        48.0004         34.7504
    -98867.77146    -73466.96243  24950187.5004   24950184.8794
        37.5004         19.5004
    611153.43748    473483.44646  21214027.4774   21214025.3094
        51.0004         40.2504
   1105619.10448    841611.55947  20744944.9924   20744943.2034
        50.7504         42.7504
   -275400.14447   -206566.61045  22740831.7734   22740830.9414
        45.5004         32.0004
     65139.28648     61621.66446  20485961.6954   20485960.1054
        50.2504         40.5004
   1207656.887 6                  25420419.945
        36.250
    759295.89946    584627.10543  24793467.5084   24793467.6684
        41.7504         22.5004
 12  3 16 13 28 30.0000000  0 10G10G08G02G21G29G05G15G26G04G07
   1572598.87346   1196034.69343  24747688.0164   24747690.1724
        37.0004         18.2504
    192975.91247    161728.14643  24598801.2034   24598801.5784
        42.7504         23.0004
   1414487.58348   1083421.55845  21841793.8444   21841790.7154
        48.0004         34.7504
   -101958.80446    -75875.54943  24949599.0394   24949596.0944
        38.0004         19.7504
    610948.88448    473324.05546  21213987.9774   21213986.3244
        50.5004         40.2504
   1106962.39648    842658.27847  20745200.9064   20745198.7814
        50.7504         43.0004
   -278882.92347   -209280.46245  22740168.7504   22740168.1524
        45.5004         32.5004
     63119.66348     60047.93746  20485577.1884   20485575.5904
        50.5004         40.2504
   1210974.530 5                  25421051.047
        35.750
    759568.42046    584839.46043  24793519.1414   24793519.1884
        41.5004         22.5004
 12  3 16 13 28 31.0000000  0 10G10G08G02G21G29G05G15G26G04G07
   1575901.47246   1198608.14843  24748317.4224   24748318.3164
        37.0004         18.2504
    191235.52247    160371.99543  24598470.0164   24598470.4224
        43.2504         22.7504
   1416981.38148   1085364.77145  21842268.9454   21842265.8204
        48.2504         35.5004
   -105049.50746    -78283.88243  24949010.8284   24949008.3444
        38.2504         19.5004
    610745.32648    473165.44846  21213949.6334   21213947.6134
        50.5004         40.5004
   1108306.33848    843705.51047  20745456.2584   20745454.4144
        51.0004         42.7504
   -282365.07947   -211993.82345  22739506.4454   22739505.1724
        45.7504         31.7504
     61101.10048     58475.02946  20485193.2344   20485191.9064
        50.2504         40.5004
   1214292.621 5                  25421682.461
        35.500
    759841.88646    585052.54443  24793571.3914   24793571.3834
        41.5004         22.7504
 12  3 16 13 28 32.0000000  0 10G10G08G02G21G29G05G15G26G04G07
   1579204.08946   1201181.63343  24748945.5234   24748947.3714
        37.5004         18.2504
    189495.60447    159016.21443  24598138.5314   24598139.1804
        43.0004         22.7504
   1419475.57348   1087308.29845  21842743.0704   21842740.1914
        48.7504         35.2504
   -108140.24146    -80692.25443  24948422.8754   24948420.2664
        37.7504         19.5004
    610542.45248    473007.36646  21213910.7424   21213909.0434
        50.7504         40.0004
   1109650.63948    844753.01447  20745712.3134   20745710.5944
        51.0004         42.7504
   -285846.95447   -214706.97245  22738844.0784   22738843.1134
        45.5004         31.7504
     59083.25748     56902.68846  20484809.3524   20484807.9414
        50.5004         40.5004
   1217610.774 6                  25422314.305
        36.000
    760115.97646    585266.13843  24793624.2034   24793623.4924
        41.2504         22.0004
 12  3 16 13 28 33.0000000  0 10G10G08G02G21G29G05G15G26G04G07
   1582506.61646   1203755.02443  24749573.8984   24749575.0394
        38.0004         18.2504
    187756.03647    157660.70243  24597807.0084   24597808.1844
        43.0004         22.7504
   1421970.06548   1089252.06445  21843217.5634   21843214.8094
        49.0004         35.2504
   -111231.03946    -83100.66843  24947833.9064   24947832.2074
        37.0004         19.2504
    610340.19348    472849.76446  21213872.4144   21213870.3794
        50.2504         40.0004
   1110995.17348    845800.70247  20745968.5004   20745966.0704
        51.0004         42.7504
   -289328.58047   -217419.92545  22738181.2504   22738180.4924
        45.5004         31.7504
     57066.02948     55330.82546  20484425.3284   20484424.1804
        49.7504         40.2504
   1220928.922 5                  25422946.602
        35.250
    760390.62346    585480.14543  24793676.2424   24793675.8594
        40.7504         22.0004
 12  3 16 13 28 34.0000000  0 10G10G08G02G21G29G05G15G26G04G07
   1585808.99646   1206328.28642  24750202.4924   24750203.5044
        38.0004         17.7504
    186016.72847    156305.40943  24597476.1174   24597477.1374
        42.2504         22.5004
   1424464.75648   1091195.97545  21843692.2664   21843689.4774
        48.7504         34.7504
   -114322.01946    -85509.21843  24947246.0394   24947244.0044
        37.0004         19.0004
    610138.44348    472692.55746  21213833.5234   21213831.7034
        50.7504         39.7504
   1112339.86948    846848.51547  20746224.3204   20746222.2424
        51.2504         43.0004
   -292810.11147   -220132.80845  22737518.4694   22737517.8914
        45.7504         32.5004
     55049.36548     53759.40346  20484041.5314   20484039.9884
        50.2504         40.5004
   1224246.966 5                  25423577.266
        34.250
    760665.67846    585694.46243  24793728.4304   24793728.2704
        41.2504         22.5004
 12  3 16 13 28 35.0000000  0 10G10G08G02G21G29G05G15G26G04G07
   1589111.61946   1208901.75842  24750830.7344   24750832.1724
        36.0004         17.2504
    184278.15547    154950.69743  24597145.1804   24597146.2894
        42.7504         22.2504
   1426960.09448   1093140.39545  21844166.9454   21844164.3794
        48.2504         34.7504
   -117412.76446    -87917.58743  24946657.8284   24946655.7074
        37.2504         19.0004
    609937.65548    472536.09146  21213795.4384   21213793.5204
        50.5004         39.7504
   1113685.17248    847896.80347  20746480.2584   20746478.1844
        51.5004         42.7504
   -296291.07547   -222845.23945  22736856.4384   22736855.4304
        45.2504         32.5004
     53033.67148     52188.73046  20483658.3364   20483656.1604
        50.5004         40.7504
   1227565.460 5                  25424208.203
        35.000
    760941.64846    585909.50043  24793781.2114   24793780.9844
        41.2504         22.5004
 12  3 16 13 28 36.0000000  0 10G10G08G02G21G29G05G15G26G04G07
   1592414.05346   1211475.07942  24751459.4774   24751460.5744
        36.5004         17.2504
    182539.79647    153596.15143  24596814.3674   24596815.0394
        42.7504         22.2504
   1429455.57948   1095084.92445  21844642.3524   21844639.2974
        48.5004         34.7504
   -120503.74046    -90326.12543  24946069.0634   24946067.5354
        37.5004         19.2504
    609737.32748    472379.98746  21213757.0234   21213755.2974
        50.0004         39.7504
   1115030.58248    848945.17547  20746736.2894   20746734.0314
        51.5004         42.7504
   -299771.93047   -225557.59445  22736193.5554   22736193.0124
        45.7504         32.0004
     51018.47248     50618.43846  20483274.8134   20483273.0274
        50.7504         40.7504
   1230883.722 5                  25424839.953
        35.000
    761218.00047    586124.82943  24793833.5164   24793833.2074
        42.0004         22.5004
 12  3 16 13 28 37.0000000  0 10G10G08G02G21G29G05G15G26G04G07
   1595716.53146   1214048.46142  24752087.8364   24752089.2424
        36.5004         17.2504
    180801.97747    152242.00943  24596484.2034   24596484.5434
        43.0004         22.5004
   1431951.54548   1097029.82545  21845117.3054   21845114.3834
        48.5004         34.5004
   -123594.62946    -92734.60643  24945481.3524   24945479.3794
        38.0004         19.2504
    609537.76648    472224.48146  21213719.4144   21213717.9414
        50.0004         40.0004
   1116376.42748    849993.87747  20746992.2974   20746990.0274
        51.0004         42.7504
   -303252.43347   -228269.66945  22735531.3594   22735530.7894
        46.0004         32.0004
     49004.09048     49048.79246  20482891.5394   20482890.0474
        50.7504         40.5004
   1234202.278 5                  25425471.125
        34.500
    761495.04046    586340.69943  24793886.6334   24793886.3404
        41.5004         22.5004
 12  3 16 13 28 38.0000000  0 10G10G08G02G21G29G05G15G26G04G07
   1599019.16346   1216621.94042  24752716.3364   24752717.5704
        37.0004         17.2504
    179064.74047    150888.30443  24596153.6414   24596154.2034
        43.0004         22.2504
   1434448.00848   1098975.11645  21845592.4384   21845589.0354
        48.7504         35.2504
   -126685.37846    -95142.98843  24944893.8444   24944891.4844
        38.5004         19.2504
    609339.06048    472069.64746  21213681.5394   21213679.9654
        50.0004         40.0004
   1117722.71848    851042.94147  20747248.6334   20747246.4064
        50.7504         42.5004
   -306732.49047   -230981.40245  22734869.3054   22734868.2194
        46.0004         32.5004
     46990.56848     47479.81746  20482508.3364   20482506.8914
        50.5004         40.2504
   1237521.011 5                  25426103.031
        35.000
    761772.85546    586557.18543  24793939.2664   24793938.7894
        41.5004         23.0004
 12  3 16 13 28 39.0000000  0 10G10G08G02G21G29G05G15G26G04G07
   1602321.29746   1219195.00942  24753344.5634   24753345.9064
        37.2504         17.2504
    177327.48847    149534.60643  24595823.0634   24595823.6564
        42.7504         22.5004
   1436944.39348   1100920.35745  21846067.3834   21846064.0784
        48.7504         35.2504
   -129776.65346    -97551.78643  24944305.1254   24944303.2704
        39.0004         19.5004
    609140.51148    471914.93846  21213643.6174   21213642.1914
        50.2504         39.7504
   1119068.88048    852091.90147  20747504.7664   20747502.3404
        51.0004         42.5004
   -310212.72747   -233693.27145  22734207.0704   22734206.1604
        46.0004         32.0004
     44977.27748     45911.01846  20482125.4534   20482123.6724
        50.7504         40.5004
   1240839.216 5                  25426733.484
        34.000
    762050.81746    586773.77743  24793992.4144   24793991.8594
        41.7504         22.7504
 12  3 16 13 28 40.0000000  0 10G10G08G02G21G29G05G15G26G04G07
   1605623.54146   1221768.16642  24753973.3444   24753974.3834
        36.7504         17.2504
    175590.76247    148181.31443  24595492.5634   24595493.2154
        43.0004         22.5004
   1439441.23048   1102865.94045  21846542.5394   21846539.4884
        49.0004         35.0004
   -132867.83246    -99960.50043  24943717.5394   24943714.5004
        38.2504         19.5004
    608942.79348    471760.86846  21213606.5784   21213604.0474
        50.7504         40.0004
   1120415.47948    853141.19947  20747760.7344   20747758.8204
        50.5004         42.5004
   -313692.54347   -236404.81745  22733545.0164   22733543.9304
        46.2504         32.0004
     42964.81248     44342.85846  20481742.2814   20481740.5044
        50.5004         40.5004
   1244157.788 5                  25427365.906
        34.250
    762329.49447    586990.93843  24794045.1254   24794045.1604
        42.0004         22.5004
 12  3 16 13 28 41.0000000  0 10G10G08G02G21G29G05G15G26G04G07
   1608925.85646   1224341.37742  24754601.4694   24754602.4454
        37.0004         16.7504
    173854.57647    146828.43543  24595162.2814   24595162.8324
        42.5004         22.7504
   1441938.52548   1104811.88145  21847017.9144   21847014.4224
        49.0004         35.2504
   -135958.94746   -102369.18043  24943128.7274   24943126.5044
        39.0004         19.5004
    608745.79548    471607.36446  21213568.7194   21213566.7154
        50.7504         40.2504
   1121762.46948    854190.80047  20748017.1094   20748014.9384
        50.2504         42.5004
   -317172.00147   -239116.07945  22732882.5634   22732881.6054
        46.2504         32.2504
     40953.12348     42775.31146  20481359.1414   20481357.7814
        50.7504         40.2504
   1247476.505 5                  25427998.453
        34.750
    762608.84847    587208.60643  24794098.3054   24794097.9304
        42.0004         22.0004
 12  3 16 13 28 42.0000000  0 10G10G08G02G21G29G05G15G26G04G07
   1612228.21146   1226914.61842  24755229.8204   24755231.2544
        37.7504         17.7504
    172118.85647    145475.91743  24594831.8834   24594832.6604
        42.7504         23.0004
   1444436.21948   1106758.13045  21847492.9144   21847489.6484
        49.2504         35.5004
   -139050.00746   -104777.80343  24942540.2194   24942538.4104
        39.0004         20.0004
    608549.54448    471454.44446  21213531.4304   21213529.0394
        51.0004         40.0004
   1123109.82448    855240.68147  20748273.7034   20748271.8954
        50.5004         42.5004
   -320651.14747   -241827.09745  22732220.5554   22732219.7234
        46.0004         32.7504
     38942.16848     41208.33246  20480976.5394   20480975.7584
        51.2504         40.5004
   1250795.282 5                  25428629.727
        33.250
    762888.86246    587426.79143  24794151.5944   24794151.2854
        41.7504         22.7504
 12  3 16 13 28 43.0000000  0 10G10G08G02G21G29G05G15G26G04G07
   1615530.47946   1229487.83043  24755858.9384   24755859.5234
        38.0004         18.2504
    170383.52247    144123.70743  24594501.4774   24594502.1294
        42.2504         22.7504
   1446934.22648   1108704.62745  21847968.3754   21847965.4224
        49.5004         35.5004
   -142141.20846   -107186.51343  24941952.4144   24941950.3674
        38.7504         20.0004
    608353.90248    471301.99246  21213494.2424   21213492.4454
        51.0004         40.0004
   1124457.44748    856290.78447  20748529.7894   20748527.9344
        50.7504         42.5004
   -324130.05247   -244537.93645  22731558.4614   22731558.0084
        46.0004         33.0004
     36931.87748     39641.86446  20480594.1644   20480593.0434
        50.7504         40.5004
   1254114.031 5                  25429261.648
        34.000
    763169.39947    587645.38243  24794205.3754   24794205.0434
        42.0004         22.7504
 12  3 16 13 28 44.0000000  0 10G10G08G02G21G29G05G15G26G04G07
   1618832.75446   1232061.06943  24756486.5864   24756488.1174
        38.2504         18.5004
    168648.66447    142771.87543  24594171.1724   24594171.9064
        42.5004         22.7504
   1449432.63448   1110651.43945  21848443.6414   21848440.5314
        49.2504         35.5004
   -145232.36346   -109595.19343  24941363.7114   24941361.8284
        39.0004         19.7504
    608158.94648    471150.07846  21213456.8054   21213455.5824
        50.7504         40.0004
   1125805.41448    857341.14347  20748786.7034   20748784.6604
        50.7504         42.5004
   -327608.63647   -247248.51045  22730896.2584   22730895.3284
        45.5004         32.5004
     34922.33148     38075.98946  20480211.4774   20480209.8954
        50.7504         40.2504
   1257432.962 5                  25429892.859
        34.250
    763450.59647    587864.50743  24794258.7034   24794258.2114
        42.0004         22.7504
 12  3 16 13 28 45.0000000  0 10G10G08G02G21G29G05G15G26G04G07
   1622134.97946   1234634.25843  24757115.7274   24757116.0234
        37.5004         18.5004
    166914.17747    141420.33843  24593841.1954   24593841.7704
        43.0004         22.7504
   1451931.35048   1112598.48445  21848919.2814   21848915.6684
        48.7504         35.5004
   -148323.62746   -112003.96143  24940776.6174   24940773.8554
        39.2504         19.5004
    607964.61548    470998.65446  21213420.3054   21213418.4304
        50.5004         40.0004
   1127153.65348    858391.71547  20749042.7504   20749041.2154
        50.5004         42.5004
   -331087.00247   -249958.91945  22730234.8594   22730233.7074
        45.2504         32.5004
     32913.42648     36510.61246  20479829.2894   20479827.9774
        51.0004         40.5004
   1260751.897 5                  25430524.500
        33.250
    763732.33147    588084.04443  24794312.1094   24794311.9024
        42.5004         23.0004
 12  3 16 13 28 46.0000000  0 10G10G08G02G21G29G05G15G26G04G07
   1625437.31846   1237207.50043  24757744.1564   24757744.7234
        36.7504         18.5004
    165180.23147    140069.21943  24593511.4304   24593512.1374
        43.0004         22.0004
   1454430.55248   1114545.91745  21849394.7114   21849391.5394
        48.5004         35.0004
   -151414.79346   -114412.65343  24940188.3054   24940185.7194
        39.2504         19.2504
    607771.09048    470847.86446  21213383.4224   21213381.0394
        50.0004         40.2504
   1128502.34048    859442.64447  20749299.6724   20749297.9804
        50.7504         42.5004
   -334564.93047   -252668.99445  22729573.0314   22729571.8794
        45.7504         32.5004
     30905.34348     34945.87246  20479447.4064   20479445.7034
        51.5004         40.2504
   1264071.056 5                  25431154.523
        33.500
    764014.79147    588304.14443  24794366.1254   24794365.4414
        42.0004         22.5004
 12  3 16 13 28 47.0000000  0 10G10G08G02G21G29G05G15G26G04G07
   1628739.17846   1239780.37742  24758372.4774   24758372.8404
        36.2504         17.7504
    163446.31347    138718.11643  24593181.5704   24593182.5004
        43.2504         22.5004
   1456929.67748   1116493.28245  21849870.2504   21849867.2114
        48.5004         35.2504
   -154506.41046   -116821.69043  24939598.8054   24939597.2234
        38.7504         19.0004
    607577.80548    470697.24846  21213346.4844   21213344.7424
        49.5004         40.0004
   1129850.90348    860493.46747  20749556.4224   20749554.6804
        51.0004         42.5004
   -338043.02747   -255379.19645  22728910.9534   22728910.2234
        44.7504         32.5004
     28897.51448     33381.33146  20479065.3754   20479063.4184
        51.5004         40.5004
   1267389.799 5                  25431785.844
        33.250
    764297.44347    588524.38843  24794419.5234   24794419.2344
        42.2504         22.5004
 12  3 16 13 28 48.0000000  0 10G10G08G02G21G29G05G15G26G04G07
   1632041.34146   1242353.49042  24759000.8594   24759001.4494
        36.0004         17.7504
    161713.09747    137367.55343  24592852.1094   24592852.5864
        43.2504         22.5004
   1459429.45448   1118441.15745  21850346.0784   21850343.2424
        48.2504         34.5004
   -157597.74346   -119230.53043  24939011.2034   24939009.2344
        38.0004         19.0004
    607385.44448    470547.35446  21213309.8054   21213307.8204
        50.2504         40.0004
   1131200.06248    861544.75247  20749813.1334   20749811.0354
        51.0004         42.5004
   -341520.55247   -258088.95445  22728249.1024   22728248.2814
        45.0004         32.7504
     26890.70848     31817.58546  20478683.6254   20478681.8164
        51.5004         40.2504
   1270708.955 5                  25432418.641
        33.500
    764580.94646    588745.29843  24794473.6804   24794473.1414
        41.5004         22.2504
 12  3 16 13 28 49.0000000  0 10G10G08G02G21G29G05G15G26G04G07
   1635343.33046   1244926.45642  24759628.5634   24759629.9924
        36.2504         17.7504
    159980.21047    136017.24543  24592521.9454   24592522.6024
        43.0004         22.7504
   1461929.45948   1120389.21745  21850821.8444   21850818.6174
        48.0004         35.2504
   -160689.26946   -121639.52243  24938422.6254   24938420.8054
        38.2504         19.0004
    607193.65248    470397.90146  21213273.3364   21213271.2854
        50.0004         39.7504
   1132549.41048    862596.20247  20750069.7194   20750067.9654
        51.0004         42.5004
   -344997.92747   -260798.59845  22727587.4844   22727586.3674
        45.5004         33.0004
     24884.47448     30254.28846  20478301.7664   20478300.2304
        51.7504         40.5004
   1274027.971 5                  25433049.977
        33.500
    764864.96646    588966.60443  24794527.6804   24794527.0594
        41.2504         22.2504
 12  3 16 13 28 50.0000000  0 10G10G08G02G21G29G05G15G26G04G07
   1638645.76846   1247499.78842  24760257.6564   24760258.2464
        36.2504         17.2504
    158248.17147    134667.60743  24592192.7734   24592192.8324
        43.0004         22.7504
   1464430.29048   1122337.91145  21851297.5004   21851294.5274
        48.0004         34.7504
   -163780.34046   -124048.15243  24937835.0944   24937832.9534
        39.0004         19.2504
    607002.96848    470249.31446  21213237.1644   21213235.1374
        50.2504         40.0004
   1133899.53148    863648.23647  20750326.7814   20750325.0664
        51.0004         42.5004
   -348474.55647   -263507.65345  22726925.7974   22726925.1134
        45.5004         33.2504
     22879.36848     28691.86546  20477920.0704   20477918.2504
        51.5004         40.5004
   1277347.585 5                  25433682.180
        34.000
    765150.01746    589188.72843  24794581.6954   24794581.0164
        41.2504         22.7504
 12  3 16 13 28 51.0000000  0 10G10G08G02G21G29G05G15G26G04G07
   1641947.71646   1250072.72442  24760885.3054   24760886.6764
        37.0004         17.7504
    156516.11547    133317.96543  24591862.8674   24591863.3014
        43.5004         22.7504
   1466930.99347   1124286.50745  21851773.5314   21851770.9064
        47.7504         35.2504
   -166871.94346   -126457.18943  24937245.8594   24937244.2234
        39.0004         19.2504
    606812.49048    470100.89046  21213201.2114   21213199.1214
        50.5004         40.0004
   1135249.49948    864700.16447  20750583.7734   20750581.6764
        51.0004         42.7504
   -351951.39347   -266216.87445  22726264.2974   22726263.4144
        45.2504         33.0004
     20874.50448     27129.62946  20477538.3834   20477536.7114
        51.5004         40.5004
   1280666.787 5                  25434313.609
        34.750
    765435.18746    589410.93743  24794636.8204   24794635.5704
        41.0004         23.0004
 12  3 16 13 28 52.0000000  0 10G10G08G02G21G29G05G15G26G04G07
   1645249.73446   1252645.68042  24761513.8984   24761514.9654
        36.0004         17.2504
    154784.58947    131968.72944  24591532.8284   24591533.6454
        43.2504         24.0004
   1469432.18247   1126235.49045  21852249.3984   21852246.7344
        47.2504         35.0004
   -169963.46046   -128866.17943  24936658.8524   24936655.9924
        39.5004         19.5004
    606622.79348    469953.07646  21213165.1484   21213162.6484
        51.0004         40.0004
   1136599.89948    865752.42447  20750840.5084   20750838.6684
        51.0004         42.5004
   -355427.80247   -268925.76745  22725603.2894   22725602.1994
        45.0004         33.0004
     18870.46648     25568.04946  20477156.8914   20477155.7504
        51.5004         40.5004
   1283986.172 5                  25434945.430
        34.500
    765721.09646    589633.73243  24794690.4774   24794690.1174
        41.2504         22.7504
 12  3 16 13 28 53.0000000  0 10G10G08G02G21G29G05G15G26G04G07
   1648551.76046   1255218.70042  24762141.8364   24762143.3914
        36.0004         17.2504
    153053.48247    130619.81943  24591203.5234   24591204.3874
        43.5004         23.5004
   1471933.70047   1128184.71845  21852725.6884   21852722.7814
        47.2504         35.0004
   -173054.98246   -131275.14243  24936069.9224   24936068.1054
        39.0004         19.2504
    606433.73248    469805.75346  21213129.4534   21213126.8134
        51.0004         40.0004
   1137950.60848    866804.92547  20751097.9454   20751095.4024
        50.7504         42.5004
   -358903.96847   -271634.46145  22724941.7274   22724940.4924
        45.2504         33.7504
     16867.10448     24006.98346  20476776.0234   20476774.7274
        50.7504         40.5004
   1287305.647 5                  25435577.508
        34.000
    766007.57046    589856.96343  24794745.5084   24794744.7734
        41.2504         22.5004
 12  3 16 13 28 54.0000000  0 10G10G08G02G21G29G05G15G26G04G07
   1651853.57646   1257791.55242  24762770.9454   24762771.7274
        36.2504         17.7504
    151322.66847    129271.12444  24590874.7114   24590875.4264
        43.0004         24.2504
   1474435.42947   1130134.11745  21853201.3284   21853198.3984
        47.0004         35.0004
   -176146.72946   -133684.29543  24935481.3754   24935479.6764
        39.5004         19.0004
    606245.19948    469658.84346  21213092.9304   21213091.0084
        50.7504         40.0004
   1139301.46348    867857.54347  20751354.6414   20751352.5824
        50.5004         42.5004
   -362380.01247   -274343.05945  22724280.1414   22724279.3204
        45.2504         33.2504
     14864.29548     22446.35046  20476394.7034   20476393.0354
        51.2504         40.5004
   1290624.939 5                  25436209.172
        34.000
    766294.49546    590080.54243  24794799.9064   24794799.2664
        41.0004         22.5004
 12  3 16 13 28 55.0000000  0 10G10G08G02G21G29G05G15G26G04G07
   1655155.79146   1260364.69942  24763399.1804   24763400.3634
        36.5004         17.2504
    149592.68347    127923.08344  24590544.8984   24590545.6454
        43.0004         25.2504
   1476937.91447   1132084.09145  21853677.6334   21853674.9224
        47.2504         35.5004
   -179238.08946   -136093.13743  24934893.4064   24934890.9924
        39.2504         19.0004
    606057.73548    469512.76646  21213057.2734   21213054.8874
        50.7504         40.2504
   1140653.04148    868910.71647  20751611.9844   20751609.5234
        50.7504         42.7504
   -365855.34447   -277051.11645  22723618.5554   22723617.8444
        45.7504         33.0004
     12862.57948     20886.57146  20476013.7894   20476012.4064
        51.2504         40.7504
   1293944.799 5                  25436840.328
        34.000
    766582.44046    590304.89943  24794854.4614   24794853.9264
        40.7504         22.5004
 12  3 16 13 28 56.0000000  0 10G10G08G02G21G29G05G15G26G04G07
   1658457.74646   1262937.66842  24764027.5554   24764028.4454
        36.7504         16.7504
    147862.88847    126575.18444  24590216.2734   24590216.7584
        43.0004         25.5004
   1479440.53747   1134034.18145  21854154.0084   21854151.0164
        47.5004         35.0004
   -182329.72846   -138502.20743  24934305.1484   24934302.8324
        39.5004         19.0004
    605870.68948    469367.02046  21213021.7974   21213019.8674
        50.5004         40.0004
   1142004.69548    869963.95147  20751869.1414   20751867.2424
        50.7504         42.7504
   -369330.64847   -279759.14745  22722957.5164   22722956.9344
        45.7504         33.0004
     10861.33448     19327.16446  20475632.9144   20475631.8754
        51.0004         40.7504
   1297264.430 5                  25437472.023
        34.000
    766870.72246    590529.52743  24794909.2424   24794908.8484
        40.2504         22.7504
 12  3 16 13 28 57.0000000  0 10G10G08G02G21G29G05G15G26G04G07
   1661759.66846   1265510.59242  24764655.2194   24764656.8164
        36.0004         16.7504
    146133.50147    125227.60844  24589886.6724   24589888.1094
        42.7504         24.0004
   1481943.47947   1135984.52345  21854630.6724   21854627.5634
        47.7504         35.0004
   -185421.42346   -140911.32743  24933716.5634   24933714.4414
        39.5004         19.0004
    605684.31848    469221.79946  21212986.4694   21212984.1604
        50.5004         39.7504
   1143356.64548    871017.41347  20752126.5234   20752124.2544
        51.0004         42.7504
   -372805.69947   -282466.98245  22722296.0784   22722295.5904
        45.7504         33.0004
      8860.75348     17768.27546  20475252.0864   20475250.8094
        50.5004         40.5004
   1300584.149 5                  25438102.117
        31.000
    767159.58646    590754.61544  24794964.1094   24794963.7974
        41.2504         24.5004
 12  3 16 13 28 58.0000000  0 10G10G08G02G21G29G05G15G26G04G07
   1665061.52145   1268083.45842  24765283.2974   24765285.3284
        35.7504         17.2504
    144404.50647    123880.34944  24589557.8134   24589559.0784
        42.5004         24.7504
   1484446.76148   1137935.13145  21855107.0234   21855104.4414
        48.0004         35.5004
   -188513.17646   -143320.48843  24933127.8284   24933126.6914
        39.5004         19.7504
    605498.56948    469077.06346  21212951.0864   21212949.1334
        50.5004         39.7504
   1144708.85748    872071.08447  20752383.7664   20752381.2704
        50.7504         42.5004
   -376280.47547   -285174.59645  22721634.5474   22721634.3714
        45.7504         33.0004
      6860.85148     16209.90746  20474871.5084   20474870.3484
        50.5004         40.5004
   1303903.877 5                  25438733.977
        31.500
    767449.03246    590980.17343  24795019.4454   24795018.5044
        41.5004         23.5004
 12  3 16 13 28 59.0000000  0 10G10G08G02G21G29G05G15G26G04G07
   1668363.45146   1270656.37942  24765912.0864   24765913.6644
        36.5004         17.7504
    142676.07247    122533.51944  24589228.9454   24589230.0984
        42.0004         25.5004
   1486950.46447   1139886.07245  21855583.3914   21855580.3834
        47.7504         35.2504
   -191604.86046   -145729.60243  24932540.0864   24932538.4104
        38.7504         19.7504
    605313.57748    468932.91046  21212915.2664   21212913.4144
        50.0004         40.0004
   1146061.48248    873125.08347  20752641.3054   20752638.8674
        50.7504         42.7504
   -379754.89747   -287881.93345  22720973.5084   22720973.1804
        45.7504         33.0004
      4861.74148     14652.16346  20474491.2034   20474489.8164
        50.5004         40.7504
   1307223.799 5                  25439367.539
        32.000
    767739.16147    591206.24243  24795075.0704   24795073.9384
        42.0004         23.5004
 12  3 16 13 29  0.0000000  0 10G10G08G02G21G29G05G15G26G04G07
   1671665.21446   1273229.18942  24766540.4614   24766541.9064
        36.0004         17.2504
    140947.85047    121186.84444  24588900.0314   24588901.0904
        42.5004         25.5004
   1489454.38348   1141837.17845  21856059.4384   21856056.7704
        48.2504         35.0004
   -194696.75846   -148138.89143  24931951.5234   24931950.1524
        38.5004         19.7504
    605129.07348    468789.13746  21212880.5394   21212878.4384
        50.0004         40.5004
   1147414.25248    874179.18647  20752898.4844   20752896.5904
        51.0004         42.7504
   -383229.18647   -290589.16745  22720312.3834   22720311.7854
        46.0004         32.7504
      2863.15948     13094.82446  20474110.8594   20474109.5124
        50.7504         41.0004
   1310543.609 5                  25439998.594
        33.250
    768029.72047    591432.63743  24795130.3444   24795129.3094
        42.2504         22.5004
 12  3 16 13 29  1.0000000  0 10G10G08G02G21G29G05G15G26G04G07
   1674967.14346   1275802.13442  24767168.8914   24767170.3754
        36.5004         16.7504
    139220.27447    119840.68444  24588571.8674   24588572.4104
        42.5004         24.0004
   1491958.84348   1143788.70245  21856536.1024   21856533.1684
        48.5004         34.7504
   -197788.47446   -150548.01243  24931363.1884   24931361.6134
        38.5004         19.7504
    604945.46248    468646.06246  21212845.7034   21212843.6024
        49.7504         40.5004
   1148767.53648    875233.69747  20753156.2344   20753153.8484
        51.5004         42.7504
   -386703.02447   -293296.04645  22719651.4064   22719650.7154
        45.7504         33.2504
       865.45848     11538.17146  20473730.8364   20473729.5084
        50.5004         41.0004
   1313863.643 5                  25440628.359
        32.750
    768321.04347    591659.62943  24795185.8364   24795184.6994
        42.2504         22.5004
 12  3 16 13 29  2.0000000  0 10G10G08G02G21G29G05G15G26G04G07
   1678268.99146   1278375.00643  24767797.5704   24767798.9534
        36.2504         18.2504
    137493.07947    118494.82443  24588242.9534   24588243.7384
        42.5004         22.7504
   1494463.60948   1145740.46345  21857012.8674   21857009.8484
        48.5004         35.0004
   -200880.28646   -152957.20743  24930774.8054   24930773.4304
        38.5004         20.0004
    604762.43548    468503.44146  21212810.8834   21212808.7194
        50.0004         40.0004
   1150121.08748    876288.40847  20753413.7274   20753411.7424
        51.2504         42.7504
   -390176.62147   -296002.74245  22718990.3984   22718989.7114
        46.0004         33.5004
     -1131.56948      9982.05446  20473350.6724   20473349.1294
        50.7504         41.0004
   1317183.761 5                  25441261.680
        33.750
    768612.93747    591887.10543  24795241.7894   24795240.4454
        42.5004         22.5004
 12  3 16 13 29  3.0000000  0 10G10G08G02G21G29G05G15G26G04G07
   1681570.69046   1280947.74842  24768426.0084   24768427.1054
        36.7504         17.2504
    135766.20047    117149.20243  24587914.5784   24587914.9414
        42.5004         22.7504
   1496968.62448   1147692.42445  21857489.7344   21857487.0084
        48.5004         35.2504
   -203972.22446   -155366.52043  24930186.2734   24930185.0044
        38.2504         19.7504
    604579.97048    468361.25746  21212776.1094   21212774.3484
        49.7504         39.7504
   1151474.82548    877343.27147  20753671.2274   20753669.3204
        50.7504         42.5004
   -393650.04747   -298709.30545  22718329.5084   22718328.5554
        46.0004         33.2504
     -3128.02648      8426.37346  20472970.7034   20472969.4804
        50.5004         41.0004
   1320503.823 5                  25441894.648
        33.750
    768905.34047    592114.95643  24795297.2814   24795295.8984
        43.0004         22.7504
 12  3 16 13 29  4.0000000  0 10G10G08G02G21G29G05G15G26G04G07
   1684872.53445   1283520.63242  24769053.5704   24769054.9454
        35.5004         17.2504
    134039.89847    115804.03243  24587586.1254   24587586.3714
        42.5004         23.0004
   1499474.14748   1149644.77745  21857966.4844   21857963.4844
        48.7504         35.0004
   -207064.05346   -157775.73043  24929598.4304   24929596.5744
        38.2504         19.7504
    604398.30948    468219.70346  21212741.7504   21212739.4264
        50.5004         40.2504
   1152829.02848    878398.49947  20753928.9774   20753926.8874
        50.5004         42.5004
   -397123.06447   -301415.54645  22717668.4844   22717667.2974
        46.0004         33.5004
     -5123.64848      6871.34346  20472591.0314   20472589.9734
        51.2504         41.0004
   1323824.073 5                  25442526.781
        34.000
    769198.45247    592343.35243  24795352.9924   24795351.7074
        43.2504         23.2504
 12  3 16 13 29  5.0000000  0 10G10G08G02G21G29G05G15G26G04G07
   1688174.19146   1286093.33542  24769682.0704   24769683.1054
        36.2504         16.7504
    132313.88647    114459.09744  24587257.1724   24587258.0274
        43.0004         24.0004
   1501979.87448   1151597.28445  21858443.2734   21858440.3134
        48.2504         34.7504
   -210156.07646   -160185.10643  24929010.0234   24929008.0744
        38.2504         19.7504
    604217.16048    468078.55446  21212707.1484   21212705.4574
        50.5004         40.2504
   1154183.41148    879453.85447  20754186.4304   20754184.3954
        50.2504         42.5004
   -400595.92347   -304121.67645  22717008.0234   22717006.8094
        46.0004         33.2504
     -7118.69948      5316.75246  20472211.4304   20472210.0784
        51.0004         41.0004
   1327144.269 5                  25443158.172
        35.500
    769492.01847    592572.09743  24795408.6954   24795407.6414
        43.0004         23.2504
 12  3 16 13 29  6.0000000  0 10G10G08G02G21G29G05G15G26G04G07
   1691475.83246   1288666.02142  24770311.0164   24770311.7074
        36.7504         16.2504
    130588.30447    113114.49443  24586928.7734   24586929.5354
        43.0004         23.5004
   1504485.95248   1153550.07545  21858920.1564   21858917.3984
        48.2504         35.0004
   -213248.08446   -162594.47143  24928421.5634   24928419.5984
        38.2504         19.7504
    604036.71148    467937.95146  21212672.6884   21212671.2814
        50.5004         40.0004
   1155538.09848    880509.46247  20754444.6804   20754442.1684
        50.2504         42.2504
   -404068.50647   -306827.57645  22716346.9384   22716345.9844
        46.0004         33.5004
     -9113.04448      3762.71946  20471832.0784   20471830.9924
        51.0004         40.7504
   1330464.558 5                  25443789.875
        34.750
    769786.21447    592801.34143  24795464.9304   24795464.0664
        42.0004         22.7504
 12  3 16 13 29  7.0000000  0 10G10G08G02G21G29G05G15G26G04G07
   1694777.41346   1291238.67042  24770939.4454   24770940.0594
        36.5004         16.2504
    128863.11947    111770.19344  24586600.7584   24586601.3014
        42.7504         24.5004
   1506992.36948   1155503.12245  21859397.1024   21859394.2464
        48.7504         34.7504
   -216340.21846   -165003.91643  24927833.6724   24927831.0984
        38.5004         19.5004
    603856.87048    467797.81446  21212638.2734   21212636.3054
        50.2504         40.0004
   1156893.05048    881565.26647  20754702.6254   20754700.3204
        49.7504         42.0004
   -407540.88247   -309533.32345  22715686.0474   22715685.4224
        46.5004         32.5004
    -11106.74848      2209.19146  20471452.6954   20471450.9414
        51.0004         41.0004
   1333784.819 5                  25444422.195
        33.750
    770080.93946    593031.00543  24795520.6094   24795519.7034
        41.5004         22.5004
 12  3 16 13 29  8.0000000  0 10G10G08G02G21G29G05G15G26G04G07
   1698079.21946   1293811.51542  24771566.9304   24771568.3874
        37.2504         16.2504
    127138.59747    110426.40544  24586272.5634   24586273.1414
        42.5004         24.5004
   1509499.37148   1157456.62445  21859874.4774   21859871.4414
        48.7504         35.0004
   -219432.08846   -167413.15343  24927244.8914   24927242.7854
        39.0004         19.5004
    603677.92948    467658.37846  21212604.2974   21212602.8954
        50.2504         40.0004
   1158248.57548    882621.51447  20754960.5004   20754958.4964
        50.0004         42.2504
   -411012.67847   -312238.61445  22715025.4454   22715024.5744
        46.2504         33.0004
    -13099.48648       656.41146  20471073.1644   20471072.0434
        50.5004         41.0004
   1337105.367 5                  25445054.125
        34.000
    770376.50347    593261.31243  24795576.6884   24795576.6724
        42.0004         22.7504
 12  3 16 13 29  9.0000000  0 10G10G08G02G21G29G05G15G26G04G07
   1701380.58146   1296384.01642  24772194.7664   24772196.2504
        37.2504         16.2504
    125414.08747    109082.64443  24585944.2974   24585944.6134
        42.2504         23.0004
   1512006.30248   1159410.06645  21860351.4064   21860348.2664
        48.5004         35.0004
   -222524.48946   -169822.82043  24926656.1024   24926654.4654
        39.2504         19.2504
    603499.23948    467519.14446  21212569.9534   21212568.1684
        50.7504         40.0004
   1159603.96448    883677.66747  20755218.7114   20755216.3404
        50.5004         42.2504
   -414484.65747   -314944.05545  22714364.8204   22714363.8554
        46.2504         32.5004
    -15091.97248      -896.17846  20470694.1884   20470692.7504
        50.5004         41.0004
   1340425.592 5                  25445686.141
        34.250
    770672.25847    593491.76944  24795632.7974   24795632.2704
        42.0004         25.0004
 12  3 16 13 29 10.0000000  0 10G10G08G02G21G29G05G15G26G04G07
   1704682.49146   1298956.91342  24772823.4694   24772824.4184
        37.2504         16.2504
    123690.54347    107739.60743  24585616.7814   24585616.6644
        42.0004         22.5004
   1514514.13048   1161364.21745  21860828.6884   21860825.4734
        48.5004         35.2504
   -225616.32946   -172232.05743  24926067.8204   24926066.0784
        39.5004         19.2504
    603321.76648    467380.84946  21212536.5474   21212534.6024
        50.7504         39.7504
   1160960.22148    884734.49047  20755476.4694   20755474.0704
        50.5004         42.5004
   -417955.79847   -317648.84245  22713704.0004   22713703.2384
        45.5004         32.2504
    -17083.21148     -2447.80146  20470315.4304   20470314.1024
        51.0004         40.7504
   1343746.366 5                  25446318.195
        34.000
    770969.16047    593723.11144  24795689.7814   24795689.0124
        42.7504         24.2504
 12  3 16 13 29 11.0000000  0 10G10G08G02G21G29G05G15G26G04G07
   1707984.14446   1301529.63342  24773451.7194   24773452.7424
        37.5004         16.2504
    121967.25546    106396.77943  24585288.0474   24585288.8244
        41.7504         22.7504
   1517022.13948   1163318.51445  21861305.5634   21861302.8094
        48.7504         35.2504
   -228708.40346   -174641.45543  24925479.2584   24925477.7114
        39.5004         19.2504
    603144.77548    467242.92846  21212503.0004   21212501.2424
        50.5004         40.0004
   1162316.60548    885791.41247  20755734.5164   20755732.2544
        50.7504         42.5004
   -421426.84847   -320353.55345  22713043.1884   22713042.6524
        45.2504         32.5004
    -19073.93348     -3999.01246  20469936.2894   20469935.0864
        51.5004         40.7504
   1347067.140 5                  25446950.180
        34.750
    771266.46247    593954.77644  24795746.5474   24795746.1954
        42.5004         24.2504
 12  3 16 13 29 12.0000000  0 10G10G08G02G21G29G05G15G26G04G07
   1711285.60446   1304102.22942  24774079.5944   24774080.8594
        37.7504         16.2504
    120244.20246    105054.12543  24584960.7664   24584961.0434
        41.5004         22.0004
   1519530.31348   1165272.93145  21861783.2584   21861780.0944
        48.7504         35.5004
   -231800.69046   -177051.01943  24924891.4144   24924889.3284
        39.0004         19.5004
    602968.25748    467105.38346  21212469.3284   21212467.3554
        50.0004         40.0004
   1163673.10748    886848.42347  20755992.5394   20755990.1094
        50.7504         42.2504
   -424897.81147   -323058.19545  22712382.5164   22712382.4844
        45.2504         33.0004
    -21064.13548     -5549.81846  20469557.7734   20469556.3524
        51.5004         40.5004
   1350387.705 5                  25447581.266
        34.000
    771564.19047    594186.76644  24795803.1254   24795802.6294
        42.5004         25.5004
 12  3 16 13 29 13.0000000  0 10G10G08G02G21G29G05G15G26G04G07
   1714586.99946   1306674.72042  24774707.9384   24774708.6994
        38.2504         16.7504
    118521.55746    103711.82643  24584632.6644   24584633.3484
        41.7504         22.0004
   1522038.80648   1167227.60145  21862260.2814   21862257.8284
        49.0004         35.5004
   -234893.03346   -179460.64643  24924302.6414   24924301.1764
        39.0004         20.0004
    602792.37448    466968.32646  21212435.9144   21212434.1094
        50.0004         40.0004
   1165029.90048    887905.66747  20756250.7344   20756248.3754
        50.5004         42.2504
   -428368.54247   -325762.66245  22711722.3754   22711721.6684
        45.5004         32.7504
    -23053.68248     -7100.11446  20469179.0474   20469177.8754
        51.5004         40.5004
   1353708.362 5                  25448213.609
        34.250
    771862.43247    594419.16344  24795859.5004   24795859.5554
        43.0004         24.5004
 12  3 16 13 29 14.0000000  0 10G10G08G02G21G29G05G15G26G04G07
   1717888.67746   1309247.44142  24775336.1644   24775337.1764
        38.2504         16.7504
    116799.63747    102370.06743  24584305.2584   24584305.2034
        42.2504         22.0004
   1524547.93248   1169182.76445  21862737.5394   21862735.3244
        49.0004         35.5004
   -237985.16146   -181870.09243  24923713.8054   24923712.3134
        38.5004         19.7504
    602617.44248    466832.01246  21212402.3674   21212400.8554
        50.2504         40.0004
   1166387.27748    888963.36147  20756509.1094   20756506.6564
        50.7504         42.2504
   -431838.66247   -328466.64845  22711062.0314   22711061.6914
        45.5004         32.2504
    -25042.23148     -8649.63146  20468800.8204   20468799.1804
        51.5004         40.5004
   1357029.364 5                  25448845.086
        34.250
    772161.59847    594652.27144  24795916.5704   24795916.1454
        42.5004         24.2504
 12  3 16 13 29 15.0000000  0 10G10G08G02G21G29G05G15G26G04G07
   1721190.05446   1311819.90342  24775964.5864   24775965.3874
        38.0004         16.2504
    115077.87747    101028.44743  24583977.6884   24583977.4804
        42.2504         22.0004
   1527057.18048   1171138.02345  21863215.3284   21863212.7624
        49.0004         35.2504
   -241077.55846   -184279.74443  24923125.7974   24923123.8794
        39.0004         19.5004
    602442.92048    466696.02546  21212369.5314   21212367.5274
        49.7504         40.0004
   1167744.70448    890021.09647  20756767.5864   20756765.2464
        50.5004         42.5004
   -435308.77847   -331170.63245  22710401.5314   22710401.1374
        46.0004         32.5004
    -27030.33248    -10198.79446  20468422.7194   20468421.0084
        50.7504         40.7504
   1360350.151 5                  25449476.563
        34.500
    772461.08847    594885.63543  24795973.0164   24795972.9964
        42.0004         23.7504
 12  3 16 13 29 16.0000000  0 10G10G08G02G21G29G05G15G26G04G07
   1724491.67546   1314392.60342  24776592.5234   24776593.8754
        38.2504         16.2504
    113356.77947     99687.33343  24583650.0394   24583650.1214
        42.0004         21.5004
   1529567.00148   1173093.72645  21863692.8284   21863689.9024
        49.0004         35.5004
   -244169.73346   -186689.24443  24922537.7814   24922535.5904
        39.0004         19.5004
    602269.27948    466560.72046  21212336.9144   21212334.8404
        50.0004         40.2504
   1169102.68948    891079.26447  20757025.9924   20757023.8364
        50.5004         42.5004
   -438778.36347   -333874.20245  22709741.7114   22709740.8954
        45.5004         32.5004
    -29017.52348    -11747.25546  20468044.3134   20468042.7934
        51.0004         40.5004
   1363671.245 5                  25450108.000
        33.750
    772761.40847    595119.65844  24796030.0944   24796030.2234
        42.5004         24.0004
 12  3 16 13 29 17.0000000  0 10G10G08G02G21G29G05G15G26G04G07
   1727793.02746   1316965.12842  24777220.8054   24777222.0124
        38.0004         16.2504
    111635.90747     98346.38543  24583322.6334   24583322.6564
        42.0004         21.5004
   1532076.94648   1175049.52445  21864170.1644   21864167.3444
        48.2504         35.5004
   -247262.19946   -189098.97043  24921948.6884   24921947.0084
        38.7504         19.2504
    602096.09148    466425.77246  21212303.7734   21212301.6524
        50.0004         40.2504
   1170460.74748    892137.49247  20757284.4454   20757282.1254
        50.7504         42.5004
   -442247.91947   -336577.74445  22709081.7034   22709080.4024
        46.0004         32.5004
    -31004.22748    -13295.33646  20467666.4384   20467664.3754
        51.2504         40.5004
   1366992.237 5                  25450740.320
        34.750
    773062.10747    595353.96843  24796088.4454   24796087.4964
        42.5004         23.5004
 12  3 16 13 29 18.0000000  0 10G10G08G02G21G29G05G15G26G04G07
   1731094.45546   1319537.68542  24777849.1724   24777850.3984
        38.7504         16.2504
    109915.58246     97005.87143  24582995.5234   24582995.1844
        41.2504         21.5004
   1534587.40248   1177005.72145  21864648.1024   21864645.3914
        48.0004         35.5004
   -250354.53646   -191508.58543  24921359.9694   24921358.4384
        38.7504         19.2504
    601923.71148    466291.44946  21212270.5634   21212268.8094
        50.2504         40.0004
   1171819.27748    893196.08047  20757542.7734   20757540.6804
        51.0004         42.7504
   -445717.05747   -339280.96545  22708421.2344   22708420.4774
        46.0004         32.5004
    -32990.09648    -14842.76846  20467288.0784   20467287.0124
        51.0004         40.7504
   1370313.377 5                  25451372.156
        34.000
    773363.53547    595588.83343  24796146.1094   24796145.0784
        42.2504         22.7504
 12  3 16 13 29 19.0000000  0 10G10G08G02G21G29G05G15G26G04G07
   1734395.99946   1322110.32142  24778477.8754   24778478.6094
        38.2504         16.2504
    108195.82046     95665.80143  24582668.1954   24582667.7194
        41.2504         21.5004
   1537098.32848   1178962.27645  21865126.0474   21865122.9024
        48.0004         35.5004
   -253446.76346   -193918.11643  24920771.6884   24920769.7974
        39.2504         19.2504
    601752.10148    466157.72246  21212237.9304   21212236.1804
        50.7504         40.2504
   1173178.20348    894254.98647  20757801.0864   20757799.2074
        51.0004         42.5004
   -449185.78847   -341983.87645  22707761.0554   22707760.6134
        46.0004         32.2504
    -34975.14748    -16389.56246  20466910.5784   20466909.0594
        51.2504         40.5004
   1373634.733 5                  25452004.875
        33.750
    773665.68747    595824.27443  24796203.0704   24796202.0274
        42.2504         22.7504
 12  3 16 13 29 20.0000000  0 10G10G08G02G21G29G05G15G26G04G07
   1737697.22946   1324682.68742  24779106.9064   24779106.5984
        39.0004         17.2504
    106476.17846     94325.81443  24582340.5864   24582340.8834
        41.7504         21.7504
   1539609.29248   1180918.86845  21865604.5394   21865601.3984
        48.2504         35.5004
   -256539.39246   -196327.95443  24920182.8134   24920181.2974
        39.2504         19.2504
    601580.85548    466024.28746  21212205.3594   21212203.5004
        50.5004         40.0004
   1174537.16048    895313.91847  20758060.0394   20758057.8134
        51.0004         42.5004
   -452654.54247   -344686.80445  22707100.9304   22707100.6724
        46.2504         33.0004
    -36959.80448    -17936.04446  20466532.7894   20466531.3094
        51.0004         40.5004
   1376955.822 5                  25452635.164
        32.250
    773968.12447    596059.93243  24796260.2664   24796259.9734
        42.7504         22.2504
 12  3 16 13 29 21.0000000  0 10G10G08G02G21G29G05G15G26G04G07
   1740998.58746   1327255.13742  24779734.5634   24779735.0434
        37.5004         17.2504
    104757.10647     92986.27943  24582013.5234   24582013.6804
        42.5004         22.0004
   1542120.76748   1182875.86145  21866082.1174   21866078.9734
        48.5004         35.5004
   -259631.89546   -198737.70043  24919595.4144   24919592.6294
        38.7504         19.0004
    601410.42248    465891.47946  21212172.8674   21212171.2854
        50.5004         40.0004
   1175896.56048    896373.18847  20758318.7894   20758316.2194
        50.7504         42.7504
   -456122.87347   -347389.40145  22706441.4384   22706440.5554
        46.2504         32.0004
    -38943.60048    -19481.86846  20466155.5864   20466154.0474
        51.2504         40.2504
   1380277.137 5                  25453269.336
        32.500
    774271.32147    596296.18743  24796318.2814   24796317.8874
        42.5004         22.5004
 12  3 16 13 29 22.0000000  0 10G10G08G02G21G29G05G15G26G04G07
   1744299.81446   1329827.53442  24780362.2194   24780363.3524
        38.0004         17.2504
    103038.37146     91647.00843  24581686.4924   24581686.0904
        41.7504         22.0004
   1544632.46648   1184833.03545  21866559.6414   21866556.7194
        49.0004         35.5004
   -262724.49646   -201147.50743  24919006.2664   24919004.7114
        38.5004         19.2504
    601240.54048    465759.09746  21212140.6724   21212138.7704
        50.2504         40.0004
   1177256.15848    897432.61247  20758577.3134   20758575.0664
        50.7504         42.5004
   -459591.04147   -350091.87245  22705781.1334   22705779.9734
        46.2504         32.5004
    -40926.82248    -21027.23446  20465778.1484   20465776.4884
        50.5004         40.0004
   1383598.368 5                  25453900.992
        33.500
    774574.94247    596532.79043  24796375.7974   24796375.1684
        42.5004         22.5004
 12  3 16 13 29 23.0000000  0 10G10G08G02G21G29G05G15G26G04G07
   1747601.17946   1332400.04742  24780990.9224   24780991.6484
        38.2504         16.7504
    101320.26746     90308.22843  24581359.5084   24581359.0634
        41.5004         22.0004
   1547144.74948   1186790.65045  21867037.9304   21867034.7234
        49.5004         35.5004
   -265816.96346   -203557.22443  24918418.1954   24918415.6604
        38.7504         19.2504
    601071.52648    465627.40846  21212108.4694   21212106.7854
        50.0004         40.0004
   1178616.28948    898492.45747  20758836.4454   20758833.9454
        50.7504         42.5004
   -463058.69247   -352793.93745  22705120.7974   22705120.3284
        46.5004         32.0004
    -42909.13048    -22571.88946  20465400.8594   20465399.3134
        51.0004         40.0004
   1386919.854 5                  25454532.289
        34.000
    774879.38546    596770.03443  24796433.4534   24796432.7504
        41.7504         22.7504
 12  3 16 13 29 24.0000000  0 10G10G08G02G21G29G05G15G26G04G07
   1750902.51246   1334972.51142  24781618.7664   24781619.5784
        38.0004         16.2504
     99602.56146     88969.75843  24581032.7114   24581032.2734
        41.7504         21.5004
   1549657.32148   1188748.49645  21867516.0704   21867512.4494
        49.0004         35.2504
   -268909.47046   -205966.96043  24917829.7274   24917827.3754
        39.2504         19.5004
    600903.14448    465496.20346  21212075.9384   21212074.7274
        50.2504         40.5004
   1179976.67248    899552.49547  20759095.2274   20759092.8674
        51.2504         42.5004
   -466526.12147   -355495.83345  22704461.7194   22704460.5664
        46.2504         32.2504
    -44890.79348    -24116.03546  20465023.5554   20465022.0824
        50.5004         40.2504
   1390241.406 5                  25455164.039
        33.250
    775184.42946    597007.72343  24796491.5634   24796491.2974
        39.7504         22.7504
 12  3 16 13 29 25.0000000  0 10G10G08G02G21G29G05G15G26G04G07
   1754204.02046   1337545.12542  24782247.6094   24782248.4024
        37.5004         16.2504
     97885.46246     87631.77343  24580706.3674   24580705.9264
        41.7504         21.5004
   1552170.47248   1190706.79745  21867994.3204   21867991.2304
        49.0004         35.0004
   -272001.83446   -208376.60443  24917241.3284   24917239.0784
        39.0004         19.5004
    600735.60448    465365.64546  21212044.5234   21212042.9964
        50.5004         40.5004
   1181337.55848    900612.92147  20759354.1484   20759351.7584
        51.0004         42.7504
   -469993.07147   -358197.34445  22703801.9774   22703800.6884
        46.2504         32.0004
    -46871.56048    -25659.48846  20464646.7274   20464645.2034
        50.7504         40.2504
   1393563.257 5                  25455796.594
        34.250
    775490.24046    597246.02543  24796550.2974   24796549.4694
        39.5004         22.7504
